[
  {
    "circlename": "Tamilnadu Circle",
    "regionname": "Central Region Trichirapalli",
    "divisionname": "Tiruchirapalli Division",
    "officename": "Kunamangalam BO",
    "pincode": "621701",
    "officetype": "BO",
    "delivery": "Delivery",
    "district": "Ariyalur",
    "statename": "TAMIL NADU",
    "latitude": "11.0200000",
    "longitude": "79.2800000"
  },
  {
    "circlename": "Tamilnadu Circle",
    "regionname": "Central Region Trichirapalli",
    "divisionname": "Tiruchirapalli Division",
    "officename": "Muthuvancheri BO",
    "pincode": "621701",
    "officetype": "BO",
    "delivery": "Delivery",
    "district": "Ariyalur",
    "statename": "TAMIL NADU",
    "latitude": "11.0200000",
    "longitude": "79.2800000"
  },
  {
    "circlename": "Tamilnadu Circle",
    "regionname": "Central Region Trichirapalli",
    "divisionname": "Tiruchirapalli Division",
    "officename": "Periyavenmani BO",
    "pincode": "621704",
    "officetype": "BO",
    "delivery": "Delivery",
    "district": "Ariyalur",
    "statename": "TAMIL NADU",
    "latitude": "11.1200000",
    "longitude": "79.0900000"
  },
  {
    "circlename": "Tamilnadu Circle",
    "regionname": "Central Region Trichirapalli",
    "divisionname": "Tiruchirapalli Division",
    "officename": "Subbarayapuram BO",
    "pincode": "621704",
    "officetype": "BO",
    "delivery": "Delivery",
    "district": "Ariyalur",
    "statename": "TAMIL NADU",
    "latitude": "11.1200000",
    "longitude": "79.0900000"
  },
  {
    "circlename": "Tamilnadu Circle",
    "regionname": "Central Region Trichirapalli",
    "divisionname": "Tiruchirapalli Division",
    "officename": "Edayakurichi BO",
    "pincode": "621719",
    "officetype": "BO",
    "delivery": "Delivery",
    "district": "Ariyalur",
    "statename": "TAMIL NADU",
    "latitude": "11.3200000",
    "longitude": "79.2700000"
  },
  {
    "circlename": "Tamilnadu Circle",
    "regionname": "Central Region Trichirapalli",
    "divisionname": "Tiruchirapalli Division",
    "officename": "Kuruvalapparkoil BO",
    "pincode": "612901",
    "officetype": "BO",
    "delivery": "Delivery",
    "district": "Ariyalur",
    "statename": "TAMIL NADU",
    "latitude": "11.2100000",
    "longitude": "79.4400000"
  },
  {
    "circlename": "Tamilnadu Circle",
    "regionname": "Central Region Trichirapalli",
    "divisionname": "Tiruchirapalli Division",
    "officename": "Angarayanallur BO",
    "pincode": "621802",
    "officetype": "BO",
    "delivery": "Delivery",
    "district": "Ariyalur",
    "statename": "TAMIL NADU",
    "latitude": "11.1700000",
    "longitude": "79.3500000"
  },
  {
    "circlename": "Tamilnadu Circle",
    "regionname": "Central Region Trichirapalli",
    "divisionname": "Tiruchirapalli Division",
    "officename": "Chinnavalayam BO",
    "pincode": "621802",
    "officetype": "BO",
    "delivery": "Delivery",
    "district": "Ariyalur",
    "statename": "TAMIL NADU",
    "latitude": "11.2100000",
    "longitude": "79.3900000"
  },
  {
    "circlename": "Tamilnadu Circle",
    "regionname": "Central Region Trichirapalli",
    "divisionname": "Tiruchirapalli Division",
    "officename": "Kaluvanthondi BO",
    "pincode": "621802",
    "officetype": "BO",
    "delivery": "Delivery",
    "district": "Ariyalur",
    "statename": "TAMIL NADU",
    "latitude": "11.1800000",
    "longitude": "79.3700000"
  },
  {
    "circlename": "Tamilnadu Circle",
    "regionname": "Central Region Trichirapalli",
    "divisionname": "Tiruchirapalli Division",
    "officename": "Kilakudiyiruppu BO",
    "pincode": "621802",
    "officetype": "BO",
    "delivery": "Delivery",
    "district": "Ariyalur",
    "statename": "TAMIL NADU",
    "latitude": "11.2200000",
    "longitude": "79.3600000"
  },
  {
    "circlename": "Tamilnadu Circle",
    "regionname": "Central Region Trichirapalli",
    "divisionname": "Tiruchirapalli Division",
    "officename": "Ottakoil BO",
    "pincode": "621705",
    "officetype": "BO",
    "delivery": "Delivery",
    "district": "Ariyalur",
    "statename": "TAMIL NADU",
    "latitude": "11.1900000",
    "longitude": "79.1100000"
  },
  {
    "circlename": "Tamilnadu Circle",
    "regionname": "Central Region Trichirapalli",
    "divisionname": "Tiruchirapalli Division",
    "officename": "Anikduichan BO",
    "pincode": "621803",
    "officetype": "BO",
    "delivery": "Delivery",
    "district": "Ariyalur",
    "statename": "TAMIL NADU",
    "latitude": "11.2900000",
    "longitude": "79.4000000"
  },
  {
    "circlename": "Tamilnadu Circle",
    "regionname": "Central Region Trichirapalli",
    "divisionname": "Tiruchirapalli Division",
    "officename": "Kalleri BO",
    "pincode": "621803",
    "officetype": "BO",
    "delivery": "Delivery",
    "district": "Ariyalur",
    "statename": "TAMIL NADU",
    "latitude": "11.2600000",
    "longitude": "79.4000000"
  },
  {
    "circlename": "Tamilnadu Circle",
    "regionname": "Central Region Trichirapalli",
    "divisionname": "Tiruchirapalli Division",
    "officename": "Koovathur BO",
    "pincode": "621803",
    "officetype": "BO",
    "delivery": "Delivery",
    "district": "Ariyalur",
    "statename": "TAMIL NADU",
    "latitude": "11.3000000",
    "longitude": "79.3700000"
  },
  {
    "circlename": "Tamilnadu Circle",
    "regionname": "Central Region Trichirapalli",
    "divisionname": "Tiruchirapalli Division",
    "officename": "Vettiarvettu BO",
    "pincode": "621803",
    "officetype": "BO",
    "delivery": "Delivery",
    "district": "Ariyalur",
    "statename": "TAMIL NADU",
    "latitude": "11.2500000",
    "longitude": "79.4300000"
  },
  {
    "circlename": "Tamilnadu Circle",
    "regionname": "Central Region Trichirapalli",
    "divisionname": "Tiruchirapalli Division",
    "officename": "ZMelur BO",
    "pincode": "621803",
    "officetype": "BO",
    "delivery": "Delivery",
    "district": "Ariyalur",
    "statename": "TAMIL NADU",
    "latitude": "11.2500000",
    "longitude": "79.4000000"
  },
  {
    "circlename": "Tamilnadu Circle",
    "regionname": "Central Region Trichirapalli",
    "divisionname": "Tiruchirapalli Division",
    "officename": "Olaiyur BO",
    "pincode": "608901",
    "officetype": "BO",
    "delivery": "Delivery",
    "district": "Ariyalur",
    "statename": "TAMIL NADU",
    "latitude": "11.4100000",
    "longitude": "79.3200000"
  },
  {
    "circlename": "Tamilnadu Circle",
    "regionname": "Central Region Trichirapalli",
    "divisionname": "Tiruchirapalli Division",
    "officename": "Rangiam BO",
    "pincode": "608901",
    "officetype": "BO",
    "delivery": "Delivery",
    "district": "Ariyalur",
    "statename": "TAMIL NADU",
    "latitude": "11.3800000",
    "longitude": "79.3800000"
  },
  {
    "circlename": "Tamilnadu Circle",
    "regionname": "Central Region Trichirapalli",
    "divisionname": "Tiruchirapalli Division",
    "officename": "Arungal BO",
    "pincode": "621707",
    "officetype": "BO",
    "delivery": "Delivery",
    "district": "Ariyalur",
    "statename": "TAMIL NADU",
    "latitude": "11.0200000",
    "longitude": "79.1100000"
  },
  {
    "circlename": "Tamilnadu Circle",
    "regionname": "Central Region Trichirapalli",
    "divisionname": "Tiruchirapalli Division",
    "officename": "Karuppur Senapathy BO",
    "pincode": "621707",
    "officetype": "BO",
    "delivery": "Delivery",
    "district": "Ariyalur",
    "statename": "TAMIL NADU",
    "latitude": "11.0300000",
    "longitude": "79.1300000"
  },
  {
    "circlename": "Tamilnadu Circle",
    "regionname": "Central Region Trichirapalli",
    "divisionname": "Tiruchirapalli Division",
    "officename": "Anaikudam BO",
    "pincode": "612902",
    "officetype": "BO",
    "delivery": "Delivery",
    "district": "Ariyalur",
    "statename": "TAMIL NADU",
    "latitude": "11.1400000",
    "longitude": "79.3800000"
  },
  {
    "circlename": "Tamilnadu Circle",
    "regionname": "Central Region Trichirapalli",
    "divisionname": "Tiruchirapalli Division",
    "officename": "Kodali BO",
    "pincode": "612902",
    "officetype": "BO",
    "delivery": "Delivery",
    "district": "Ariyalur",
    "statename": "TAMIL NADU",
    "latitude": "11.1500000",
    "longitude": "79.4300000"
  },
  {
    "circlename": "Tamilnadu Circle",
    "regionname": "Central Region Trichirapalli",
    "divisionname": "Tiruchirapalli Division",
    "officename": "Kattagaram BO",
    "pincode": "612903",
    "officetype": "BO",
    "delivery": "Delivery",
    "district": "Ariyalur",
    "statename": "TAMIL NADU",
    "latitude": "11.2200000",
    "longitude": "79.4500000"
  },
  {
    "circlename": "Tamilnadu Circle",
    "regionname": "Central Region Trichirapalli",
    "divisionname": "Tiruchirapalli Division",
    "officename": "Marudur BO",
    "pincode": "621710",
    "officetype": "BO",
    "delivery": "Delivery",
    "district": "Ariyalur",
    "statename": "TAMIL NADU",
    "latitude": "11.2600000",
    "longitude": "79.2700000"
  },
  {
    "circlename": "Tamilnadu Circle",
    "regionname": "Central Region Trichirapalli",
    "divisionname": "Tiruchirapalli Division",
    "officename": "PKudikadu BO",
    "pincode": "621710",
    "officetype": "BO",
    "delivery": "Delivery",
    "district": "Ariyalur",
    "statename": "TAMIL NADU",
    "latitude": "11.2700000",
    "longitude": "79.2300000"
  },
  {
    "circlename": "Tamilnadu Circle",
    "regionname": "Central Region Trichirapalli",
    "divisionname": "Tiruchirapalli Division",
    "officename": "Vallam BO",
    "pincode": "621710",
    "officetype": "BO",
    "delivery": "Delivery",
    "district": "Ariyalur",
    "statename": "TAMIL NADU",
    "latitude": "11.2600000",
    "longitude": "79.2800000"
  },
  {
    "circlename": "Tamilnadu Circle",
    "regionname": "Central Region Trichirapalli",
    "divisionname": "Tiruchirapalli Division",
    "officename": "Annanagar BO",
    "pincode": "621713",
    "officetype": "BO",
    "delivery": "Non Delivery",
    "district": "Ariyalur",
    "statename": "TAMIL NADU",
    "latitude": "11.1500000",
    "longitude": "79.0700000"
  },
  {
    "circlename": "Tamilnadu Circle",
    "regionname": "Central Region Trichirapalli",
    "divisionname": "Tiruchirapalli Division",
    "officename": "Manakkal Ariyalur BO",
    "pincode": "621713",
    "officetype": "BO",
    "delivery": "Delivery",
    "district": "Ariyalur",
    "statename": "TAMIL NADU",
    "latitude": "11.2000000",
    "longitude": "79.0800000"
  },
  {
    "circlename": "Tamilnadu Circle",
    "regionname": "Central Region Trichirapalli",
    "divisionname": "Tiruchirapalli Division",
    "officename": "Anandavadi BO",
    "pincode": "621718",
    "officetype": "BO",
    "delivery": "Delivery",
    "district": "Ariyalur",
    "statename": "TAMIL NADU",
    "latitude": "11.1900000",
    "longitude": "79.1700000"
  },
  {
    "circlename": "Tamilnadu Circle",
    "regionname": "Central Region Trichirapalli",
    "divisionname": "Tiruchirapalli Division",
    "officename": "Pottaveli BO",
    "pincode": "621718",
    "officetype": "BO",
    "delivery": "Delivery",
    "district": "Ariyalur",
    "statename": "TAMIL NADU",
    "latitude": "11.2300000",
    "longitude": "79.1500000"
  },
  {
    "circlename": "Tamilnadu Circle",
    "regionname": "Central Region Trichirapalli",
    "divisionname": "Tiruchirapalli Division",
    "officename": "Poyyadhanallur BO",
    "pincode": "621718",
    "officetype": "BO",
    "delivery": "Delivery",
    "district": "Ariyalur",
    "statename": "TAMIL NADU",
    "latitude": "11.2200000",
    "longitude": "79.1200000"
  },
  {
    "circlename": "Tamilnadu Circle",
    "regionname": "Central Region Trichirapalli",
    "divisionname": "Tiruchirapalli Division",
    "officename": "Neivanam BO",
    "pincode": "621714",
    "officetype": "BO",
    "delivery": "Non Delivery",
    "district": "Ariyalur",
    "statename": "TAMIL NADU",
    "latitude": "11.2500000",
    "longitude": "79.1800000"
  },
  {
    "circlename": "Tamilnadu Circle",
    "regionname": "Central Region Trichirapalli",
    "divisionname": "Tiruchirapalli Division",
    "officename": "Idanganni BO",
    "pincode": "612904",
    "officetype": "BO",
    "delivery": "Delivery",
    "district": "Ariyalur",
    "statename": "TAMIL NADU",
    "latitude": "11.1000000",
    "longitude": "79.3900000"
  },
  {
    "circlename": "Tamilnadu Circle",
    "regionname": "Central Region Trichirapalli",
    "divisionname": "Tiruchirapalli Division",
    "officename": "Kottiyal BO",
    "pincode": "612904",
    "officetype": "BO",
    "delivery": "Delivery",
    "district": "Ariyalur",
    "statename": "TAMIL NADU",
    "latitude": "11.1000000",
    "longitude": "79.3200000"
  },
  {
    "circlename": "Tamilnadu Circle",
    "regionname": "Central Region Trichirapalli",
    "divisionname": "Tiruchirapalli Division",
    "officename": "Vazhaikurichi BO",
    "pincode": "612904",
    "officetype": "BO",
    "delivery": "Delivery",
    "district": "Ariyalur",
    "statename": "TAMIL NADU",
    "latitude": "11.0700000",
    "longitude": "79.3700000"
  },
  {
    "circlename": "Tamilnadu Circle",
    "regionname": "Central Region Trichirapalli",
    "divisionname": "Tiruchirapalli Division",
    "officename": "Kuruvadi BO",
    "pincode": "621715",
    "officetype": "BO",
    "delivery": "Delivery",
    "district": "Ariyalur",
    "statename": "TAMIL NADU",
    "latitude": "10.9800000",
    "longitude": "79.2300000"
  },
  {
    "circlename": "Tamilnadu Circle",
    "regionname": "Central Region Trichirapalli",
    "divisionname": "Tiruchirapalli Division",
    "officename": "Manjamedu Karaipakkam BO",
    "pincode": "621715",
    "officetype": "BO",
    "delivery": "Delivery",
    "district": "Ariyalur",
    "statename": "TAMIL NADU",
    "latitude": "10.9400000",
    "longitude": "79.0900000"
  },
  {
    "circlename": "Tamilnadu Circle",
    "regionname": "Central Region Trichirapalli",
    "divisionname": "Tiruchirapalli Division",
    "officename": "Tiruppeyar BO",
    "pincode": "621715",
    "officetype": "BO",
    "delivery": "Delivery",
    "district": "Ariyalur",
    "statename": "TAMIL NADU",
    "latitude": "10.9800000",
    "longitude": "79.0700000"
  },
  {
    "circlename": "Tamilnadu Circle",
    "regionname": "Central Region Trichirapalli",
    "divisionname": "Tiruchirapalli Division",
    "officename": "Nayanganaipiriyal BO",
    "pincode": "621804",
    "officetype": "BO",
    "delivery": "Delivery",
    "district": "Ariyalur",
    "statename": "TAMIL NADU",
    "latitude": "11.1300000",
    "longitude": "79.3400000"
  },
  {
    "circlename": "Tamilnadu Circle",
    "regionname": "Central Region Trichirapalli",
    "divisionname": "Tiruchirapalli Division",
    "officename": "Paranam BO",
    "pincode": "621804",
    "officetype": "BO",
    "delivery": "Delivery",
    "district": "Ariyalur",
    "statename": "TAMIL NADU",
    "latitude": "11.1900000",
    "longitude": "79.2600000"
  },
  {
    "circlename": "Tamilnadu Circle",
    "regionname": "Central Region Trichirapalli",
    "divisionname": "Tiruchirapalli Division",
    "officename": "Zamin Suthamalli BO",
    "pincode": "621804",
    "officetype": "BO",
    "delivery": "Delivery",
    "district": "Ariyalur",
    "statename": "TAMIL NADU",
    "latitude": "11.1200000",
    "longitude": "79.2400000"
  },
  {
    "circlename": "Tamilnadu Circle",
    "regionname": "Central Region Trichirapalli",
    "divisionname": "Tiruchirapalli Division",
    "officename": "Thennur BO",
    "pincode": "621805",
    "officetype": "BO",
    "delivery": "Delivery",
    "district": "Ariyalur",
    "statename": "TAMIL NADU",
    "latitude": "11.3400000",
    "longitude": "79.4200000"
  },
  {
    "circlename": "Tamilnadu Circle",
    "regionname": "Central Region Trichirapalli",
    "divisionname": "Tiruchirapalli Division",
    "officename": "Tirukalappur BO",
    "pincode": "621805",
    "officetype": "BO",
    "delivery": "Delivery",
    "district": "Ariyalur",
    "statename": "TAMIL NADU",
    "latitude": "11.3100000",
    "longitude": "79.1100000"
  },
  {
    "circlename": "Tamilnadu Circle",
    "regionname": "Central Region Trichirapalli",
    "divisionname": "Tiruchirapalli Division",
    "officename": "Pudukudi BO",
    "pincode": "621806",
    "officetype": "BO",
    "delivery": "Delivery",
    "district": "Ariyalur",
    "statename": "TAMIL NADU",
    "latitude": "11.2400000",
    "longitude": "79.3300000"
  },
  {
    "circlename": "Tamilnadu Circle",
    "regionname": "Central Region Trichirapalli",
    "divisionname": "Tiruchirapalli Division",
    "officename": "Gangaikondacholapuram SO",
    "pincode": "612901",
    "officetype": "PO",
    "delivery": "Delivery",
    "district": "Ariyalur",
    "statename": "TAMIL NADU",
    "latitude": "11.2072778",
    "longitude": "79.4491111"
  },
  {
    "circlename": "Tamilnadu Circle",
    "regionname": "Central Region Trichirapalli",
    "divisionname": "Tiruchirapalli Division",
    "officename": "Kallathur Thandalai SO",
    "pincode": "621803",
    "officetype": "PO",
    "delivery": "Delivery",
    "district": "Ariyalur",
    "statename": "TAMIL NADU",
    "latitude": "11.0000000",
    "longitude": "78.3200000"
  },
  {
    "circlename": "Tamilnadu Circle",
    "regionname": "Central Region Trichirapalli",
    "divisionname": "Tiruchirapalli Division",
    "officename": "Kodalikaruppur SO",
    "pincode": "612902",
    "officetype": "PO",
    "delivery": "Delivery",
    "district": "Ariyalur",
    "statename": "TAMIL NADU",
    "latitude": "11.1876900",
    "longitude": "79.2581480"
  },
  {
    "circlename": "Tamilnadu Circle",
    "regionname": "Central Region Trichirapalli",
    "divisionname": "Tiruchirapalli Division",
    "officename": "Rayambaram SO",
    "pincode": "621718",
    "officetype": "PO",
    "delivery": "Delivery",
    "district": "Ariyalur",
    "statename": "TAMIL NADU",
    "latitude": "11.2170556",
    "longitude": "79.1598333"
  },
  {
    "circlename": "Tamilnadu Circle",
    "regionname": "Central Region Trichirapalli",
    "divisionname": "Tiruchirapalli Division",
    "officename": "Varadarajampettai SO",
    "pincode": "621805",
    "officetype": "PO",
    "delivery": "Delivery",
    "district": "Ariyalur",
    "statename": "TAMIL NADU",
    "latitude": "11.1876900",
    "longitude": "79.2581480"
  },
  {
    "circlename": "Tamilnadu Circle",
    "regionname": "Central Region Trichirapalli",
    "divisionname": "Srirangam Division",
    "officename": "Namangunam B.O",
    "pincode": "621716",
    "officetype": "BO",
    "delivery": "Delivery",
    "district": "Ariyalur",
    "statename": "TAMIL NADU",
    "latitude": "11.2800000",
    "longitude": "79.1200000"
  },
  {
    "circlename": "Tamilnadu Circle",
    "regionname": "Central Region Trichirapalli",
    "divisionname": "Tiruchirapalli Division",
    "officename": "Kadambur BO",
    "pincode": "621701",
    "officetype": "BO",
    "delivery": "Delivery",
    "district": "Ariyalur",
    "statename": "TAMIL NADU",
    "latitude": "11.0200000",
    "longitude": "79.2800000"
  },
  {
    "circlename": "Tamilnadu Circle",
    "regionname": "Central Region Trichirapalli",
    "divisionname": "Tiruchirapalli Division",
    "officename": "Nagamangalam BO",
    "pincode": "621701",
    "officetype": "BO",
    "delivery": "Delivery",
    "district": "Ariyalur",
    "statename": "TAMIL NADU",
    "latitude": "11.4400000",
    "longitude": "79.3500000"
  },
  {
    "circlename": "Tamilnadu Circle",
    "regionname": "Central Region Trichirapalli",
    "divisionname": "Tiruchirapalli Division",
    "officename": "Sripurandan BO",
    "pincode": "621701",
    "officetype": "BO",
    "delivery": "Delivery",
    "district": "Ariyalur",
    "statename": "TAMIL NADU",
    "latitude": "11.0800000",
    "longitude": "79.1600000"
  },
  {
    "circlename": "Tamilnadu Circle",
    "regionname": "Central Region Trichirapalli",
    "divisionname": "Tiruchirapalli Division",
    "officename": "Sundakudi BO",
    "pincode": "621701",
    "officetype": "BO",
    "delivery": "Delivery",
    "district": "Ariyalur",
    "statename": "TAMIL NADU",
    "latitude": "11.0800000",
    "longitude": "79.1600000"
  },
  {
    "circlename": "Tamilnadu Circle",
    "regionname": "Central Region Trichirapalli",
    "divisionname": "Tiruchirapalli Division",
    "officename": "Pattanamkurichi BO",
    "pincode": "621801",
    "officetype": "BO",
    "delivery": "Delivery",
    "district": "Ariyalur",
    "statename": "TAMIL NADU",
    "latitude": "10.8900000",
    "longitude": "78.9000000"
  },
  {
    "circlename": "Tamilnadu Circle",
    "regionname": "Central Region Trichirapalli",
    "divisionname": "Tiruchirapalli Division",
    "officename": "Valajanagaram BO",
    "pincode": "621704",
    "officetype": "BO",
    "delivery": "Delivery",
    "district": "Ariyalur",
    "statename": "TAMIL NADU",
    "latitude": "11.1200000",
    "longitude": "79.0900000"
  },
  {
    "circlename": "Tamilnadu Circle",
    "regionname": "Central Region Trichirapalli",
    "divisionname": "Tiruchirapalli Division",
    "officename": "Manakudayan BO",
    "pincode": "621719",
    "officetype": "BO",
    "delivery": "Delivery",
    "district": "Ariyalur",
    "statename": "TAMIL NADU",
    "latitude": "11.3200000",
    "longitude": "79.2700000"
  },
  {
    "circlename": "Tamilnadu Circle",
    "regionname": "Central Region Trichirapalli",
    "divisionname": "Tiruchirapalli Division",
    "officename": "Dalavoy BO",
    "pincode": "621730",
    "officetype": "BO",
    "delivery": "Delivery",
    "district": "Ariyalur",
    "statename": "TAMIL NADU",
    "latitude": "11.3600000",
    "longitude": "79.2100000"
  },
  {
    "circlename": "Tamilnadu Circle",
    "regionname": "Central Region Trichirapalli",
    "divisionname": "Tiruchirapalli Division",
    "officename": "Siluppanur BO",
    "pincode": "621730",
    "officetype": "BO",
    "delivery": "Delivery",
    "district": "Ariyalur",
    "statename": "TAMIL NADU",
    "latitude": "11.3700000",
    "longitude": "79.1800000"
  },
  {
    "circlename": "Tamilnadu Circle",
    "regionname": "Central Region Trichirapalli",
    "divisionname": "Tiruchirapalli Division",
    "officename": "Ayuthakalam BO",
    "pincode": "612905",
    "officetype": "BO",
    "delivery": "Delivery",
    "district": "Ariyalur",
    "statename": "TAMIL NADU",
    "latitude": "11.1700000",
    "longitude": "79.4300000"
  },
  {
    "circlename": "Tamilnadu Circle",
    "regionname": "Central Region Trichirapalli",
    "divisionname": "Tiruchirapalli Division",
    "officename": "Meikavalputhur BO",
    "pincode": "612901",
    "officetype": "BO",
    "delivery": "Delivery",
    "district": "Ariyalur",
    "statename": "TAMIL NADU",
    "latitude": "11.1900000",
    "longitude": "79.4600000"
  },
  {
    "circlename": "Tamilnadu Circle",
    "regionname": "Central Region Trichirapalli",
    "divisionname": "Tiruchirapalli Division",
    "officename": "Vanavanallur BO",
    "pincode": "612901",
    "officetype": "BO",
    "delivery": "Delivery",
    "district": "Ariyalur",
    "statename": "TAMIL NADU",
    "latitude": "11.1800000",
    "longitude": "79.4700000"
  },
  {
    "circlename": "Tamilnadu Circle",
    "regionname": "Central Region Trichirapalli",
    "divisionname": "Tiruchirapalli Division",
    "officename": "Methal BO",
    "pincode": "621653",
    "officetype": "BO",
    "delivery": "Delivery",
    "district": "Ariyalur",
    "statename": "TAMIL NADU",
    "latitude": "11.0300000",
    "longitude": "79.0100000"
  },
  {
    "circlename": "Tamilnadu Circle",
    "regionname": "Central Region Trichirapalli",
    "divisionname": "Tiruchirapalli Division",
    "officename": "Sannavur BO",
    "pincode": "621651",
    "officetype": "BO",
    "delivery": "Delivery",
    "district": "Ariyalur",
    "statename": "TAMIL NADU",
    "latitude": "10.9700000",
    "longitude": "78.9900000"
  },
  {
    "circlename": "Tamilnadu Circle",
    "regionname": "Central Region Trichirapalli",
    "divisionname": "Tiruchirapalli Division",
    "officename": "Lingathadimedu BO",
    "pincode": "621705",
    "officetype": "BO",
    "delivery": "Delivery",
    "district": "Ariyalur",
    "statename": "TAMIL NADU",
    "latitude": "11.1300000",
    "longitude": "79.1000000"
  },
  {
    "circlename": "Tamilnadu Circle",
    "regionname": "Central Region Trichirapalli",
    "divisionname": "Tiruchirapalli Division",
    "officename": "Kumiliankuli BO",
    "pincode": "621803",
    "officetype": "BO",
    "delivery": "Delivery",
    "district": "Ariyalur",
    "statename": "TAMIL NADU",
    "latitude": "11.2800000",
    "longitude": "79.4100000"
  },
  {
    "circlename": "Tamilnadu Circle",
    "regionname": "Central Region Trichirapalli",
    "divisionname": "Tiruchirapalli Division",
    "officename": "Vadugarpalayam BO",
    "pincode": "621803",
    "officetype": "BO",
    "delivery": "Delivery",
    "district": "Ariyalur",
    "statename": "TAMIL NADU",
    "latitude": "10.9700000",
    "longitude": "79.1200000"
  },
  {
    "circlename": "Tamilnadu Circle",
    "regionname": "Central Region Trichirapalli",
    "divisionname": "Tiruchirapalli Division",
    "officename": "Vizhapallam BO",
    "pincode": "621803",
    "officetype": "BO",
    "delivery": "Delivery",
    "district": "Ariyalur",
    "statename": "TAMIL NADU",
    "latitude": "11.2500000",
    "longitude": "79.4000000"
  },
  {
    "circlename": "Tamilnadu Circle",
    "regionname": "Central Region Trichirapalli",
    "divisionname": "Tiruchirapalli Division",
    "officename": "Kilaiyur BO",
    "pincode": "621707",
    "officetype": "BO",
    "delivery": "Delivery",
    "district": "Ariyalur",
    "statename": "TAMIL NADU",
    "latitude": "11.0400000",
    "longitude": "79.0300000"
  },
  {
    "circlename": "Tamilnadu Circle",
    "regionname": "Central Region Trichirapalli",
    "divisionname": "Tiruchirapalli Division",
    "officename": "Vettiyur BO",
    "pincode": "621707",
    "officetype": "BO",
    "delivery": "Delivery",
    "district": "Ariyalur",
    "statename": "TAMIL NADU",
    "latitude": "11.0100000",
    "longitude": "79.0400000"
  },
  {
    "circlename": "Tamilnadu Circle",
    "regionname": "Central Region Trichirapalli",
    "divisionname": "Tiruchirapalli Division",
    "officename": "Solamadevi BO",
    "pincode": "612902",
    "officetype": "BO",
    "delivery": "Delivery",
    "district": "Ariyalur",
    "statename": "TAMIL NADU",
    "latitude": "11.1300000",
    "longitude": "79.4000000"
  },
  {
    "circlename": "Tamilnadu Circle",
    "regionname": "Central Region Trichirapalli",
    "divisionname": "Tiruchirapalli Division",
    "officename": "Ayantattanur BO",
    "pincode": "621709",
    "officetype": "BO",
    "delivery": "Delivery",
    "district": "Ariyalur",
    "statename": "TAMIL NADU",
    "latitude": "11.3300000",
    "longitude": "79.1900000"
  },
  {
    "circlename": "Tamilnadu Circle",
    "regionname": "Central Region Trichirapalli",
    "divisionname": "Tiruchirapalli Division",
    "officename": "Alathipallam BO",
    "pincode": "612903",
    "officetype": "BO",
    "delivery": "Delivery",
    "district": "Ariyalur",
    "statename": "TAMIL NADU",
    "latitude": "11.2600000",
    "longitude": "79.4500000"
  },
  {
    "circlename": "Tamilnadu Circle",
    "regionname": "Central Region Trichirapalli",
    "divisionname": "Tiruchirapalli Division",
    "officename": "Vangudi BO",
    "pincode": "612903",
    "officetype": "BO",
    "delivery": "Delivery",
    "district": "Ariyalur",
    "statename": "TAMIL NADU",
    "latitude": "11.2800000",
    "longitude": "79.4600000"
  },
  {
    "circlename": "Tamilnadu Circle",
    "regionname": "Central Region Trichirapalli",
    "divisionname": "Tiruchirapalli Division",
    "officename": "Therkupatti BO",
    "pincode": "621710",
    "officetype": "BO",
    "delivery": "Delivery",
    "district": "Ariyalur",
    "statename": "TAMIL NADU",
    "latitude": "11.2600000",
    "longitude": "79.2800000"
  },
  {
    "circlename": "Tamilnadu Circle",
    "regionname": "Central Region Trichirapalli",
    "divisionname": "Tiruchirapalli Division",
    "officename": "Vellur BO",
    "pincode": "621718",
    "officetype": "BO",
    "delivery": "Delivery",
    "district": "Ariyalur",
    "statename": "TAMIL NADU",
    "latitude": "11.2500000",
    "longitude": "79.1400000"
  },
  {
    "circlename": "Tamilnadu Circle",
    "regionname": "Central Region Trichirapalli",
    "divisionname": "Tiruchirapalli Division",
    "officename": "Vanjinapuram BO",
    "pincode": "621714",
    "officetype": "BO",
    "delivery": "Delivery",
    "district": "Ariyalur",
    "statename": "TAMIL NADU",
    "latitude": "11.2800000",
    "longitude": "79.1600000"
  },
  {
    "circlename": "Tamilnadu Circle",
    "regionname": "Central Region Trichirapalli",
    "divisionname": "Tiruchirapalli Division",
    "officename": "Karaikurichi BO",
    "pincode": "612904",
    "officetype": "BO",
    "delivery": "Delivery",
    "district": "Ariyalur",
    "statename": "TAMIL NADU",
    "latitude": "11.0800000",
    "longitude": "79.3600000"
  },
  {
    "circlename": "Tamilnadu Circle",
    "regionname": "Central Region Trichirapalli",
    "divisionname": "Tiruchirapalli Division",
    "officename": "Keelamichaelpatti BO",
    "pincode": "612904",
    "officetype": "BO",
    "delivery": "Delivery",
    "district": "Ariyalur",
    "statename": "TAMIL NADU",
    "latitude": "11.1000000",
    "longitude": "79.3500000"
  },
  {
    "circlename": "Tamilnadu Circle",
    "regionname": "Central Region Trichirapalli",
    "divisionname": "Tiruchirapalli Division",
    "officename": "Thengachiperumalnatham BO",
    "pincode": "612904",
    "officetype": "BO",
    "delivery": "Delivery",
    "district": "Ariyalur",
    "statename": "TAMIL NADU",
    "latitude": "11.0900000",
    "longitude": "79.4100000"
  },
  {
    "circlename": "Tamilnadu Circle",
    "regionname": "Central Region Trichirapalli",
    "divisionname": "Tiruchirapalli Division",
    "officename": "Aranmanaikurichi BO",
    "pincode": "621851",
    "officetype": "BO",
    "delivery": "Delivery",
    "district": "Ariyalur",
    "statename": "TAMIL NADU",
    "latitude": "10.9300000",
    "longitude": "79.0600000"
  },
  {
    "circlename": "Tamilnadu Circle",
    "regionname": "Central Region Trichirapalli",
    "divisionname": "Tiruchirapalli Division",
    "officename": "Kandirathitham BO",
    "pincode": "621851",
    "officetype": "BO",
    "delivery": "Delivery",
    "district": "Ariyalur",
    "statename": "TAMIL NADU",
    "latitude": "10.9100000",
    "longitude": "79.0400000"
  },
  {
    "circlename": "Tamilnadu Circle",
    "regionname": "Central Region Trichirapalli",
    "divisionname": "Tiruchirapalli Division",
    "officename": "Elakurichi BO",
    "pincode": "621715",
    "officetype": "BO",
    "delivery": "Delivery",
    "district": "Ariyalur",
    "statename": "TAMIL NADU",
    "latitude": "10.9600000",
    "longitude": "79.1600000"
  },
  {
    "circlename": "Tamilnadu Circle",
    "regionname": "Central Region Trichirapalli",
    "divisionname": "Tiruchirapalli Division",
    "officename": "Kovilur BO",
    "pincode": "621715",
    "officetype": "BO",
    "delivery": "Delivery",
    "district": "Ariyalur",
    "statename": "TAMIL NADU",
    "latitude": "11.0000000",
    "longitude": "79.1700000"
  },
  {
    "circlename": "Tamilnadu Circle",
    "regionname": "Central Region Trichirapalli",
    "divisionname": "Tiruchirapalli Division",
    "officename": "Karaiyavetti B.O.",
    "pincode": "621715",
    "officetype": "BO",
    "delivery": "Delivery",
    "district": "Ariyalur",
    "statename": "TAMIL NADU",
    "latitude": "10.970000000000001",
    "longitude": "79.040000000000006"
  },
  {
    "circlename": "Tamilnadu Circle",
    "regionname": "Central Region Trichirapalli",
    "divisionname": "Tiruchirapalli Division",
    "officename": "Kilaveli BO",
    "pincode": "621804",
    "officetype": "BO",
    "delivery": "Delivery",
    "district": "Ariyalur",
    "statename": "TAMIL NADU",
    "latitude": "11.1400000",
    "longitude": "79.2900000"
  },
  {
    "circlename": "Tamilnadu Circle",
    "regionname": "Central Region Trichirapalli",
    "divisionname": "Tiruchirapalli Division",
    "officename": "Vanathirayanpattinam BO",
    "pincode": "621804",
    "officetype": "BO",
    "delivery": "Delivery",
    "district": "Ariyalur",
    "statename": "TAMIL NADU",
    "latitude": "11.1600000",
    "longitude": "79.3400000"
  },
  {
    "circlename": "Tamilnadu Circle",
    "regionname": "Central Region Trichirapalli",
    "divisionname": "Tiruchirapalli Division",
    "officename": "Venmankondan BO",
    "pincode": "621804",
    "officetype": "BO",
    "delivery": "Delivery",
    "district": "Ariyalur",
    "statename": "TAMIL NADU",
    "latitude": "11.1200000",
    "longitude": "79.2400000"
  },
  {
    "circlename": "Tamilnadu Circle",
    "regionname": "Central Region Trichirapalli",
    "divisionname": "Tiruchirapalli Division",
    "officename": "Ilaiyur BO",
    "pincode": "621806",
    "officetype": "BO",
    "delivery": "Delivery",
    "district": "Ariyalur",
    "statename": "TAMIL NADU",
    "latitude": "11.2300000",
    "longitude": "79.3100000"
  },
  {
    "circlename": "Tamilnadu Circle",
    "regionname": "Central Region Trichirapalli",
    "divisionname": "Tiruchirapalli Division",
    "officename": "Kandiankollai BO",
    "pincode": "621806",
    "officetype": "BO",
    "delivery": "Delivery",
    "district": "Ariyalur",
    "statename": "TAMIL NADU",
    "latitude": "11.2800000",
    "longitude": "79.3000000"
  },
  {
    "circlename": "Tamilnadu Circle",
    "regionname": "Central Region Trichirapalli",
    "divisionname": "Tiruchirapalli Division",
    "officename": "Ariyalur Cement Factory SO",
    "pincode": "621729",
    "officetype": "PO",
    "delivery": "Delivery",
    "district": "Ariyalur",
    "statename": "TAMIL NADU",
    "latitude": "11.1393056",
    "longitude": "79.0960556"
  },
  {
    "circlename": "Tamilnadu Circle",
    "regionname": "Central Region Trichirapalli",
    "divisionname": "Tiruchirapalli Division",
    "officename": "JC Puram West SO",
    "pincode": "621802",
    "officetype": "PO",
    "delivery": "Non Delivery",
    "district": "Ariyalur",
    "statename": "TAMIL NADU",
    "latitude": "10.8100000",
    "longitude": "79.2100000"
  },
  {
    "circlename": "Tamilnadu Circle",
    "regionname": "Central Region Trichirapalli",
    "divisionname": "Tiruchirapalli Division",
    "officename": "Kallankurichi SO",
    "pincode": "621705",
    "officetype": "PO",
    "delivery": "Delivery",
    "district": "Ariyalur",
    "statename": "TAMIL NADU",
    "latitude": "11.1876900",
    "longitude": "79.2581480"
  },
  {
    "circlename": "Tamilnadu Circle",
    "regionname": "Central Region Trichirapalli",
    "divisionname": "Tiruchirapalli Division",
    "officename": "Tirumanur SO",
    "pincode": "621715",
    "officetype": "PO",
    "delivery": "Delivery",
    "district": "Ariyalur",
    "statename": "TAMIL NADU",
    "latitude": "10.9361667",
    "longitude": "79.0991944"
  },
  {
    "circlename": "Tamilnadu Circle",
    "regionname": "Central Region Trichirapalli",
    "divisionname": "Tiruchirapalli Division",
    "officename": "Udayarpalayam SO Ariyalur",
    "pincode": "621804",
    "officetype": "PO",
    "delivery": "Delivery",
    "district": "Ariyalur",
    "statename": "TAMIL NADU",
    "latitude": "11.1876900",
    "longitude": "79.2581480"
  },
  {
    "circlename": "Tamilnadu Circle",
    "regionname": "Central Region Trichirapalli",
    "divisionname": "Tiruchirapalli Division",
    "officename": "Periyattirukonam BO",
    "pincode": "621701",
    "officetype": "BO",
    "delivery": "Delivery",
    "district": "Ariyalur",
    "statename": "TAMIL NADU",
    "latitude": "11.0800000",
    "longitude": "79.1600000"
  },
  {
    "circlename": "Tamilnadu Circle",
    "regionname": "Central Region Trichirapalli",
    "divisionname": "Tiruchirapalli Division",
    "officename": "Sathambadi BO",
    "pincode": "621701",
    "officetype": "BO",
    "delivery": "Delivery",
    "district": "Ariyalur",
    "statename": "TAMIL NADU",
    "latitude": "11.0800000",
    "longitude": "79.1600000"
  },
  {
    "circlename": "Tamilnadu Circle",
    "regionname": "Central Region Trichirapalli",
    "divisionname": "Tiruchirapalli Division",
    "officename": "Kavanur BO",
    "pincode": "621704",
    "officetype": "BO",
    "delivery": "Delivery",
    "district": "Ariyalur",
    "statename": "TAMIL NADU",
    "latitude": "11.1200000",
    "longitude": "79.0900000"
  },
  {
    "circlename": "Tamilnadu Circle",
    "regionname": "Central Region Trichirapalli",
    "divisionname": "Tiruchirapalli Division",
    "officename": "Siruvalur BO",
    "pincode": "621704",
    "officetype": "BO",
    "delivery": "Delivery",
    "district": "Ariyalur",
    "statename": "TAMIL NADU",
    "latitude": "11.1200000",
    "longitude": "79.0900000"
  },
  {
    "circlename": "Tamilnadu Circle",
    "regionname": "Central Region Trichirapalli",
    "divisionname": "Tiruchirapalli Division",
    "officename": "Telur BO",
    "pincode": "621704",
    "officetype": "BO",
    "delivery": "Delivery",
    "district": "Ariyalur",
    "statename": "TAMIL NADU",
    "latitude": "11.1200000",
    "longitude": "79.0900000"
  },
  {
    "circlename": "Tamilnadu Circle",
    "regionname": "Central Region Trichirapalli",
    "divisionname": "Tiruchirapalli Division",
    "officename": "Thavuthaikulam BO",
    "pincode": "621704",
    "officetype": "BO",
    "delivery": "Delivery",
    "district": "Ariyalur",
    "statename": "TAMIL NADU",
    "latitude": "11.1200000",
    "longitude": "79.0900000"
  },
  {
    "circlename": "Tamilnadu Circle",
    "regionname": "Central Region Trichirapalli",
    "divisionname": "Tiruchirapalli Division",
    "officename": "Vilangudi BO",
    "pincode": "621704",
    "officetype": "BO",
    "delivery": "Delivery",
    "district": "Ariyalur",
    "statename": "TAMIL NADU",
    "latitude": "11.1200000",
    "longitude": "79.2000000"
  },
  {
    "circlename": "Tamilnadu Circle",
    "regionname": "Central Region Trichirapalli",
    "divisionname": "Tiruchirapalli Division",
    "officename": "Alathiyur BO",
    "pincode": "621719",
    "officetype": "BO",
    "delivery": "Delivery",
    "district": "Ariyalur",
    "statename": "TAMIL NADU",
    "latitude": "11.3700000",
    "longitude": "79.2600000"
  },
  {
    "circlename": "Tamilnadu Circle",
    "regionname": "Central Region Trichirapalli",
    "divisionname": "Tiruchirapalli Division",
    "officename": "Thular BO",
    "pincode": "621719",
    "officetype": "BO",
    "delivery": "Delivery",
    "district": "Ariyalur",
    "statename": "TAMIL NADU",
    "latitude": "11.3100000",
    "longitude": "79.2300000"
  },
  {
    "circlename": "Tamilnadu Circle",
    "regionname": "Central Region Trichirapalli",
    "divisionname": "Tiruchirapalli Division",
    "officename": "Vanarathirayankuppam BO",
    "pincode": "612901",
    "officetype": "BO",
    "delivery": "Delivery",
    "district": "Ariyalur",
    "statename": "TAMIL NADU",
    "latitude": "11.1800000",
    "longitude": "79.4500000"
  },
  {
    "circlename": "Tamilnadu Circle",
    "regionname": "Central Region Trichirapalli",
    "divisionname": "Tiruchirapalli Division",
    "officename": "Periyavalayam BO",
    "pincode": "621802",
    "officetype": "BO",
    "delivery": "Delivery",
    "district": "Ariyalur",
    "statename": "TAMIL NADU",
    "latitude": "11.2100000",
    "longitude": "79.3600000"
  },
  {
    "circlename": "Tamilnadu Circle",
    "regionname": "Central Region Trichirapalli",
    "divisionname": "Tiruchirapalli Division",
    "officename": "Palanganatham BO",
    "pincode": "621651",
    "officetype": "BO",
    "delivery": "Delivery",
    "district": "Ariyalur",
    "statename": "TAMIL NADU",
    "latitude": "10.9600000",
    "longitude": "78.9700000"
  },
  {
    "circlename": "Tamilnadu Circle",
    "regionname": "Central Region Trichirapalli",
    "divisionname": "Tiruchirapalli Division",
    "officename": "Ayanathur BO",
    "pincode": "621705",
    "officetype": "BO",
    "delivery": "Delivery",
    "district": "Ariyalur",
    "statename": "TAMIL NADU",
    "latitude": "11.1700000",
    "longitude": "79.1700000"
  },
  {
    "circlename": "Tamilnadu Circle",
    "regionname": "Central Region Trichirapalli",
    "divisionname": "Tiruchirapalli Division",
    "officename": "Kadugur BO",
    "pincode": "621705",
    "officetype": "BO",
    "delivery": "Delivery",
    "district": "Ariyalur",
    "statename": "TAMIL NADU",
    "latitude": "11.1700000",
    "longitude": "79.1500000"
  },
  {
    "circlename": "Tamilnadu Circle",
    "regionname": "Central Region Trichirapalli",
    "divisionname": "Tiruchirapalli Division",
    "officename": "O Koothur BO",
    "pincode": "621705",
    "officetype": "BO",
    "delivery": "Delivery",
    "district": "Ariyalur",
    "statename": "TAMIL NADU",
    "latitude": "11.1500000",
    "longitude": "79.1400000"
  },
  {
    "circlename": "Tamilnadu Circle",
    "regionname": "Central Region Trichirapalli",
    "divisionname": "Tiruchirapalli Division",
    "officename": "Alagapuram BO",
    "pincode": "608901",
    "officetype": "BO",
    "delivery": "Delivery",
    "district": "Ariyalur",
    "statename": "TAMIL NADU",
    "latitude": "11.3700000",
    "longitude": "79.3300000"
  },
  {
    "circlename": "Tamilnadu Circle",
    "regionname": "Central Region Trichirapalli",
    "divisionname": "Tiruchirapalli Division",
    "officename": "Anganur BO",
    "pincode": "621709",
    "officetype": "BO",
    "delivery": "Delivery",
    "district": "Ariyalur",
    "statename": "TAMIL NADU",
    "latitude": "11.3600000",
    "longitude": "79.1600000"
  },
  {
    "circlename": "Tamilnadu Circle",
    "regionname": "Central Region Trichirapalli",
    "divisionname": "Tiruchirapalli Division",
    "officename": "Manapathur BO",
    "pincode": "621709",
    "officetype": "BO",
    "delivery": "Delivery",
    "district": "Ariyalur",
    "statename": "TAMIL NADU",
    "latitude": "11.3300000",
    "longitude": "79.1900000"
  },
  {
    "circlename": "Tamilnadu Circle",
    "regionname": "Central Region Trichirapalli",
    "divisionname": "Tiruchirapalli Division",
    "officename": "Ilayaperumanallur BO",
    "pincode": "612903",
    "officetype": "BO",
    "delivery": "Delivery",
    "district": "Ariyalur",
    "statename": "TAMIL NADU",
    "latitude": "11.2200000",
    "longitude": "79.4600000"
  },
  {
    "circlename": "Tamilnadu Circle",
    "regionname": "Central Region Trichirapalli",
    "divisionname": "Tiruchirapalli Division",
    "officename": "Nakkambadi BO",
    "pincode": "621714",
    "officetype": "BO",
    "delivery": "Delivery",
    "district": "Ariyalur",
    "statename": "TAMIL NADU",
    "latitude": "11.2600000",
    "longitude": "79.1600000"
  },
  {
    "circlename": "Tamilnadu Circle",
    "regionname": "Central Region Trichirapalli",
    "divisionname": "Tiruchirapalli Division",
    "officename": "Unjini BO",
    "pincode": "621714",
    "officetype": "BO",
    "delivery": "Delivery",
    "district": "Ariyalur",
    "statename": "TAMIL NADU",
    "latitude": "11.2300000",
    "longitude": "79.2000000"
  },
  {
    "circlename": "Tamilnadu Circle",
    "regionname": "Central Region Trichirapalli",
    "divisionname": "Tiruchirapalli Division",
    "officename": "Kaduvettankurichi BO",
    "pincode": "612904",
    "officetype": "BO",
    "delivery": "Delivery",
    "district": "Ariyalur",
    "statename": "TAMIL NADU",
    "latitude": "11.1200000",
    "longitude": "79.3200000"
  },
  {
    "circlename": "Tamilnadu Circle",
    "regionname": "Central Region Trichirapalli",
    "divisionname": "Tiruchirapalli Division",
    "officename": "Naduvalur BO",
    "pincode": "612904",
    "officetype": "BO",
    "delivery": "Delivery",
    "district": "Ariyalur",
    "statename": "TAMIL NADU",
    "latitude": "11.1000000",
    "longitude": "79.2900000"
  },
  {
    "circlename": "Tamilnadu Circle",
    "regionname": "Central Region Trichirapalli",
    "divisionname": "Tiruchirapalli Division",
    "officename": "PudukkottaiTirumalaivadi BO",
    "pincode": "621851",
    "officetype": "BO",
    "delivery": "Delivery",
    "district": "Ariyalur",
    "statename": "TAMIL NADU",
    "latitude": "10.9500000",
    "longitude": "79.0200000"
  },
  {
    "circlename": "Tamilnadu Circle",
    "regionname": "Central Region Trichirapalli",
    "divisionname": "Tiruchirapalli Division",
    "officename": "Venganur BO",
    "pincode": "621851",
    "officetype": "BO",
    "delivery": "Delivery",
    "district": "Ariyalur",
    "statename": "TAMIL NADU",
    "latitude": "10.9700000",
    "longitude": "79.0300000"
  },
  {
    "circlename": "Tamilnadu Circle",
    "regionname": "Central Region Trichirapalli",
    "divisionname": "Tiruchirapalli Division",
    "officename": "Kumiliam BO",
    "pincode": "621804",
    "officetype": "BO",
    "delivery": "Delivery",
    "district": "Ariyalur",
    "statename": "TAMIL NADU",
    "latitude": "11.1900000",
    "longitude": "79.2400000"
  },
  {
    "circlename": "Tamilnadu Circle",
    "regionname": "Central Region Trichirapalli",
    "divisionname": "Tiruchirapalli Division",
    "officename": "Pilichikuli BO",
    "pincode": "621804",
    "officetype": "BO",
    "delivery": "Delivery",
    "district": "Ariyalur",
    "statename": "TAMIL NADU",
    "latitude": "11.1200000",
    "longitude": "79.2800000"
  },
  {
    "circlename": "Tamilnadu Circle",
    "regionname": "Central Region Trichirapalli",
    "divisionname": "Tiruchirapalli Division",
    "officename": "Udayarpalayam West BO",
    "pincode": "621804",
    "officetype": "BO",
    "delivery": "Non Delivery",
    "district": "Ariyalur",
    "statename": "TAMIL NADU",
    "latitude": "11.1800000",
    "longitude": "79.2900000"
  },
  {
    "circlename": "Tamilnadu Circle",
    "regionname": "Central Region Trichirapalli",
    "divisionname": "Tiruchirapalli Division",
    "officename": "Periakrishnapuram BO",
    "pincode": "621805",
    "officetype": "BO",
    "delivery": "Delivery",
    "district": "Ariyalur",
    "statename": "TAMIL NADU",
    "latitude": "11.3300000",
    "longitude": "79.4300000"
  },
  {
    "circlename": "Tamilnadu Circle",
    "regionname": "Central Region Trichirapalli",
    "divisionname": "Tiruchirapalli Division",
    "officename": "Pilakurichi BO",
    "pincode": "621806",
    "officetype": "BO",
    "delivery": "Delivery",
    "district": "Ariyalur",
    "statename": "TAMIL NADU",
    "latitude": "11.2200000",
    "longitude": "79.2500000"
  },
  {
    "circlename": "Tamilnadu Circle",
    "regionname": "Central Region Trichirapalli",
    "divisionname": "Tiruchirapalli Division",
    "officename": "Ambapur SO",
    "pincode": "621701",
    "officetype": "PO",
    "delivery": "Delivery",
    "district": "Ariyalur",
    "statename": "TAMIL NADU",
    "latitude": "11.0400000",
    "longitude": "79.2100000"
  },
  {
    "circlename": "Tamilnadu Circle",
    "regionname": "Central Region Trichirapalli",
    "divisionname": "Tiruchirapalli Division",
    "officename": "Ariyalur Ariyalur SO",
    "pincode": "621704",
    "officetype": "PO",
    "delivery": "Delivery",
    "district": "Ariyalur",
    "statename": "TAMIL NADU",
    "latitude": "11.1876900",
    "longitude": "79.2581480"
  },
  {
    "circlename": "Tamilnadu Circle",
    "regionname": "Central Region Trichirapalli",
    "divisionname": "Tiruchirapalli Division",
    "officename": "Cement Nagar Dalavoy SO",
    "pincode": "621730",
    "officetype": "PO",
    "delivery": "Delivery",
    "district": "Ariyalur",
    "statename": "TAMIL NADU",
    "latitude": "11.1876900",
    "longitude": "79.2581480"
  },
  {
    "circlename": "Tamilnadu Circle",
    "regionname": "Central Region Trichirapalli",
    "divisionname": "Tiruchirapalli Division",
    "officename": "Jayamkondacholapuram SO",
    "pincode": "621802",
    "officetype": "PO",
    "delivery": "Delivery",
    "district": "Ariyalur",
    "statename": "TAMIL NADU",
    "latitude": "11.2121389",
    "longitude": "79.3649444"
  },
  {
    "circlename": "Tamilnadu Circle",
    "regionname": "Central Region Trichirapalli",
    "divisionname": "Tiruchirapalli Division",
    "officename": "Kilapaluvur SO",
    "pincode": "621707",
    "officetype": "PO",
    "delivery": "Delivery",
    "district": "Ariyalur",
    "statename": "TAMIL NADU",
    "latitude": "11.0418056",
    "longitude": "79.0681944"
  },
  {
    "circlename": "Tamilnadu Circle",
    "regionname": "Central Region Trichirapalli",
    "divisionname": "Tiruchirapalli Division",
    "officename": "Mathur SO Ariyalur",
    "pincode": "621709",
    "officetype": "PO",
    "delivery": "Delivery",
    "district": "Ariyalur",
    "statename": "TAMIL NADU",
    "latitude": "11.1876900",
    "longitude": "79.2581480"
  },
  {
    "circlename": "Tamilnadu Circle",
    "regionname": "Central Region Trichirapalli",
    "divisionname": "Tiruchirapalli Division",
    "officename": "Ponparappi SO",
    "pincode": "621710",
    "officetype": "PO",
    "delivery": "Delivery",
    "district": "Ariyalur",
    "statename": "TAMIL NADU",
    "latitude": "11.1876900",
    "longitude": "79.2581480"
  },
  {
    "circlename": "Tamilnadu Circle",
    "regionname": "Central Region Trichirapalli",
    "divisionname": "Tiruchirapalli Division",
    "officename": "Thirumazhapadi SO",
    "pincode": "621851",
    "officetype": "PO",
    "delivery": "Delivery",
    "district": "Ariyalur",
    "statename": "TAMIL NADU",
    "latitude": "11.1876900",
    "longitude": "79.2581480"
  },
  {
    "circlename": "Tamilnadu Circle",
    "regionname": "Central Region Trichirapalli",
    "divisionname": "Tiruchirapalli Division",
    "officename": "Variyankaval SO",
    "pincode": "621806",
    "officetype": "PO",
    "delivery": "Delivery",
    "district": "Ariyalur",
    "statename": "TAMIL NADU",
    "latitude": "11.1876900",
    "longitude": "79.2581480"
  },
  {
    "circlename": "Tamilnadu Circle",
    "regionname": "Central Region Trichirapalli",
    "divisionname": "Tiruchirapalli Division",
    "officename": "Pungangudi BO",
    "pincode": "621701",
    "officetype": "BO",
    "delivery": "Delivery",
    "district": "Ariyalur",
    "statename": "TAMIL NADU",
    "latitude": "11.0800000",
    "longitude": "79.1600000"
  },
  {
    "circlename": "Tamilnadu Circle",
    "regionname": "Central Region Trichirapalli",
    "divisionname": "Tiruchirapalli Division",
    "officename": "Ulliakudi BO",
    "pincode": "621701",
    "officetype": "BO",
    "delivery": "Delivery",
    "district": "Ariyalur",
    "statename": "TAMIL NADU",
    "latitude": "11.0800000",
    "longitude": "79.1600000"
  },
  {
    "circlename": "Tamilnadu Circle",
    "regionname": "Central Region Trichirapalli",
    "divisionname": "Tiruchirapalli Division",
    "officename": "Hasthinapuram BO",
    "pincode": "621704",
    "officetype": "BO",
    "delivery": "Delivery",
    "district": "Ariyalur",
    "statename": "TAMIL NADU",
    "latitude": "11.1100000",
    "longitude": "79.1400000"
  },
  {
    "circlename": "Tamilnadu Circle",
    "regionname": "Central Region Trichirapalli",
    "divisionname": "Tiruchirapalli Division",
    "officename": "Inamattur BO",
    "pincode": "621704",
    "officetype": "BO",
    "delivery": "Delivery",
    "district": "Ariyalur",
    "statename": "TAMIL NADU",
    "latitude": "11.1100000",
    "longitude": "79.1400000"
  },
  {
    "circlename": "Tamilnadu Circle",
    "regionname": "Central Region Trichirapalli",
    "divisionname": "Tiruchirapalli Division",
    "officename": "Periyanagalur BO",
    "pincode": "621704",
    "officetype": "BO",
    "delivery": "Delivery",
    "district": "Ariyalur",
    "statename": "TAMIL NADU",
    "latitude": "11.1200000",
    "longitude": "79.0900000"
  },
  {
    "circlename": "Tamilnadu Circle",
    "regionname": "Central Region Trichirapalli",
    "divisionname": "Tiruchirapalli Division",
    "officename": "Adhanakurichi BO",
    "pincode": "621719",
    "officetype": "BO",
    "delivery": "Delivery",
    "district": "Ariyalur",
    "statename": "TAMIL NADU",
    "latitude": "11.3600000",
    "longitude": "79.2500000"
  },
  {
    "circlename": "Tamilnadu Circle",
    "regionname": "Central Region Trichirapalli",
    "divisionname": "Tiruchirapalli Division",
    "officename": "Kodukkur BO",
    "pincode": "621719",
    "officetype": "BO",
    "delivery": "Delivery",
    "district": "Ariyalur",
    "statename": "TAMIL NADU",
    "latitude": "11.3200000",
    "longitude": "79.2700000"
  },
  {
    "circlename": "Tamilnadu Circle",
    "regionname": "Central Region Trichirapalli",
    "divisionname": "Tiruchirapalli Division",
    "officename": "Sannasinallur BO",
    "pincode": "621730",
    "officetype": "BO",
    "delivery": "Delivery",
    "district": "Ariyalur",
    "statename": "TAMIL NADU",
    "latitude": "11.3700000",
    "longitude": "79.1800000"
  },
  {
    "circlename": "Tamilnadu Circle",
    "regionname": "Central Region Trichirapalli",
    "divisionname": "Tiruchirapalli Division",
    "officename": "Kollapuram BO",
    "pincode": "612901",
    "officetype": "BO",
    "delivery": "Delivery",
    "district": "Ariyalur",
    "statename": "TAMIL NADU",
    "latitude": "111.1600000",
    "longitude": "79.0800000"
  },
  {
    "circlename": "Tamilnadu Circle",
    "regionname": "Central Region Trichirapalli",
    "divisionname": "Tiruchirapalli Division",
    "officename": "Karadikulam BO",
    "pincode": "621802",
    "officetype": "BO",
    "delivery": "Delivery",
    "district": "Ariyalur",
    "statename": "TAMIL NADU",
    "latitude": "11.2000000",
    "longitude": "79.3700000"
  },
  {
    "circlename": "Tamilnadu Circle",
    "regionname": "Central Region Trichirapalli",
    "divisionname": "Tiruchirapalli Division",
    "officename": "Sooriyamanal B.O.",
    "pincode": "621802",
    "officetype": "BO",
    "delivery": "Delivery",
    "district": "Ariyalur",
    "statename": "TAMIL NADU",
    "latitude": "NA",
    "longitude": "NA"
  },
  {
    "circlename": "Tamilnadu Circle",
    "regionname": "Central Region Trichirapalli",
    "divisionname": "Tiruchirapalli Division",
    "officename": "Kokkudi BO",
    "pincode": "621653",
    "officetype": "BO",
    "delivery": "Delivery",
    "district": "Ariyalur",
    "statename": "TAMIL NADU",
    "latitude": "11.0300000",
    "longitude": "79.0200000"
  },
  {
    "circlename": "Tamilnadu Circle",
    "regionname": "Central Region Trichirapalli",
    "divisionname": "Tiruchirapalli Division",
    "officename": "Poondi BO",
    "pincode": "621653",
    "officetype": "BO",
    "delivery": "Delivery",
    "district": "Ariyalur",
    "statename": "TAMIL NADU",
    "latitude": "11.0300000",
    "longitude": "79.0200000"
  },
  {
    "circlename": "Tamilnadu Circle",
    "regionname": "Central Region Trichirapalli",
    "divisionname": "Tiruchirapalli Division",
    "officename": "Srinivasapuram BO",
    "pincode": "621705",
    "officetype": "BO",
    "delivery": "Delivery",
    "district": "Ariyalur",
    "statename": "TAMIL NADU",
    "latitude": "11.1600000",
    "longitude": "79.1200000"
  },
  {
    "circlename": "Tamilnadu Circle",
    "regionname": "Central Region Trichirapalli",
    "divisionname": "Tiruchirapalli Division",
    "officename": "Eravangudi BO",
    "pincode": "621803",
    "officetype": "BO",
    "delivery": "Delivery",
    "district": "Ariyalur",
    "statename": "TAMIL NADU",
    "latitude": "11.2800000",
    "longitude": "79.4300000"
  },
  {
    "circlename": "Tamilnadu Circle",
    "regionname": "Central Region Trichirapalli",
    "divisionname": "Tiruchirapalli Division",
    "officename": "Attukurichi BO",
    "pincode": "608901",
    "officetype": "BO",
    "delivery": "Delivery",
    "district": "Ariyalur",
    "statename": "TAMIL NADU",
    "latitude": "11.4100000",
    "longitude": "79.3600000"
  },
  {
    "circlename": "Tamilnadu Circle",
    "regionname": "Central Region Trichirapalli",
    "divisionname": "Tiruchirapalli Division",
    "officename": "Malathankulam BO",
    "pincode": "621707",
    "officetype": "BO",
    "delivery": "Delivery",
    "district": "Ariyalur",
    "statename": "TAMIL NADU",
    "latitude": "11.0300000",
    "longitude": "79.0500000"
  },
  {
    "circlename": "Tamilnadu Circle",
    "regionname": "Central Region Trichirapalli",
    "divisionname": "Tiruchirapalli Division",
    "officename": "Suthamalli BO",
    "pincode": "621707",
    "officetype": "BO",
    "delivery": "Delivery",
    "district": "Ariyalur",
    "statename": "TAMIL NADU",
    "latitude": "11.0100000",
    "longitude": "79.0400000"
  },
  {
    "circlename": "Tamilnadu Circle",
    "regionname": "Central Region Trichirapalli",
    "divisionname": "Tiruchirapalli Division",
    "officename": "Devamangalam BO",
    "pincode": "612902",
    "officetype": "BO",
    "delivery": "Delivery",
    "district": "Ariyalur",
    "statename": "TAMIL NADU",
    "latitude": "11.1700000",
    "longitude": "79.3800000"
  },
  {
    "circlename": "Tamilnadu Circle",
    "regionname": "Central Region Trichirapalli",
    "divisionname": "Tiruchirapalli Division",
    "officename": "Kundaveli BO",
    "pincode": "612903",
    "officetype": "BO",
    "delivery": "Delivery",
    "district": "Ariyalur",
    "statename": "TAMIL NADU",
    "latitude": "11.2400000",
    "longitude": "79.4600000"
  },
  {
    "circlename": "Tamilnadu Circle",
    "regionname": "Central Region Trichirapalli",
    "divisionname": "Tiruchirapalli Division",
    "officename": "Padanilai BO",
    "pincode": "612903",
    "officetype": "BO",
    "delivery": "Delivery",
    "district": "Ariyalur",
    "statename": "TAMIL NADU",
    "latitude": "11.3000000",
    "longitude": "79.4800000"
  },
  {
    "circlename": "Tamilnadu Circle",
    "regionname": "Central Region Trichirapalli",
    "divisionname": "Tiruchirapalli Division",
    "officename": "Saluppai BO",
    "pincode": "612903",
    "officetype": "BO",
    "delivery": "Delivery",
    "district": "Ariyalur",
    "statename": "TAMIL NADU",
    "latitude": "11.2600000",
    "longitude": "79.4400000"
  },
  {
    "circlename": "Tamilnadu Circle",
    "regionname": "Central Region Trichirapalli",
    "divisionname": "Tiruchirapalli Division",
    "officename": "Kuvagam BO",
    "pincode": "621710",
    "officetype": "BO",
    "delivery": "Delivery",
    "district": "Ariyalur",
    "statename": "TAMIL NADU",
    "latitude": "11.2800000",
    "longitude": "79.2800000"
  },
  {
    "circlename": "Tamilnadu Circle",
    "regionname": "Central Region Trichirapalli",
    "divisionname": "Tiruchirapalli Division",
    "officename": "Maruvathur BO",
    "pincode": "621710",
    "officetype": "BO",
    "delivery": "Delivery",
    "district": "Ariyalur",
    "statename": "TAMIL NADU",
    "latitude": "11.2600000",
    "longitude": "79.2100000"
  },
  {
    "circlename": "Tamilnadu Circle",
    "regionname": "Central Region Trichirapalli",
    "divisionname": "Tiruchirapalli Division",
    "officename": "Sedankudikadu BO",
    "pincode": "621710",
    "officetype": "BO",
    "delivery": "Delivery",
    "district": "Ariyalur",
    "statename": "TAMIL NADU",
    "latitude": "11.2700000",
    "longitude": "79.2100000"
  },
  {
    "circlename": "Tamilnadu Circle",
    "regionname": "Central Region Trichirapalli",
    "divisionname": "Tiruchirapalli Division",
    "officename": "Iluppaiyur BO",
    "pincode": "621718",
    "officetype": "BO",
    "delivery": "Delivery",
    "district": "Ariyalur",
    "statename": "TAMIL NADU",
    "latitude": "11.2400000",
    "longitude": "79.1200000"
  },
  {
    "circlename": "Tamilnadu Circle",
    "regionname": "Central Region Trichirapalli",
    "divisionname": "Tiruchirapalli Division",
    "officename": "Elangaicheri BO",
    "pincode": "621714",
    "officetype": "BO",
    "delivery": "Delivery",
    "district": "Ariyalur",
    "statename": "TAMIL NADU",
    "latitude": "11.2400000",
    "longitude": "79.1900000"
  },
  {
    "circlename": "Tamilnadu Circle",
    "regionname": "Central Region Trichirapalli",
    "divisionname": "Tiruchirapalli Division",
    "officename": "Kulumur BO",
    "pincode": "621714",
    "officetype": "BO",
    "delivery": "Delivery",
    "district": "Ariyalur",
    "statename": "TAMIL NADU",
    "latitude": "11.3100000",
    "longitude": "79.1500000"
  },
  {
    "circlename": "Tamilnadu Circle",
    "regionname": "Central Region Trichirapalli",
    "divisionname": "Tiruchirapalli Division",
    "officename": "Nallampalayam BO",
    "pincode": "621714",
    "officetype": "BO",
    "delivery": "Delivery",
    "district": "Ariyalur",
    "statename": "TAMIL NADU",
    "latitude": "11.2400000",
    "longitude": "79.2000000"
  },
  {
    "circlename": "Tamilnadu Circle",
    "regionname": "Central Region Trichirapalli",
    "divisionname": "Tiruchirapalli Division",
    "officename": "Irugaiyur BO",
    "pincode": "612904",
    "officetype": "BO",
    "delivery": "Delivery",
    "district": "Ariyalur",
    "statename": "TAMIL NADU",
    "latitude": "11.0800000",
    "longitude": "79.3400000"
  },
  {
    "circlename": "Tamilnadu Circle",
    "regionname": "Central Region Trichirapalli",
    "divisionname": "Tiruchirapalli Division",
    "officename": "Kargudi BO",
    "pincode": "612904",
    "officetype": "BO",
    "delivery": "Delivery",
    "district": "Ariyalur",
    "statename": "TAMIL NADU",
    "latitude": "11.0900000",
    "longitude": "79.3100000"
  },
  {
    "circlename": "Tamilnadu Circle",
    "regionname": "Central Region Trichirapalli",
    "divisionname": "Tiruchirapalli Division",
    "officename": "Ilandaikudam BO",
    "pincode": "621851",
    "officetype": "BO",
    "delivery": "Delivery",
    "district": "Ariyalur",
    "statename": "TAMIL NADU",
    "latitude": "10.9300000",
    "longitude": "79.0600000"
  },
  {
    "circlename": "Tamilnadu Circle",
    "regionname": "Central Region Trichirapalli",
    "divisionname": "Tiruchirapalli Division",
    "officename": "Koilesanai BO",
    "pincode": "621851",
    "officetype": "BO",
    "delivery": "Delivery",
    "district": "Ariyalur",
    "statename": "TAMIL NADU",
    "latitude": "10.9500000",
    "longitude": "79.0200000"
  },
  {
    "circlename": "Tamilnadu Circle",
    "regionname": "Central Region Trichirapalli",
    "divisionname": "Tiruchirapalli Division",
    "officename": "Alagiamanavalam BO",
    "pincode": "621715",
    "officetype": "BO",
    "delivery": "Delivery",
    "district": "Ariyalur",
    "statename": "TAMIL NADU",
    "latitude": "10.9100000",
    "longitude": "78.6800000"
  },
  {
    "circlename": "Tamilnadu Circle",
    "regionname": "Central Region Trichirapalli",
    "divisionname": "Tiruchirapalli Division",
    "officename": "Kamarasavalli BO",
    "pincode": "621715",
    "officetype": "BO",
    "delivery": "Delivery",
    "district": "Ariyalur",
    "statename": "TAMIL NADU",
    "latitude": "10.9800000",
    "longitude": "79.2000000"
  },
  {
    "circlename": "Tamilnadu Circle",
    "regionname": "Central Region Trichirapalli",
    "divisionname": "Tiruchirapalli Division",
    "officename": "Irumbilikurichi BO",
    "pincode": "621804",
    "officetype": "BO",
    "delivery": "Delivery",
    "district": "Ariyalur",
    "statename": "TAMIL NADU",
    "latitude": "11.2000000",
    "longitude": "79.2300000"
  },
  {
    "circlename": "Tamilnadu Circle",
    "regionname": "Central Region Trichirapalli",
    "divisionname": "Tiruchirapalli Division",
    "officename": "Palayakudi BO",
    "pincode": "621804",
    "officetype": "BO",
    "delivery": "Delivery",
    "district": "Ariyalur",
    "statename": "TAMIL NADU",
    "latitude": "11.1800000",
    "longitude": "79.2200000"
  },
  {
    "circlename": "Tamilnadu Circle",
    "regionname": "Central Region Trichirapalli",
    "divisionname": "Tiruchirapalli Division",
    "officename": "Parukkal BO",
    "pincode": "621804",
    "officetype": "BO",
    "delivery": "Delivery",
    "district": "Ariyalur",
    "statename": "TAMIL NADU",
    "latitude": "11.1200000",
    "longitude": "79.2800000"
  },
  {
    "circlename": "Tamilnadu Circle",
    "regionname": "Central Region Trichirapalli",
    "divisionname": "Tiruchirapalli Division",
    "officename": "Tattanur BO",
    "pincode": "621804",
    "officetype": "BO",
    "delivery": "Delivery",
    "district": "Ariyalur",
    "statename": "TAMIL NADU",
    "latitude": "11.1200000",
    "longitude": "79.2800000"
  },
  {
    "circlename": "Tamilnadu Circle",
    "regionname": "Central Region Trichirapalli",
    "divisionname": "Tiruchirapalli Division",
    "officename": "Devanur BO",
    "pincode": "621806",
    "officetype": "BO",
    "delivery": "Delivery",
    "district": "Ariyalur",
    "statename": "TAMIL NADU",
    "latitude": "11.2700000",
    "longitude": "79.3200000"
  },
  {
    "circlename": "Tamilnadu Circle",
    "regionname": "Central Region Trichirapalli",
    "divisionname": "Tiruchirapalli Division",
    "officename": "Nagalkuli BO",
    "pincode": "621806",
    "officetype": "BO",
    "delivery": "Delivery",
    "district": "Ariyalur",
    "statename": "TAMIL NADU",
    "latitude": "11.2300000",
    "longitude": "79.2700000"
  },
  {
    "circlename": "Tamilnadu Circle",
    "regionname": "Central Region Trichirapalli",
    "divisionname": "Tiruchirapalli Division",
    "officename": "Minsuritti SO",
    "pincode": "612903",
    "officetype": "PO",
    "delivery": "Delivery",
    "district": "Ariyalur",
    "statename": "TAMIL NADU",
    "latitude": "11.2342500",
    "longitude": "79.4756700"
  },
  {
    "circlename": "Tamilnadu Circle",
    "regionname": "Central Region Trichirapalli",
    "divisionname": "Tiruchirapalli Division",
    "officename": "Rajajinagar SO Ariyalur",
    "pincode": "621713",
    "officetype": "PO",
    "delivery": "Delivery",
    "district": "Ariyalur",
    "statename": "TAMIL NADU",
    "latitude": "11.1876900",
    "longitude": "79.2581480"
  },
  {
    "circlename": "Tamilnadu Circle",
    "regionname": "Central Region Trichirapalli",
    "divisionname": "Tiruchirapalli Division",
    "officename": "Sendurai SO Ariyalur",
    "pincode": "621714",
    "officetype": "PO",
    "delivery": "Delivery",
    "district": "Ariyalur",
    "statename": "TAMIL NADU",
    "latitude": "11.1876900",
    "longitude": "79.2581480"
  },
  {
    "circlename": "Tamilnadu Circle",
    "regionname": "Central Region Trichirapalli",
    "divisionname": "Tiruchirapalli Division",
    "officename": "Thathampettai Palur SO",
    "pincode": "612904",
    "officetype": "PO",
    "delivery": "Delivery",
    "district": "Ariyalur",
    "statename": "TAMIL NADU",
    "latitude": "11.0970000",
    "longitude": "79.3717778"
  },
  {
    "circlename": "Tamilnadu Circle",
    "regionname": "Central Region Trichirapalli",
    "divisionname": "Tiruchirapalli Division",
    "officename": "Ulkottai SO",
    "pincode": "612905",
    "officetype": "PO",
    "delivery": "Delivery",
    "district": "Ariyalur",
    "statename": "TAMIL NADU",
    "latitude": "11.1900000",
    "longitude": "79.4300000"
  },
  {
    "circlename": "Tamilnadu Circle",
    "regionname": "Central Region Trichirapalli",
    "divisionname": "Tiruchirapalli Division",
    "officename": "Govindaputhur BO",
    "pincode": "621701",
    "officetype": "BO",
    "delivery": "Delivery",
    "district": "Ariyalur",
    "statename": "TAMIL NADU",
    "latitude": "11.0200000",
    "longitude": "79.2800000"
  },
  {
    "circlename": "Tamilnadu Circle",
    "regionname": "Central Region Trichirapalli",
    "divisionname": "Tiruchirapalli Division",
    "officename": "Kasankottai BO",
    "pincode": "621701",
    "officetype": "BO",
    "delivery": "Delivery",
    "district": "Ariyalur",
    "statename": "TAMIL NADU",
    "latitude": "11.0200000",
    "longitude": "79.2800000"
  },
  {
    "circlename": "Tamilnadu Circle",
    "regionname": "Central Region Trichirapalli",
    "divisionname": "Tiruchirapalli Division",
    "officename": "Thuthur BO",
    "pincode": "621701",
    "officetype": "BO",
    "delivery": "Delivery",
    "district": "Ariyalur",
    "statename": "TAMIL NADU",
    "latitude": "11.0800000",
    "longitude": "79.1600000"
  },
  {
    "circlename": "Tamilnadu Circle",
    "regionname": "Central Region Trichirapalli",
    "divisionname": "Tiruchirapalli Division",
    "officename": "Varanavasi BO",
    "pincode": "621704",
    "officetype": "BO",
    "delivery": "Delivery",
    "district": "Ariyalur",
    "statename": "TAMIL NADU",
    "latitude": "11.1200000",
    "longitude": "79.0900000"
  },
  {
    "circlename": "Tamilnadu Circle",
    "regionname": "Central Region Trichirapalli",
    "divisionname": "Tiruchirapalli Division",
    "officename": "Periyakurichi BO",
    "pincode": "621719",
    "officetype": "BO",
    "delivery": "Delivery",
    "district": "Ariyalur",
    "statename": "TAMIL NADU",
    "latitude": "11.2900000",
    "longitude": "79.2000000"
  },
  {
    "circlename": "Tamilnadu Circle",
    "regionname": "Central Region Trichirapalli",
    "divisionname": "Tiruchirapalli Division",
    "officename": "Kidaramkondan BO",
    "pincode": "612905",
    "officetype": "BO",
    "delivery": "Delivery",
    "district": "Ariyalur",
    "statename": "TAMIL NADU",
    "latitude": "11.1900000",
    "longitude": "79.4100000"
  },
  {
    "circlename": "Tamilnadu Circle",
    "regionname": "Central Region Trichirapalli",
    "divisionname": "Tiruchirapalli Division",
    "officename": "Pichanur BO",
    "pincode": "612901",
    "officetype": "BO",
    "delivery": "Delivery",
    "district": "Ariyalur",
    "statename": "TAMIL NADU",
    "latitude": "11.2300000",
    "longitude": "79.4200000"
  },
  {
    "circlename": "Tamilnadu Circle",
    "regionname": "Central Region Trichirapalli",
    "divisionname": "Tiruchirapalli Division",
    "officename": "Thaluthalaimedu BO",
    "pincode": "612901",
    "officetype": "BO",
    "delivery": "Delivery",
    "district": "Ariyalur",
    "statename": "TAMIL NADU",
    "latitude": "11.1800000",
    "longitude": "79.4600000"
  },
  {
    "circlename": "Tamilnadu Circle",
    "regionname": "Central Region Trichirapalli",
    "divisionname": "Tiruchirapalli Division",
    "officename": "Sengunthapuram BO",
    "pincode": "621802",
    "officetype": "BO",
    "delivery": "Delivery",
    "district": "Ariyalur",
    "statename": "TAMIL NADU",
    "latitude": "11.2200000",
    "longitude": "79.3500000"
  },
  {
    "circlename": "Tamilnadu Circle",
    "regionname": "Central Region Trichirapalli",
    "divisionname": "Tiruchirapalli Division",
    "officename": "Manakudi BO",
    "pincode": "621705",
    "officetype": "BO",
    "delivery": "Delivery",
    "district": "Ariyalur",
    "statename": "TAMIL NADU",
    "latitude": "11.1500000",
    "longitude": "79.1400000"
  },
  {
    "circlename": "Tamilnadu Circle",
    "regionname": "Central Region Trichirapalli",
    "divisionname": "Tiruchirapalli Division",
    "officename": "Tamaraikulam BO",
    "pincode": "621705",
    "officetype": "BO",
    "delivery": "Delivery",
    "district": "Ariyalur",
    "statename": "TAMIL NADU",
    "latitude": "11.1700000",
    "longitude": "79.1000000"
  },
  {
    "circlename": "Tamilnadu Circle",
    "regionname": "Central Region Trichirapalli",
    "divisionname": "Tiruchirapalli Division",
    "officename": "Kattathur BO",
    "pincode": "621803",
    "officetype": "BO",
    "delivery": "Delivery",
    "district": "Ariyalur",
    "statename": "TAMIL NADU",
    "latitude": "11.3100000",
    "longitude": "79.3400000"
  },
  {
    "circlename": "Tamilnadu Circle",
    "regionname": "Central Region Trichirapalli",
    "divisionname": "Tiruchirapalli Division",
    "officename": "Kulathur BO",
    "pincode": "621803",
    "officetype": "BO",
    "delivery": "Delivery",
    "district": "Ariyalur",
    "statename": "TAMIL NADU",
    "latitude": "11.2900000",
    "longitude": "79.3300000"
  },
  {
    "circlename": "Tamilnadu Circle",
    "regionname": "Central Region Trichirapalli",
    "divisionname": "Tiruchirapalli Division",
    "officename": "Ayyur BO",
    "pincode": "608901",
    "officetype": "BO",
    "delivery": "Delivery",
    "district": "Ariyalur",
    "statename": "TAMIL NADU",
    "latitude": "11.3100000",
    "longitude": "79.3100000"
  },
  {
    "circlename": "Tamilnadu Circle",
    "regionname": "Central Region Trichirapalli",
    "divisionname": "Tiruchirapalli Division",
    "officename": "Nagampandal BO",
    "pincode": "608901",
    "officetype": "BO",
    "delivery": "Delivery",
    "district": "Ariyalur",
    "statename": "TAMIL NADU",
    "latitude": "11.4100000",
    "longitude": "79.3700000"
  },
  {
    "circlename": "Tamilnadu Circle",
    "regionname": "Central Region Trichirapalli",
    "divisionname": "Tiruchirapalli Division",
    "officename": "Silambur BO",
    "pincode": "608901",
    "officetype": "BO",
    "delivery": "Delivery",
    "district": "Ariyalur",
    "statename": "TAMIL NADU",
    "latitude": "11.3500000",
    "longitude": "79.3100000"
  },
  {
    "circlename": "Tamilnadu Circle",
    "regionname": "Central Region Trichirapalli",
    "divisionname": "Tiruchirapalli Division",
    "officename": "Edayathangudi BO",
    "pincode": "621707",
    "officetype": "BO",
    "delivery": "Delivery",
    "district": "Ariyalur",
    "statename": "TAMIL NADU",
    "latitude": "11.0200000",
    "longitude": "79.1100000"
  },
  {
    "circlename": "Tamilnadu Circle",
    "regionname": "Central Region Trichirapalli",
    "divisionname": "Tiruchirapalli Division",
    "officename": "Karuppilakattalai BO",
    "pincode": "621707",
    "officetype": "BO",
    "delivery": "Delivery",
    "district": "Ariyalur",
    "statename": "TAMIL NADU",
    "latitude": "11.0300000",
    "longitude": "79.1400000"
  },
  {
    "circlename": "Tamilnadu Circle",
    "regionname": "Central Region Trichirapalli",
    "divisionname": "Tiruchirapalli Division",
    "officename": "Udayanatham BO",
    "pincode": "612902",
    "officetype": "BO",
    "delivery": "Delivery",
    "district": "Ariyalur",
    "statename": "TAMIL NADU",
    "latitude": "11.1500000",
    "longitude": "79.4100000"
  },
  {
    "circlename": "Tamilnadu Circle",
    "regionname": "Central Region Trichirapalli",
    "divisionname": "Tiruchirapalli Division",
    "officename": "Solankudikadu BO",
    "pincode": "621709",
    "officetype": "BO",
    "delivery": "Delivery",
    "district": "Ariyalur",
    "statename": "TAMIL NADU",
    "latitude": "11.3300000",
    "longitude": "79.1900000"
  },
  {
    "circlename": "Tamilnadu Circle",
    "regionname": "Central Region Trichirapalli",
    "divisionname": "Tiruchirapalli Division",
    "officename": "Ayyappanaickenpettai BO",
    "pincode": "612903",
    "officetype": "BO",
    "delivery": "Delivery",
    "district": "Ariyalur",
    "statename": "TAMIL NADU",
    "latitude": "11.2900000",
    "longitude": "79.4600000"
  },
  {
    "circlename": "Tamilnadu Circle",
    "regionname": "Central Region Trichirapalli",
    "divisionname": "Tiruchirapalli Division",
    "officename": "Muthuservaimadam BO",
    "pincode": "612903",
    "officetype": "BO",
    "delivery": "Delivery",
    "district": "Ariyalur",
    "statename": "TAMIL NADU",
    "latitude": "11.2400000",
    "longitude": "79.4600000"
  },
  {
    "circlename": "Tamilnadu Circle",
    "regionname": "Central Region Trichirapalli",
    "divisionname": "Tiruchirapalli Division",
    "officename": "Pappakudi BO",
    "pincode": "612903",
    "officetype": "BO",
    "delivery": "Delivery",
    "district": "Ariyalur",
    "statename": "TAMIL NADU",
    "latitude": "11.2800000",
    "longitude": "79.4800000"
  },
  {
    "circlename": "Tamilnadu Circle",
    "regionname": "Central Region Trichirapalli",
    "divisionname": "Tiruchirapalli Division",
    "officename": "Kilamaligai BO",
    "pincode": "621710",
    "officetype": "BO",
    "delivery": "Delivery",
    "district": "Ariyalur",
    "statename": "TAMIL NADU",
    "latitude": "11.2600000",
    "longitude": "79.2600000"
  },
  {
    "circlename": "Tamilnadu Circle",
    "regionname": "Central Region Trichirapalli",
    "divisionname": "Tiruchirapalli Division",
    "officename": "Sirukalathur BO",
    "pincode": "621710",
    "officetype": "BO",
    "delivery": "Delivery",
    "district": "Ariyalur",
    "statename": "TAMIL NADU",
    "latitude": "11.2800000",
    "longitude": "79.2300000"
  },
  {
    "circlename": "Tamilnadu Circle",
    "regionname": "Central Region Trichirapalli",
    "divisionname": "Tiruchirapalli Division",
    "officename": "Ameenabad BO",
    "pincode": "621713",
    "officetype": "BO",
    "delivery": "Delivery",
    "district": "Ariyalur",
    "statename": "TAMIL NADU",
    "latitude": "11.1500000",
    "longitude": "79.0600000"
  },
  {
    "circlename": "Tamilnadu Circle",
    "regionname": "Central Region Trichirapalli",
    "divisionname": "Tiruchirapalli Division",
    "officename": "Govindapuram BO",
    "pincode": "621713",
    "officetype": "BO",
    "delivery": "Delivery",
    "district": "Ariyalur",
    "statename": "TAMIL NADU",
    "latitude": "11.1900000",
    "longitude": "79.0800000"
  },
  {
    "circlename": "Tamilnadu Circle",
    "regionname": "Central Region Trichirapalli",
    "divisionname": "Tiruchirapalli Division",
    "officename": "Sennivanam BO",
    "pincode": "621718",
    "officetype": "BO",
    "delivery": "Delivery",
    "district": "Ariyalur",
    "statename": "TAMIL NADU",
    "latitude": "11.2100000",
    "longitude": "79.1600000"
  },
  {
    "circlename": "Tamilnadu Circle",
    "regionname": "Central Region Trichirapalli",
    "divisionname": "Tiruchirapalli Division",
    "officename": "Adhikudikadu BO",
    "pincode": "621714",
    "officetype": "BO",
    "delivery": "Delivery",
    "district": "Ariyalur",
    "statename": "TAMIL NADU",
    "latitude": "11.2300000",
    "longitude": "79.1800000"
  },
  {
    "circlename": "Tamilnadu Circle",
    "regionname": "Central Region Trichirapalli",
    "divisionname": "Tiruchirapalli Division",
    "officename": "Kilakavattankurichi BO",
    "pincode": "621715",
    "officetype": "BO",
    "delivery": "Delivery",
    "district": "Ariyalur",
    "statename": "TAMIL NADU",
    "latitude": "10.9600000",
    "longitude": "79.0600000"
  },
  {
    "circlename": "Tamilnadu Circle",
    "regionname": "Central Region Trichirapalli",
    "divisionname": "Tiruchirapalli Division",
    "officename": "Kilakolathur BO",
    "pincode": "621715",
    "officetype": "BO",
    "delivery": "Delivery",
    "district": "Ariyalur",
    "statename": "TAMIL NADU",
    "latitude": "10.9600000",
    "longitude": "79.1100000"
  },
  {
    "circlename": "Tamilnadu Circle",
    "regionname": "Central Region Trichirapalli",
    "divisionname": "Tiruchirapalli Division",
    "officename": "Sullangudi BO",
    "pincode": "621715",
    "officetype": "BO",
    "delivery": "Delivery",
    "district": "Ariyalur",
    "statename": "TAMIL NADU",
    "latitude": "10.9500000",
    "longitude": "79.1400000"
  },
  {
    "circlename": "Tamilnadu Circle",
    "regionname": "Central Region Trichirapalli",
    "divisionname": "Tiruchirapalli Division",
    "officename": "Edayar BO",
    "pincode": "621804",
    "officetype": "BO",
    "delivery": "Delivery",
    "district": "Ariyalur",
    "statename": "TAMIL NADU",
    "latitude": "11.2000000",
    "longitude": "79.2300000"
  },
  {
    "circlename": "Tamilnadu Circle",
    "regionname": "Central Region Trichirapalli",
    "divisionname": "Tiruchirapalli Division",
    "officename": "Managethi BO",
    "pincode": "621804",
    "officetype": "BO",
    "delivery": "Delivery",
    "district": "Ariyalur",
    "statename": "TAMIL NADU",
    "latitude": "11.1400000",
    "longitude": "79.2400000"
  },
  {
    "circlename": "Tamilnadu Circle",
    "regionname": "Central Region Trichirapalli",
    "divisionname": "Tiruchirapalli Division",
    "officename": "TSolankurichi BO",
    "pincode": "621804",
    "officetype": "BO",
    "delivery": "Delivery",
    "district": "Ariyalur",
    "statename": "TAMIL NADU",
    "latitude": "11.1200000",
    "longitude": "79.2800000"
  },
  {
    "circlename": "Tamilnadu Circle",
    "regionname": "Central Region Trichirapalli",
    "divisionname": "Tiruchirapalli Division",
    "officename": "Kilaneduvoi BO",
    "pincode": "621805",
    "officetype": "BO",
    "delivery": "Delivery",
    "district": "Ariyalur",
    "statename": "TAMIL NADU",
    "latitude": "11.3200000",
    "longitude": "79.4100000"
  },
  {
    "circlename": "Tamilnadu Circle",
    "regionname": "Central Region Trichirapalli",
    "divisionname": "Cuddalore Division",
    "officename": "Sriraman B.O",
    "pincode": "608703",
    "officetype": "BO",
    "delivery": "Delivery",
    "district": "Ariyalur",
    "statename": "TAMIL NADU",
    "latitude": "11.4000000",
    "longitude": "79.3800000"
  },
  {
    "circlename": "Tamilnadu Circle",
    "regionname": "Central Region Trichirapalli",
    "divisionname": "Tiruchirapalli Division",
    "officename": "Andimadam SO",
    "pincode": "621801",
    "officetype": "PO",
    "delivery": "Delivery",
    "district": "Ariyalur",
    "statename": "TAMIL NADU",
    "latitude": "11.2000000",
    "longitude": "79.2200000"
  },
  {
    "circlename": "Tamilnadu Circle",
    "regionname": "Central Region Trichirapalli",
    "divisionname": "Tiruchirapalli Division",
    "officename": "Ariyalur Bazaar SO",
    "pincode": "621704",
    "officetype": "PO",
    "delivery": "Non Delivery",
    "district": "Ariyalur",
    "statename": "TAMIL NADU",
    "latitude": "11.1413960",
    "longitude": "79.0699050"
  },
  {
    "circlename": "Tamilnadu Circle",
    "regionname": "Central Region Trichirapalli",
    "divisionname": "Tiruchirapalli Division",
    "officename": "Asaveerankudikadu SO",
    "pincode": "621719",
    "officetype": "PO",
    "delivery": "Delivery",
    "district": "Ariyalur",
    "statename": "TAMIL NADU",
    "latitude": "11.1876900",
    "longitude": "79.2581480"
  },
  {
    "circlename": "Tamilnadu Circle",
    "regionname": "Central Region Trichirapalli",
    "divisionname": "Tiruchirapalli Division",
    "officename": "Kavarapalayam SO",
    "pincode": "608901",
    "officetype": "PO",
    "delivery": "Delivery",
    "district": "Ariyalur",
    "statename": "TAMIL NADU",
    "latitude": "11.2600000",
    "longitude": "77.4200000"
  },
  {
    "circlename": "Tamilnadu Circle",
    "regionname": "Central Region Trichirapalli",
    "divisionname": "Tiruchirapalli Division",
    "officename": "Reddipalayam SO",
    "pincode": "621731",
    "officetype": "PO",
    "delivery": "Delivery",
    "district": "Ariyalur",
    "statename": "TAMIL NADU",
    "latitude": "11.1145",
    "longitude": "79.1659"
  }
]