[
  {
    "circlename": "Tamilnadu Circle",
    "regionname": "Western Region Coimbatore",
    "divisionname": "Coimbatore Division",
    "officename": "Panapatti BO",
    "pincode": "641201",
    "officetype": "BO",
    "delivery": "Delivery",
    "district": "COIMBATORE",
    "statename": "TAMIL NADU",
    "latitude": "10.8772266",
    "longitude": "77.1000700"
  },
  {
    "circlename": "Tamilnadu Circle",
    "regionname": "Western Region Coimbatore",
    "divisionname": "Coimbatore Division",
    "officename": "Krishnarayapuram BO",
    "pincode": "641006",
    "officetype": "BO",
    "delivery": "Non Delivery",
    "district": "COIMBATORE",
    "statename": "TAMIL NADU",
    "latitude": "11.0475766",
    "longitude": "76.9669067"
  },
  {
    "circlename": "Tamilnadu Circle",
    "regionname": "Western Region Coimbatore",
    "divisionname": "Coimbatore Division",
    "officename": "Maniakarampalayam BO",
    "pincode": "641006",
    "officetype": "BO",
    "delivery": "Non Delivery",
    "district": "COIMBATORE",
    "statename": "TAMIL NADU",
    "latitude": "11.0475766",
    "longitude": "76.9669067"
  },
  {
    "circlename": "Tamilnadu Circle",
    "regionname": "Western Region Coimbatore",
    "divisionname": "Coimbatore Division",
    "officename": "Palathurai BO",
    "pincode": "641105",
    "officetype": "BO",
    "delivery": "Delivery",
    "district": "COIMBATORE",
    "statename": "TAMIL NADU",
    "latitude": "10.8823800",
    "longitude": "76.9560466"
  },
  {
    "circlename": "Tamilnadu Circle",
    "regionname": "Western Region Coimbatore",
    "divisionname": "Coimbatore Division",
    "officename": "Keeranatham BO",
    "pincode": "641035",
    "officetype": "BO",
    "delivery": "Delivery",
    "district": "COIMBATORE",
    "statename": "TAMIL NADU",
    "latitude": "11.1203077",
    "longitude": "76.9972190"
  },
  {
    "circlename": "Tamilnadu Circle",
    "regionname": "Western Region Coimbatore",
    "divisionname": "Coimbatore Division",
    "officename": "Kattampatticoimbatore BO",
    "pincode": "641107",
    "officetype": "BO",
    "delivery": "Non Delivery",
    "district": "COIMBATORE",
    "statename": "TAMIL NADU",
    "latitude": "11.1740216",
    "longitude": "77.0402016"
  },
  {
    "circlename": "Tamilnadu Circle",
    "regionname": "Western Region Coimbatore",
    "divisionname": "Coimbatore Division",
    "officename": "Pachapalayam BO",
    "pincode": "641107",
    "officetype": "BO",
    "delivery": "Delivery",
    "district": "COIMBATORE",
    "statename": "TAMIL NADU",
    "latitude": "11.0967993",
    "longitude": "77.0702750"
  },
  {
    "circlename": "Tamilnadu Circle",
    "regionname": "Western Region Coimbatore",
    "divisionname": "Coimbatore Division",
    "officename": "Mylampatti BO",
    "pincode": "641062",
    "officetype": "BO",
    "delivery": "Delivery",
    "district": "COIMBATORE",
    "statename": "TAMIL NADU",
    "latitude": "11.0775816",
    "longitude": "77.0633083"
  },
  {
    "circlename": "Tamilnadu Circle",
    "regionname": "Western Region Coimbatore",
    "divisionname": "Coimbatore Division",
    "officename": "Vellalapalayam Podanur BO",
    "pincode": "641111",
    "officetype": "BO",
    "delivery": "Non Delivery",
    "district": "COIMBATORE",
    "statename": "TAMIL NADU",
    "latitude": "10.9754100",
    "longitude": "77.0283650"
  },
  {
    "circlename": "Tamilnadu Circle",
    "regionname": "Western Region Coimbatore",
    "divisionname": "Coimbatore Division",
    "officename": "Madhvarayapuram BO",
    "pincode": "641101",
    "officetype": "BO",
    "delivery": "Non Delivery",
    "district": "COIMBATORE",
    "statename": "TAMIL NADU",
    "latitude": "10.9488200",
    "longitude": "76.7827766"
  },
  {
    "circlename": "Tamilnadu Circle",
    "regionname": "Western Region Coimbatore",
    "divisionname": "Coimbatore Division",
    "officename": "Mathipalayam BO",
    "pincode": "641101",
    "officetype": "BO",
    "delivery": "Delivery",
    "district": "COIMBATORE",
    "statename": "TAMIL NADU",
    "latitude": "10.9326266",
    "longitude": "76.8420916"
  },
  {
    "circlename": "Tamilnadu Circle",
    "regionname": "Western Region Coimbatore",
    "divisionname": "Coimbatore Division",
    "officename": "Kavundampalayam BO",
    "pincode": "641030",
    "officetype": "BO",
    "delivery": "Non Delivery",
    "district": "COIMBATORE",
    "statename": "TAMIL NADU",
    "latitude": "11.0445926",
    "longitude": "76.9377753"
  },
  {
    "circlename": "Tamilnadu Circle",
    "regionname": "Western Region Coimbatore",
    "divisionname": "Coimbatore Division",
    "officename": "Selvapuram BO",
    "pincode": "641026",
    "officetype": "BO",
    "delivery": "Non Delivery",
    "district": "COIMBATORE",
    "statename": "TAMIL NADU",
    "latitude": "10.9891966",
    "longitude": "76.9442983"
  },
  {
    "circlename": "Tamilnadu Circle",
    "regionname": "Western Region Coimbatore",
    "divisionname": "Coimbatore Division",
    "officename": "Kuppanur BO",
    "pincode": "641010",
    "officetype": "BO",
    "delivery": "Delivery",
    "district": "COIMBATORE",
    "statename": "TAMIL NADU",
    "latitude": "10.9493500",
    "longitude": "76.8622283"
  },
  {
    "circlename": "Tamilnadu Circle",
    "regionname": "Western Region Coimbatore",
    "divisionname": "Coimbatore Division",
    "officename": "Sundapalayam BO",
    "pincode": "641007",
    "officetype": "BO",
    "delivery": "Delivery",
    "district": "COIMBATORE",
    "statename": "TAMIL NADU",
    "latitude": "11.0081513",
    "longitude": "76.8712831"
  },
  {
    "circlename": "Tamilnadu Circle",
    "regionname": "Western Region Coimbatore",
    "divisionname": "Coimbatore Division",
    "officename": "Pathanjalipuri BO",
    "pincode": "641108",
    "officetype": "BO",
    "delivery": "Delivery",
    "district": "COIMBATORE",
    "statename": "TAMIL NADU",
    "latitude": "11.0760666",
    "longitude": "76.8248183"
  },
  {
    "circlename": "Tamilnadu Circle",
    "regionname": "Western Region Coimbatore",
    "divisionname": "Coimbatore Division",
    "officename": "Devarayapuram BO",
    "pincode": "641109",
    "officetype": "BO",
    "delivery": "Delivery",
    "district": "COIMBATORE",
    "statename": "TAMIL NADU",
    "latitude": "10.9949216",
    "longitude": "76.8135516"
  },
  {
    "circlename": "Tamilnadu Circle",
    "regionname": "Western Region Coimbatore",
    "divisionname": "Coimbatore Division",
    "officename": "Dhaliyur BO",
    "pincode": "641109",
    "officetype": "BO",
    "delivery": "Non Delivery",
    "district": "COIMBATORE",
    "statename": "TAMIL NADU",
    "latitude": "11.0100416",
    "longitude": "76.8492799"
  },
  {
    "circlename": "Tamilnadu Circle",
    "regionname": "Western Region Coimbatore",
    "divisionname": "Coimbatore Division",
    "officename": "Viraliyur BO",
    "pincode": "641109",
    "officetype": "BO",
    "delivery": "Delivery",
    "district": "COIMBATORE",
    "statename": "TAMIL NADU",
    "latitude": "10.9992600",
    "longitude": "76.7825300"
  },
  {
    "circlename": "Tamilnadu Circle",
    "regionname": "Western Region Coimbatore",
    "divisionname": "Coimbatore Division",
    "officename": "Pannimadai BO",
    "pincode": "641017",
    "officetype": "BO",
    "delivery": "Delivery",
    "district": "COIMBATORE",
    "statename": "TAMIL NADU",
    "latitude": "11.0858666",
    "longitude": "76.9167683"
  },
  {
    "circlename": "Tamilnadu Circle",
    "regionname": "Western Region Coimbatore",
    "divisionname": "Pollachi Division",
    "officename": "Upper Aliyar Dam B.O",
    "pincode": "642101",
    "officetype": "BO",
    "delivery": "Delivery",
    "district": "COIMBATORE",
    "statename": "TAMIL NADU",
    "latitude": "NA",
    "longitude": "NA"
  },
  {
    "circlename": "Tamilnadu Circle",
    "regionname": "Western Region Coimbatore",
    "divisionname": "Pollachi Division",
    "officename": "Divansapudur B.O",
    "pincode": "642103",
    "officetype": "BO",
    "delivery": "Delivery",
    "district": "COIMBATORE",
    "statename": "TAMIL NADU",
    "latitude": "NA",
    "longitude": "NA"
  },
  {
    "circlename": "Tamilnadu Circle",
    "regionname": "Western Region Coimbatore",
    "divisionname": "Pollachi Division",
    "officename": "Cinchona East B.O",
    "pincode": "642106",
    "officetype": "BO",
    "delivery": "Delivery",
    "district": "COIMBATORE",
    "statename": "TAMIL NADU",
    "latitude": "NA",
    "longitude": "NA"
  },
  {
    "circlename": "Tamilnadu Circle",
    "regionname": "Western Region Coimbatore",
    "divisionname": "Pollachi Division",
    "officename": "Paralai B.O",
    "pincode": "642108",
    "officetype": "BO",
    "delivery": "Delivery",
    "district": "COIMBATORE",
    "statename": "TAMIL NADU",
    "latitude": "10.6572807",
    "longitude": "77.0106623"
  },
  {
    "circlename": "Tamilnadu Circle",
    "regionname": "Western Region Coimbatore",
    "divisionname": "Pollachi Division",
    "officename": "Kurumbapalayam B.O",
    "pincode": "642002",
    "officetype": "BO",
    "delivery": "Delivery",
    "district": "COIMBATORE",
    "statename": "TAMIL NADU",
    "latitude": "NA",
    "longitude": "NA"
  },
  {
    "circlename": "Tamilnadu Circle",
    "regionname": "Western Region Coimbatore",
    "divisionname": "Pollachi Division",
    "officename": "Andipalayam B.O",
    "pincode": "642120",
    "officetype": "BO",
    "delivery": "Delivery",
    "district": "COIMBATORE",
    "statename": "TAMIL NADU",
    "latitude": "NA",
    "longitude": "NA"
  },
  {
    "circlename": "Tamilnadu Circle",
    "regionname": "Western Region Coimbatore",
    "divisionname": "Pollachi Division",
    "officename": "Kakkadavoo B.O",
    "pincode": "642120",
    "officetype": "BO",
    "delivery": "Delivery",
    "district": "COIMBATORE",
    "statename": "TAMIL NADU",
    "latitude": "NA",
    "longitude": "NA"
  },
  {
    "circlename": "Tamilnadu Circle",
    "regionname": "Western Region Coimbatore",
    "divisionname": "Pollachi Division",
    "officename": "Pethanaickanur B.O",
    "pincode": "642134",
    "officetype": "BO",
    "delivery": "Delivery",
    "district": "COIMBATORE",
    "statename": "TAMIL NADU",
    "latitude": "NA",
    "longitude": "NA"
  },
  {
    "circlename": "Tamilnadu Circle",
    "regionname": "Western Region Coimbatore",
    "divisionname": "Pollachi Division",
    "officename": "High Forest B.O",
    "pincode": "642127",
    "officetype": "BO",
    "delivery": "Delivery",
    "district": "COIMBATORE",
    "statename": "TAMIL NADU",
    "latitude": "NA",
    "longitude": "NA"
  },
  {
    "circlename": "Tamilnadu Circle",
    "regionname": "Western Region Coimbatore",
    "divisionname": "Pollachi Division",
    "officename": "Korangumudi B.O",
    "pincode": "642127",
    "officetype": "BO",
    "delivery": "Delivery",
    "district": "COIMBATORE",
    "statename": "TAMIL NADU",
    "latitude": "NA",
    "longitude": "NA"
  },
  {
    "circlename": "Tamilnadu Circle",
    "regionname": "Western Region Coimbatore",
    "divisionname": "Pollachi Division",
    "officename": "Nirar Dam B.O",
    "pincode": "642127",
    "officetype": "BO",
    "delivery": "Delivery",
    "district": "COIMBATORE",
    "statename": "TAMIL NADU",
    "latitude": "NA",
    "longitude": "NA"
  },
  {
    "circlename": "Tamilnadu Circle",
    "regionname": "Western Region Coimbatore",
    "divisionname": "Pollachi Division",
    "officename": "Old Valparai B.O",
    "pincode": "642127",
    "officetype": "BO",
    "delivery": "Delivery",
    "district": "COIMBATORE",
    "statename": "TAMIL NADU",
    "latitude": "NA",
    "longitude": "NA"
  },
  {
    "circlename": "Tamilnadu Circle",
    "regionname": "Western Region Coimbatore",
    "divisionname": "Pollachi Division",
    "officename": "Thalanar B.O",
    "pincode": "642105",
    "officetype": "BO",
    "delivery": "Delivery",
    "district": "COIMBATORE",
    "statename": "TAMIL NADU",
    "latitude": "NA",
    "longitude": "NA"
  },
  {
    "circlename": "Tamilnadu Circle",
    "regionname": "Western Region Coimbatore",
    "divisionname": "Pollachi Division",
    "officename": "Kambalapatti B.O",
    "pincode": "642007",
    "officetype": "BO",
    "delivery": "Delivery",
    "district": "COIMBATORE",
    "statename": "TAMIL NADU",
    "latitude": "NA",
    "longitude": "NA"
  },
  {
    "circlename": "Tamilnadu Circle",
    "regionname": "Western Region Coimbatore",
    "divisionname": "Pollachi Division",
    "officename": "Kolarpatti B.O",
    "pincode": "642107",
    "officetype": "BO",
    "delivery": "Delivery",
    "district": "COIMBATORE",
    "statename": "TAMIL NADU",
    "latitude": "NA",
    "longitude": "NA"
  },
  {
    "circlename": "Tamilnadu Circle",
    "regionname": "Western Region Coimbatore",
    "divisionname": "Pollachi Division",
    "officename": "Poosaripatti B.O",
    "pincode": "642205",
    "officetype": "BO",
    "delivery": "Delivery",
    "district": "COIMBATORE",
    "statename": "TAMIL NADU",
    "latitude": "NA",
    "longitude": "NA"
  },
  {
    "circlename": "Tamilnadu Circle",
    "regionname": "Western Region Coimbatore",
    "divisionname": "Tirupur Division",
    "officename": "Komarapalayam BO",
    "pincode": "641653",
    "officetype": "BO",
    "delivery": "Delivery",
    "district": "COIMBATORE",
    "statename": "TAMIL NADU",
    "latitude": "11.2186700",
    "longitude": "77.0990780"
  },
  {
    "circlename": "Tamilnadu Circle",
    "regionname": "Western Region Coimbatore",
    "divisionname": "Tirupur Division",
    "officename": "Kuppanur BO",
    "pincode": "641653",
    "officetype": "BO",
    "delivery": "Delivery",
    "district": "COIMBATORE",
    "statename": "TAMIL NADU",
    "latitude": "11.2791730",
    "longitude": "77.0712310"
  },
  {
    "circlename": "Tamilnadu Circle",
    "regionname": "Western Region Coimbatore",
    "divisionname": "Tirupur Division",
    "officename": "Vadakkalur BO",
    "pincode": "641653",
    "officetype": "BO",
    "delivery": "Delivery",
    "district": "COIMBATORE",
    "statename": "TAMIL NADU",
    "latitude": "11.2731460",
    "longitude": "77.0962170"
  },
  {
    "circlename": "Tamilnadu Circle",
    "regionname": "Western Region Coimbatore",
    "divisionname": "Tirupur Division",
    "officename": "Kariampalayam BO",
    "pincode": "641653",
    "officetype": "BO",
    "delivery": "Delivery",
    "district": "COIMBATORE",
    "statename": "TAMIL NADU",
    "latitude": "11.2063120",
    "longitude": "77.0777920"
  },
  {
    "circlename": "Tamilnadu Circle",
    "regionname": "Western Region Coimbatore",
    "divisionname": "Tirupur Division",
    "officename": "Athappagoundenpudur BO",
    "pincode": "641103",
    "officetype": "BO",
    "delivery": "Delivery",
    "district": "COIMBATORE",
    "statename": "TAMIL NADU",
    "latitude": "11.0323999",
    "longitude": "77.0744366"
  },
  {
    "circlename": "Tamilnadu Circle",
    "regionname": "Western Region Coimbatore",
    "divisionname": "Tirupur Division",
    "officename": "Odderpalayam BO",
    "pincode": "641103",
    "officetype": "BO",
    "delivery": "Delivery",
    "district": "COIMBATORE",
    "statename": "TAMIL NADU",
    "latitude": "10.9971150",
    "longitude": "77.0824616"
  },
  {
    "circlename": "Tamilnadu Circle",
    "regionname": "Western Region Coimbatore",
    "divisionname": "Tirupur Division",
    "officename": "Athikadavu BO",
    "pincode": "641104",
    "officetype": "BO",
    "delivery": "Delivery",
    "district": "COIMBATORE",
    "statename": "TAMIL NADU",
    "latitude": "11.2121870",
    "longitude": "76.7552220"
  },
  {
    "circlename": "Tamilnadu Circle",
    "regionname": "Western Region Coimbatore",
    "divisionname": "Tirupur Division",
    "officename": "Kaniyurpalladam BO",
    "pincode": "641659",
    "officetype": "BO",
    "delivery": "Delivery",
    "district": "COIMBATORE",
    "statename": "TAMIL NADU",
    "latitude": "11.0967450",
    "longitude": "77.1564280"
  },
  {
    "circlename": "Tamilnadu Circle",
    "regionname": "Western Region Coimbatore",
    "divisionname": "Tirupur Division",
    "officename": "Paduvampalli BO",
    "pincode": "641659",
    "officetype": "BO",
    "delivery": "Delivery",
    "district": "COIMBATORE",
    "statename": "TAMIL NADU",
    "latitude": "11.1934570",
    "longitude": "77.1334340"
  },
  {
    "circlename": "Tamilnadu Circle",
    "regionname": "Western Region Coimbatore",
    "divisionname": "Tirupur Division",
    "officename": "Dasanur BO",
    "pincode": "641305",
    "officetype": "BO",
    "delivery": "Delivery",
    "district": "COIMBATORE",
    "statename": "TAMIL NADU",
    "latitude": "11.2966440",
    "longitude": "76.9255100"
  },
  {
    "circlename": "Tamilnadu Circle",
    "regionname": "Western Region Coimbatore",
    "divisionname": "Tirupur Division",
    "officename": "Palapatti BO",
    "pincode": "641305",
    "officetype": "BO",
    "delivery": "Delivery",
    "district": "COIMBATORE",
    "statename": "TAMIL NADU",
    "latitude": "11.3315960",
    "longitude": "76.9601760"
  },
  {
    "circlename": "Tamilnadu Circle",
    "regionname": "Western Region Coimbatore",
    "divisionname": "Tirupur Division",
    "officename": "Ellapalayam BO",
    "pincode": "641697",
    "officetype": "BO",
    "delivery": "Delivery",
    "district": "COIMBATORE",
    "statename": "TAMIL NADU",
    "latitude": "11.1962410",
    "longitude": "77.0581090"
  },
  {
    "circlename": "Tamilnadu Circle",
    "regionname": "Western Region Coimbatore",
    "divisionname": "Tirupur Division",
    "officename": "Pethikuttai BO",
    "pincode": "638459",
    "officetype": "BO",
    "delivery": "Delivery",
    "district": "COIMBATORE",
    "statename": "TAMIL NADU",
    "latitude": "11.3761520",
    "longitude": "77.0738540"
  },
  {
    "circlename": "Tamilnadu Circle",
    "regionname": "Western Region Coimbatore",
    "divisionname": "Tirupur Division",
    "officename": "Vivekanandapuram BO",
    "pincode": "641113",
    "officetype": "BO",
    "delivery": "Delivery",
    "district": "COIMBATORE",
    "statename": "TAMIL NADU",
    "latitude": "11.2451460",
    "longitude": "76.8795040"
  },
  {
    "circlename": "Tamilnadu Circle",
    "regionname": "Western Region Coimbatore",
    "divisionname": "Tirupur Division",
    "officename": "Akkaraisengapalli BO",
    "pincode": "641302",
    "officetype": "BO",
    "delivery": "Delivery",
    "district": "COIMBATORE",
    "statename": "TAMIL NADU",
    "latitude": "11.3261260",
    "longitude": "77.0817850"
  },
  {
    "circlename": "Tamilnadu Circle",
    "regionname": "Western Region Coimbatore",
    "divisionname": "Tirupur Division",
    "officename": "Jadayampalayam BO",
    "pincode": "641302",
    "officetype": "BO",
    "delivery": "Delivery",
    "district": "COIMBATORE",
    "statename": "TAMIL NADU",
    "latitude": "11.2966440",
    "longitude": "76.9797550"
  },
  {
    "circlename": "Tamilnadu Circle",
    "regionname": "Western Region Coimbatore",
    "divisionname": "Tirupur Division",
    "officename": "Appanaickenpatti BO",
    "pincode": "641402",
    "officetype": "BO",
    "delivery": "Delivery",
    "district": "COIMBATORE",
    "statename": "TAMIL NADU",
    "latitude": "10.9749010",
    "longitude": "77.1564230"
  },
  {
    "circlename": "Tamilnadu Circle",
    "regionname": "Western Region Coimbatore",
    "divisionname": "Tirupur Division",
    "officename": "Bogampatti BO",
    "pincode": "641658",
    "officetype": "BO",
    "delivery": "Delivery",
    "district": "COIMBATORE",
    "statename": "TAMIL NADU",
    "latitude": "10.9026750",
    "longitude": "77.1164260"
  },
  {
    "circlename": "Tamilnadu Circle",
    "regionname": "Western Region Coimbatore",
    "divisionname": "Tirupur Division",
    "officename": "Jalakarichal BO",
    "pincode": "641658",
    "officetype": "BO",
    "delivery": "Delivery",
    "district": "COIMBATORE",
    "statename": "TAMIL NADU",
    "latitude": "11.0168440",
    "longitude": "76.9558320"
  },
  {
    "circlename": "Tamilnadu Circle",
    "regionname": "Western Region Coimbatore",
    "divisionname": "Tirupur Division",
    "officename": "Vadavedampatti BO",
    "pincode": "641671",
    "officetype": "BO",
    "delivery": "Delivery",
    "district": "COIMBATORE",
    "statename": "TAMIL NADU",
    "latitude": "10.8598260",
    "longitude": "77.2214740"
  },
  {
    "circlename": "Tamilnadu Circle",
    "regionname": "Western Region Coimbatore",
    "divisionname": "Coimbatore Division",
    "officename": "Coimbatore Bazaar SO",
    "pincode": "641001",
    "officetype": "PO",
    "delivery": "Non Delivery",
    "district": "COIMBATORE",
    "statename": "TAMIL NADU",
    "latitude": "10.9950000",
    "longitude": "76.9570000"
  },
  {
    "circlename": "Tamilnadu Circle",
    "regionname": "Western Region Coimbatore",
    "divisionname": "Coimbatore Division",
    "officename": "Coimbatore Central SO",
    "pincode": "641018",
    "officetype": "PO",
    "delivery": "Delivery",
    "district": "COIMBATORE",
    "statename": "TAMIL NADU",
    "latitude": "11.0050200",
    "longitude": "76.9751000"
  },
  {
    "circlename": "Tamilnadu Circle",
    "regionname": "Western Region Coimbatore",
    "divisionname": "Coimbatore Division",
    "officename": "Coimbatore Courts SO",
    "pincode": "641018",
    "officetype": "PO",
    "delivery": "Non Delivery",
    "district": "COIMBATORE",
    "statename": "TAMIL NADU",
    "latitude": "10.9999890",
    "longitude": "76.9703880"
  },
  {
    "circlename": "Tamilnadu Circle",
    "regionname": "Western Region Coimbatore",
    "divisionname": "Coimbatore Division",
    "officename": "Coimbatore Fort SO",
    "pincode": "641001",
    "officetype": "PO",
    "delivery": "Non Delivery",
    "district": "COIMBATORE",
    "statename": "TAMIL NADU",
    "latitude": "10.9891000",
    "longitude": "76.9655700"
  },
  {
    "circlename": "Tamilnadu Circle",
    "regionname": "Western Region Coimbatore",
    "divisionname": "Coimbatore Division",
    "officename": "Kovaipudur SO",
    "pincode": "641042",
    "officetype": "PO",
    "delivery": "Delivery",
    "district": "COIMBATORE",
    "statename": "TAMIL NADU",
    "latitude": "10.9577400",
    "longitude": "76.9231200"
  },
  {
    "circlename": "Tamilnadu Circle",
    "regionname": "Western Region Coimbatore",
    "divisionname": "Coimbatore Division",
    "officename": "Krishnaswamy Nagar SO",
    "pincode": "641045",
    "officetype": "PO",
    "delivery": "Non Delivery",
    "district": "COIMBATORE",
    "statename": "TAMIL NADU",
    "latitude": "11.0112000",
    "longitude": "77.0361900"
  },
  {
    "circlename": "Tamilnadu Circle",
    "regionname": "Western Region Coimbatore",
    "divisionname": "Coimbatore Division",
    "officename": "Redfields SO",
    "pincode": "641018",
    "officetype": "PO",
    "delivery": "Non Delivery",
    "district": "COIMBATORE",
    "statename": "TAMIL NADU",
    "latitude": "10.9980000",
    "longitude": "76.9830000"
  },
  {
    "circlename": "Tamilnadu Circle",
    "regionname": "Western Region Coimbatore",
    "divisionname": "Coimbatore Division",
    "officename": "Sarkarsamakulam SO",
    "pincode": "641107",
    "officetype": "PO",
    "delivery": "Delivery",
    "district": "COIMBATORE",
    "statename": "TAMIL NADU",
    "latitude": "11.1363800",
    "longitude": "77.0351500"
  },
  {
    "circlename": "Tamilnadu Circle",
    "regionname": "Western Region Coimbatore",
    "divisionname": "Coimbatore Division",
    "officename": "NDC KPColony SO",
    "pincode": "641040",
    "officetype": "PO",
    "delivery": "Delivery",
    "district": "COIMBATORE",
    "statename": "TAMIL NADU",
    "latitude": "11.0420",
    "longitude": "76.9498"
  },
  {
    "circlename": "Tamilnadu Circle",
    "regionname": "Western Region Coimbatore",
    "divisionname": "Coimbatore Division",
    "officename": "Gandhipuram SO Coimbatore",
    "pincode": "641012",
    "officetype": "PO",
    "delivery": "Non Delivery",
    "district": "COIMBATORE",
    "statename": "TAMIL NADU",
    "latitude": "11.0209883",
    "longitude": "76.9663340"
  },
  {
    "circlename": "Tamilnadu Circle",
    "regionname": "Western Region Coimbatore",
    "divisionname": "Coimbatore Division",
    "officename": "Karunyanagar SO",
    "pincode": "641114",
    "officetype": "PO",
    "delivery": "Delivery",
    "district": "COIMBATORE",
    "statename": "TAMIL NADU",
    "latitude": "10.9397500",
    "longitude": "76.7458500"
  },
  {
    "circlename": "Tamilnadu Circle",
    "regionname": "Western Region Coimbatore",
    "divisionname": "Coimbatore Division",
    "officename": "Lawley Road SO",
    "pincode": "641003",
    "officetype": "PO",
    "delivery": "Delivery",
    "district": "COIMBATORE",
    "statename": "TAMIL NADU",
    "latitude": "11.0110000",
    "longitude": "76.9352000"
  },
  {
    "circlename": "Tamilnadu Circle",
    "regionname": "Western Region Coimbatore",
    "divisionname": "Coimbatore Division",
    "officename": "Perur SO Coimbatore",
    "pincode": "641010",
    "officetype": "PO",
    "delivery": "Delivery",
    "district": "COIMBATORE",
    "statename": "TAMIL NADU",
    "latitude": "11.0011500",
    "longitude": "76.9635797"
  },
  {
    "circlename": "Tamilnadu Circle",
    "regionname": "Western Region Coimbatore",
    "divisionname": "Coimbatore Division",
    "officename": "Sri Ramakrishna Vidyalaya SO",
    "pincode": "641020",
    "officetype": "PO",
    "delivery": "Delivery",
    "district": "COIMBATORE",
    "statename": "TAMIL NADU",
    "latitude": "11.1490000",
    "longitude": "76.9445800"
  },
  {
    "circlename": "Tamilnadu Circle",
    "regionname": "Western Region Coimbatore",
    "divisionname": "Pollachi Division",
    "officename": "Ambarampalayam S.O",
    "pincode": "642103",
    "officetype": "PO",
    "delivery": "Delivery",
    "district": "COIMBATORE",
    "statename": "TAMIL NADU",
    "latitude": "10.6337",
    "longitude": "76.9407"
  },
  {
    "circlename": "Tamilnadu Circle",
    "regionname": "Western Region Coimbatore",
    "divisionname": "Pollachi Division",
    "officename": "Karamalai Bazaar S.O",
    "pincode": "642130",
    "officetype": "PO",
    "delivery": "Delivery",
    "district": "COIMBATORE",
    "statename": "TAMIL NADU",
    "latitude": "10.3363",
    "longitude": "76.9942"
  },
  {
    "circlename": "Tamilnadu Circle",
    "regionname": "Western Region Coimbatore",
    "divisionname": "Pollachi Division",
    "officename": "Kinathukadavoo S.O",
    "pincode": "642109",
    "officetype": "PO",
    "delivery": "Delivery",
    "district": "COIMBATORE",
    "statename": "TAMIL NADU",
    "latitude": "10.8230",
    "longitude": "77.0196"
  },
  {
    "circlename": "Tamilnadu Circle",
    "regionname": "Western Region Coimbatore",
    "divisionname": "Pollachi Division",
    "officename": "Mudis S.O",
    "pincode": "642117",
    "officetype": "PO",
    "delivery": "Delivery",
    "district": "COIMBATORE",
    "statename": "TAMIL NADU",
    "latitude": "10.2775",
    "longitude": "76.9267"
  },
  {
    "circlename": "Tamilnadu Circle",
    "regionname": "Western Region Coimbatore",
    "divisionname": "Pollachi Division",
    "officename": "Uthukuli Zamin S.O",
    "pincode": "642004",
    "officetype": "PO",
    "delivery": "Delivery",
    "district": "COIMBATORE",
    "statename": "TAMIL NADU",
    "latitude": "10.6516",
    "longitude": "76.9790"
  },
  {
    "circlename": "Tamilnadu Circle",
    "regionname": "Western Region Coimbatore",
    "divisionname": "Pollachi Division",
    "officename": "Angalakurichi S.O",
    "pincode": "642007",
    "officetype": "PO",
    "delivery": "Delivery",
    "district": "COIMBATORE",
    "statename": "TAMIL NADU",
    "latitude": "10.5300",
    "longitude": "76.9960"
  },
  {
    "circlename": "Tamilnadu Circle",
    "regionname": "Western Region Coimbatore",
    "divisionname": "Tirupur Division",
    "officename": "Karamadai SO",
    "pincode": "641104",
    "officetype": "PO",
    "delivery": "Delivery",
    "district": "COIMBATORE",
    "statename": "TAMIL NADU",
    "latitude": "11.2427560",
    "longitude": "76.9608910"
  },
  {
    "circlename": "Tamilnadu Circle",
    "regionname": "Western Region Coimbatore",
    "divisionname": "Tirupur Division",
    "officename": "Pogalur SO",
    "pincode": "641697",
    "officetype": "PO",
    "delivery": "Delivery",
    "district": "COIMBATORE",
    "statename": "TAMIL NADU",
    "latitude": "11.2583440",
    "longitude": "77.0385850"
  },
  {
    "circlename": "Tamilnadu Circle",
    "regionname": "Western Region Coimbatore",
    "divisionname": "Tirupur Division",
    "officename": "Somanur SO",
    "pincode": "641668",
    "officetype": "PO",
    "delivery": "Delivery",
    "district": "COIMBATORE",
    "statename": "TAMIL NADU",
    "latitude": "11.0898980",
    "longitude": "77.1864600"
  },
  {
    "circlename": "Tamilnadu Circle",
    "regionname": "Western Region Coimbatore",
    "divisionname": "Pollachi Division",
    "officename": "Periapodu B.O",
    "pincode": "642103",
    "officetype": "BO",
    "delivery": "Delivery",
    "district": "COIMBATORE",
    "statename": "TAMIL NADU",
    "latitude": "NA",
    "longitude": "NA"
  },
  {
    "circlename": "Tamilnadu Circle",
    "regionname": "Western Region Coimbatore",
    "divisionname": "Pollachi Division",
    "officename": "Moongiltholuvu B.O",
    "pincode": "642202",
    "officetype": "BO",
    "delivery": "Delivery",
    "district": "COIMBATORE",
    "statename": "TAMIL NADU",
    "latitude": "NA",
    "longitude": "NA"
  },
  {
    "circlename": "Tamilnadu Circle",
    "regionname": "Western Region Coimbatore",
    "divisionname": "Pollachi Division",
    "officename": "Kothavadi B.O",
    "pincode": "642109",
    "officetype": "BO",
    "delivery": "Delivery",
    "district": "COIMBATORE",
    "statename": "TAMIL NADU",
    "latitude": "NA",
    "longitude": "NA"
  },
  {
    "circlename": "Tamilnadu Circle",
    "regionname": "Western Region Coimbatore",
    "divisionname": "Pollachi Division",
    "officename": "Kaliapuram B.O",
    "pincode": "642110",
    "officetype": "BO",
    "delivery": "Delivery",
    "district": "COIMBATORE",
    "statename": "TAMIL NADU",
    "latitude": "NA",
    "longitude": "NA"
  },
  {
    "circlename": "Tamilnadu Circle",
    "regionname": "Western Region Coimbatore",
    "divisionname": "Pollachi Division",
    "officename": "Mettupalayam B.O",
    "pincode": "642110",
    "officetype": "BO",
    "delivery": "Delivery",
    "district": "COIMBATORE",
    "statename": "TAMIL NADU",
    "latitude": "NA",
    "longitude": "NA"
  },
  {
    "circlename": "Tamilnadu Circle",
    "regionname": "Western Region Coimbatore",
    "divisionname": "Pollachi Division",
    "officename": "Sulakkal B.O",
    "pincode": "642110",
    "officetype": "BO",
    "delivery": "Delivery",
    "district": "COIMBATORE",
    "statename": "TAMIL NADU",
    "latitude": "NA",
    "longitude": "NA"
  },
  {
    "circlename": "Tamilnadu Circle",
    "regionname": "Western Region Coimbatore",
    "divisionname": "Pollachi Division",
    "officename": "Achipatti B.O",
    "pincode": "642002",
    "officetype": "BO",
    "delivery": "Delivery",
    "district": "COIMBATORE",
    "statename": "TAMIL NADU",
    "latitude": "NA",
    "longitude": "NA"
  },
  {
    "circlename": "Tamilnadu Circle",
    "regionname": "Western Region Coimbatore",
    "divisionname": "Pollachi Division",
    "officename": "T.Kottampatti B.O",
    "pincode": "642002",
    "officetype": "BO",
    "delivery": "Non Delivery",
    "district": "COIMBATORE",
    "statename": "TAMIL NADU",
    "latitude": "10.6690000",
    "longitude": "77.0190000"
  },
  {
    "circlename": "Tamilnadu Circle",
    "regionname": "Western Region Coimbatore",
    "divisionname": "Pollachi Division",
    "officename": "Devenampalayam B.O",
    "pincode": "642120",
    "officetype": "BO",
    "delivery": "Delivery",
    "district": "COIMBATORE",
    "statename": "TAMIL NADU",
    "latitude": "NA",
    "longitude": "NA"
  },
  {
    "circlename": "Tamilnadu Circle",
    "regionname": "Western Region Coimbatore",
    "divisionname": "Pollachi Division",
    "officename": "Topslip B.O",
    "pincode": "642133",
    "officetype": "BO",
    "delivery": "Delivery",
    "district": "COIMBATORE",
    "statename": "TAMIL NADU",
    "latitude": "NA",
    "longitude": "NA"
  },
  {
    "circlename": "Tamilnadu Circle",
    "regionname": "Western Region Coimbatore",
    "divisionname": "Pollachi Division",
    "officename": "Kurunallipalayam B.O",
    "pincode": "641202",
    "officetype": "BO",
    "delivery": "Delivery",
    "district": "COIMBATORE",
    "statename": "TAMIL NADU",
    "latitude": "NA",
    "longitude": "NA"
  },
  {
    "circlename": "Tamilnadu Circle",
    "regionname": "Western Region Coimbatore",
    "divisionname": "Pollachi Division",
    "officename": "Vellonie B.O",
    "pincode": "642127",
    "officetype": "BO",
    "delivery": "Delivery",
    "district": "COIMBATORE",
    "statename": "TAMIL NADU",
    "latitude": "NA",
    "longitude": "NA"
  },
  {
    "circlename": "Tamilnadu Circle",
    "regionname": "Western Region Coimbatore",
    "divisionname": "Pollachi Division",
    "officename": "Odayakulam B.O",
    "pincode": "642129",
    "officetype": "BO",
    "delivery": "Delivery",
    "district": "COIMBATORE",
    "statename": "TAMIL NADU",
    "latitude": "NA",
    "longitude": "NA"
  },
  {
    "circlename": "Tamilnadu Circle",
    "regionname": "Western Region Coimbatore",
    "divisionname": "Pollachi Division",
    "officename": "Devambadi B.O",
    "pincode": "642005",
    "officetype": "BO",
    "delivery": "Delivery",
    "district": "COIMBATORE",
    "statename": "TAMIL NADU",
    "latitude": "NA",
    "longitude": "NA"
  },
  {
    "circlename": "Tamilnadu Circle",
    "regionname": "Western Region Coimbatore",
    "divisionname": "Pollachi Division",
    "officename": "Mappillaigoundenpudur B.O",
    "pincode": "642005",
    "officetype": "BO",
    "delivery": "Delivery",
    "district": "COIMBATORE",
    "statename": "TAMIL NADU",
    "latitude": "NA",
    "longitude": "NA"
  },
  {
    "circlename": "Tamilnadu Circle",
    "regionname": "Western Region Coimbatore",
    "divisionname": "Pollachi Division",
    "officename": "Ramapattinam B.O",
    "pincode": "642005",
    "officetype": "BO",
    "delivery": "Delivery",
    "district": "COIMBATORE",
    "statename": "TAMIL NADU",
    "latitude": "NA",
    "longitude": "NA"
  },
  {
    "circlename": "Tamilnadu Circle",
    "regionname": "Western Region Coimbatore",
    "divisionname": "Pollachi Division",
    "officename": "Thenkumarapalayam B.O",
    "pincode": "642107",
    "officetype": "BO",
    "delivery": "Delivery",
    "district": "COIMBATORE",
    "statename": "TAMIL NADU",
    "latitude": "NA",
    "longitude": "NA"
  },
  {
    "circlename": "Tamilnadu Circle",
    "regionname": "Western Region Coimbatore",
    "divisionname": "Pollachi Division",
    "officename": "A.Nagore B.O",
    "pincode": "642205",
    "officetype": "BO",
    "delivery": "Delivery",
    "district": "COIMBATORE",
    "statename": "TAMIL NADU",
    "latitude": "NA",
    "longitude": "NA"
  },
  {
    "circlename": "Tamilnadu Circle",
    "regionname": "Western Region Coimbatore",
    "divisionname": "Tirupur Division",
    "officename": "Nallichettipalayam BO",
    "pincode": "641653",
    "officetype": "BO",
    "delivery": "Delivery",
    "district": "COIMBATORE",
    "statename": "TAMIL NADU",
    "latitude": "11.2367530",
    "longitude": "77.0711550"
  },
  {
    "circlename": "Tamilnadu Circle",
    "regionname": "Western Region Coimbatore",
    "divisionname": "Tirupur Division",
    "officename": "Pilliappampalayam BO",
    "pincode": "641653",
    "officetype": "BO",
    "delivery": "Delivery",
    "district": "COIMBATORE",
    "statename": "TAMIL NADU",
    "latitude": "11.1886500",
    "longitude": "77.0764430"
  },
  {
    "circlename": "Tamilnadu Circle",
    "regionname": "Western Region Coimbatore",
    "divisionname": "Tirupur Division",
    "officename": "Sokkampalayam BO",
    "pincode": "641653",
    "officetype": "BO",
    "delivery": "Delivery",
    "district": "COIMBATORE",
    "statename": "TAMIL NADU",
    "latitude": "11.2152390",
    "longitude": "77.1217380"
  },
  {
    "circlename": "Tamilnadu Circle",
    "regionname": "Western Region Coimbatore",
    "divisionname": "Tirupur Division",
    "officename": "Kamatchipuram BO",
    "pincode": "641103",
    "officetype": "BO",
    "delivery": "Non Delivery",
    "district": "COIMBATORE",
    "statename": "TAMIL NADU",
    "latitude": "11.0040533",
    "longitude": "77.0628883"
  },
  {
    "circlename": "Tamilnadu Circle",
    "regionname": "Western Region Coimbatore",
    "divisionname": "Tirupur Division",
    "officename": "Kadampadi BO",
    "pincode": "641401",
    "officetype": "BO",
    "delivery": "Delivery",
    "district": "COIMBATORE",
    "statename": "TAMIL NADU",
    "latitude": "11.0359660",
    "longitude": "77.1642530"
  },
  {
    "circlename": "Tamilnadu Circle",
    "regionname": "Western Region Coimbatore",
    "divisionname": "Tirupur Division",
    "officename": "Paralipower House BO",
    "pincode": "641104",
    "officetype": "BO",
    "delivery": "Delivery",
    "district": "COIMBATORE",
    "statename": "TAMIL NADU",
    "latitude": "11.2478920",
    "longitude": "76.7668950"
  },
  {
    "circlename": "Tamilnadu Circle",
    "regionname": "Western Region Coimbatore",
    "divisionname": "Tirupur Division",
    "officename": "Nellithurai BO",
    "pincode": "641305",
    "officetype": "BO",
    "delivery": "Delivery",
    "district": "COIMBATORE",
    "statename": "TAMIL NADU",
    "latitude": "11.2870310",
    "longitude": "76.8849980"
  },
  {
    "circlename": "Tamilnadu Circle",
    "regionname": "Western Region Coimbatore",
    "divisionname": "Tirupur Division",
    "officename": "Vadavallikaramadai BO",
    "pincode": "641697",
    "officetype": "BO",
    "delivery": "Delivery",
    "district": "COIMBATORE",
    "statename": "TAMIL NADU",
    "latitude": "11.2565140",
    "longitude": "77.0114930"
  },
  {
    "circlename": "Tamilnadu Circle",
    "regionname": "Western Region Coimbatore",
    "divisionname": "Tirupur Division",
    "officename": "Irumborai BO",
    "pincode": "638459",
    "officetype": "BO",
    "delivery": "Delivery",
    "district": "COIMBATORE",
    "statename": "TAMIL NADU",
    "latitude": "11.3518910",
    "longitude": "77.0949110"
  },
  {
    "circlename": "Tamilnadu Circle",
    "regionname": "Western Region Coimbatore",
    "divisionname": "Tirupur Division",
    "officename": "Kanuvakarai BO",
    "pincode": "638459",
    "officetype": "BO",
    "delivery": "Delivery",
    "district": "COIMBATORE",
    "statename": "TAMIL NADU",
    "latitude": "11.3347240",
    "longitude": "77.1189440"
  },
  {
    "circlename": "Tamilnadu Circle",
    "regionname": "Western Region Coimbatore",
    "divisionname": "Tirupur Division",
    "officename": "Muduthurai BO",
    "pincode": "638459",
    "officetype": "BO",
    "delivery": "Delivery",
    "district": "COIMBATORE",
    "statename": "TAMIL NADU",
    "latitude": "11.3537980",
    "longitude": "77.1306930"
  },
  {
    "circlename": "Tamilnadu Circle",
    "regionname": "Western Region Coimbatore",
    "divisionname": "Tirupur Division",
    "officename": "Bhujanganur BO",
    "pincode": "641113",
    "officetype": "BO",
    "delivery": "Delivery",
    "district": "COIMBATORE",
    "statename": "TAMIL NADU",
    "latitude": "11.2240890",
    "longitude": "76.8811070"
  },
  {
    "circlename": "Tamilnadu Circle",
    "regionname": "Western Region Coimbatore",
    "divisionname": "Tirupur Division",
    "officename": "Medur BO",
    "pincode": "641113",
    "officetype": "BO",
    "delivery": "Delivery",
    "district": "COIMBATORE",
    "statename": "TAMIL NADU",
    "latitude": "11.2266830",
    "longitude": "76.8777500"
  },
  {
    "circlename": "Tamilnadu Circle",
    "regionname": "Western Region Coimbatore",
    "divisionname": "Tirupur Division",
    "officename": "Ichipatti BO",
    "pincode": "641668",
    "officetype": "BO",
    "delivery": "Delivery",
    "district": "COIMBATORE",
    "statename": "TAMIL NADU",
    "latitude": "11.0579160",
    "longitude": "77.1918040"
  },
  {
    "circlename": "Tamilnadu Circle",
    "regionname": "Western Region Coimbatore",
    "divisionname": "Tirupur Division",
    "officename": "Kalingal BO",
    "pincode": "641402",
    "officetype": "BO",
    "delivery": "Delivery",
    "district": "COIMBATORE",
    "statename": "TAMIL NADU",
    "latitude": "10.9910950",
    "longitude": "77.1364616"
  },
  {
    "circlename": "Tamilnadu Circle",
    "regionname": "Western Region Coimbatore",
    "divisionname": "Tirupur Division",
    "officename": "Puliamarathupalayam BO",
    "pincode": "641669",
    "officetype": "BO",
    "delivery": "Delivery",
    "district": "COIMBATORE",
    "statename": "TAMIL NADU",
    "latitude": "10.7447930",
    "longitude": "77.4261910"
  },
  {
    "circlename": "Tamilnadu Circle",
    "regionname": "Western Region Coimbatore",
    "divisionname": "Tirupur Division",
    "officename": "Purandampalayam BO",
    "pincode": "641669",
    "officetype": "BO",
    "delivery": "Delivery",
    "district": "COIMBATORE",
    "statename": "TAMIL NADU",
    "latitude": "10.8658550",
    "longitude": "77.1711400"
  },
  {
    "circlename": "Tamilnadu Circle",
    "regionname": "Western Region Coimbatore",
    "divisionname": "Tirupur Division",
    "officename": "Vadambachery BO",
    "pincode": "641669",
    "officetype": "BO",
    "delivery": "Delivery",
    "district": "COIMBATORE",
    "statename": "TAMIL NADU",
    "latitude": "11.4449000",
    "longitude": "77.7110000"
  },
  {
    "circlename": "Tamilnadu Circle",
    "regionname": "Western Region Coimbatore",
    "divisionname": "Coimbatore Division",
    "officename": "Sugunapuram BO",
    "pincode": "641008",
    "officetype": "BO",
    "delivery": "Non Delivery",
    "district": "COIMBATORE",
    "statename": "TAMIL NADU",
    "latitude": "10.9322116",
    "longitude": "76.9489066"
  },
  {
    "circlename": "Tamilnadu Circle",
    "regionname": "Western Region Coimbatore",
    "divisionname": "Coimbatore Division",
    "officename": "Kandegounden Salai BO",
    "pincode": "641105",
    "officetype": "BO",
    "delivery": "Delivery",
    "district": "COIMBATORE",
    "statename": "TAMIL NADU",
    "latitude": "10.8755366",
    "longitude": "76.8944500"
  },
  {
    "circlename": "Tamilnadu Circle",
    "regionname": "Western Region Coimbatore",
    "divisionname": "Coimbatore Division",
    "officename": "Madukkarai Cusba BO",
    "pincode": "641105",
    "officetype": "BO",
    "delivery": "Non Delivery",
    "district": "COIMBATORE",
    "statename": "TAMIL NADU",
    "latitude": "10.9040050",
    "longitude": "76.9632633"
  },
  {
    "circlename": "Tamilnadu Circle",
    "regionname": "Western Region Coimbatore",
    "divisionname": "Coimbatore Division",
    "officename": "Pichanur BO",
    "pincode": "641105",
    "officetype": "BO",
    "delivery": "Delivery",
    "district": "COIMBATORE",
    "statename": "TAMIL NADU",
    "latitude": "10.8311916",
    "longitude": "76.8689833"
  },
  {
    "circlename": "Tamilnadu Circle",
    "regionname": "Western Region Coimbatore",
    "divisionname": "Coimbatore Division",
    "officename": "Peedampalli BO",
    "pincode": "641016",
    "officetype": "BO",
    "delivery": "Delivery",
    "district": "COIMBATORE",
    "statename": "TAMIL NADU",
    "latitude": "10.9731150",
    "longitude": "77.0839650"
  },
  {
    "circlename": "Tamilnadu Circle",
    "regionname": "Western Region Coimbatore",
    "divisionname": "Coimbatore Division",
    "officename": "Kumittipathi BO",
    "pincode": "641032",
    "officetype": "BO",
    "delivery": "Delivery",
    "district": "COIMBATORE",
    "statename": "TAMIL NADU",
    "latitude": "10.8349900",
    "longitude": "76.8904800"
  },
  {
    "circlename": "Tamilnadu Circle",
    "regionname": "Western Region Coimbatore",
    "divisionname": "Coimbatore Division",
    "officename": "Masthigoundenpathi BO",
    "pincode": "641032",
    "officetype": "BO",
    "delivery": "Delivery",
    "district": "COIMBATORE",
    "statename": "TAMIL NADU",
    "latitude": "10.8429966",
    "longitude": "76.9187650"
  },
  {
    "circlename": "Tamilnadu Circle",
    "regionname": "Western Region Coimbatore",
    "divisionname": "Coimbatore Division",
    "officename": "Meenakshipuram BO",
    "pincode": "641032",
    "officetype": "BO",
    "delivery": "Delivery",
    "district": "COIMBATORE",
    "statename": "TAMIL NADU",
    "latitude": "10.8286616",
    "longitude": "76.9609883"
  },
  {
    "circlename": "Tamilnadu Circle",
    "regionname": "Western Region Coimbatore",
    "divisionname": "Coimbatore Division",
    "officename": "Myleripalayam BO",
    "pincode": "641032",
    "officetype": "BO",
    "delivery": "Delivery",
    "district": "COIMBATORE",
    "statename": "TAMIL NADU",
    "latitude": "10.8702600",
    "longitude": "77.0239883"
  },
  {
    "circlename": "Tamilnadu Circle",
    "regionname": "Western Region Coimbatore",
    "divisionname": "Coimbatore Division",
    "officename": "Valukkuparai BO",
    "pincode": "641032",
    "officetype": "BO",
    "delivery": "Delivery",
    "district": "COIMBATORE",
    "statename": "TAMIL NADU",
    "latitude": "10.8484533",
    "longitude": "76.9702083"
  },
  {
    "circlename": "Tamilnadu Circle",
    "regionname": "Western Region Coimbatore",
    "divisionname": "Coimbatore Division",
    "officename": "Kuppaipalayam BO",
    "pincode": "641107",
    "officetype": "BO",
    "delivery": "Delivery",
    "district": "COIMBATORE",
    "statename": "TAMIL NADU",
    "latitude": "11.1819108",
    "longitude": "77.0295819"
  },
  {
    "circlename": "Tamilnadu Circle",
    "regionname": "Western Region Coimbatore",
    "divisionname": "Coimbatore Division",
    "officename": "Kurumbapalayam BO",
    "pincode": "641107",
    "officetype": "BO",
    "delivery": "Delivery",
    "district": "COIMBATORE",
    "statename": "TAMIL NADU",
    "latitude": "11.1126650",
    "longitude": "77.0300652"
  },
  {
    "circlename": "Tamilnadu Circle",
    "regionname": "Western Region Coimbatore",
    "divisionname": "Coimbatore Division",
    "officename": "Nilambur BO",
    "pincode": "641062",
    "officetype": "BO",
    "delivery": "Delivery",
    "district": "COIMBATORE",
    "statename": "TAMIL NADU",
    "latitude": "11.0615366",
    "longitude": "77.0827666"
  },
  {
    "circlename": "Tamilnadu Circle",
    "regionname": "Western Region Coimbatore",
    "divisionname": "Coimbatore Division",
    "officename": "Agraharasamakulam BO",
    "pincode": "641110",
    "officetype": "BO",
    "delivery": "Delivery",
    "district": "COIMBATORE",
    "statename": "TAMIL NADU",
    "latitude": "11.1499426",
    "longitude": "77.0174853"
  },
  {
    "circlename": "Tamilnadu Circle",
    "regionname": "Western Region Coimbatore",
    "divisionname": "Coimbatore Division",
    "officename": "Kottaipalayam BO",
    "pincode": "641110",
    "officetype": "BO",
    "delivery": "Non Delivery",
    "district": "COIMBATORE",
    "statename": "TAMIL NADU",
    "latitude": "11.1819108",
    "longitude": "77.0295819"
  },
  {
    "circlename": "Tamilnadu Circle",
    "regionname": "Western Region Coimbatore",
    "divisionname": "Coimbatore Division",
    "officename": "Puluvapatti BO",
    "pincode": "641101",
    "officetype": "BO",
    "delivery": "Delivery",
    "district": "COIMBATORE",
    "statename": "TAMIL NADU",
    "latitude": "10.9622566",
    "longitude": "76.8159516"
  },
  {
    "circlename": "Tamilnadu Circle",
    "regionname": "Western Region Coimbatore",
    "divisionname": "Coimbatore Division",
    "officename": "Siruvani Adivaram BO",
    "pincode": "641114",
    "officetype": "BO",
    "delivery": "Delivery",
    "district": "COIMBATORE",
    "statename": "TAMIL NADU",
    "latitude": "10.9434216",
    "longitude": "76.7159983"
  },
  {
    "circlename": "Tamilnadu Circle",
    "regionname": "Western Region Coimbatore",
    "divisionname": "Coimbatore Division",
    "officename": "Madampatti BO",
    "pincode": "641010",
    "officetype": "BO",
    "delivery": "Delivery",
    "district": "COIMBATORE",
    "statename": "TAMIL NADU",
    "latitude": "10.9690116",
    "longitude": "76.8615533"
  },
  {
    "circlename": "Tamilnadu Circle",
    "regionname": "Western Region Coimbatore",
    "divisionname": "Coimbatore Division",
    "officename": "Titipalayam BO",
    "pincode": "641010",
    "officetype": "BO",
    "delivery": "Delivery",
    "district": "COIMBATORE",
    "statename": "TAMIL NADU",
    "latitude": "10.9500300",
    "longitude": "76.8861649"
  },
  {
    "circlename": "Tamilnadu Circle",
    "regionname": "Western Region Coimbatore",
    "divisionname": "Coimbatore Division",
    "officename": "Seeranaickenpalayam BO",
    "pincode": "641007",
    "officetype": "BO",
    "delivery": "Non Delivery",
    "district": "COIMBATORE",
    "statename": "TAMIL NADU",
    "latitude": "11.0104946",
    "longitude": "76.9308916"
  },
  {
    "circlename": "Tamilnadu Circle",
    "regionname": "Western Region Coimbatore",
    "divisionname": "Coimbatore Division",
    "officename": "Vedapatti BO",
    "pincode": "641007",
    "officetype": "BO",
    "delivery": "Delivery",
    "district": "COIMBATORE",
    "statename": "TAMIL NADU",
    "latitude": "10.9946603",
    "longitude": "76.8963777"
  },
  {
    "circlename": "Tamilnadu Circle",
    "regionname": "Western Region Coimbatore",
    "divisionname": "Coimbatore Division",
    "officename": "Veerakeralam BO",
    "pincode": "641007",
    "officetype": "BO",
    "delivery": "Non Delivery",
    "district": "COIMBATORE",
    "statename": "TAMIL NADU",
    "latitude": "11.0087888",
    "longitude": "76.9130198"
  },
  {
    "circlename": "Tamilnadu Circle",
    "regionname": "Western Region Coimbatore",
    "divisionname": "Coimbatore Division",
    "officename": "Somayampalayam BO",
    "pincode": "641108",
    "officetype": "BO",
    "delivery": "Delivery",
    "district": "COIMBATORE",
    "statename": "TAMIL NADU",
    "latitude": "11.0601626",
    "longitude": "76.9061562"
  },
  {
    "circlename": "Tamilnadu Circle",
    "regionname": "Western Region Coimbatore",
    "divisionname": "Coimbatore Division",
    "officename": "Ikkarai Boluvampatti BO",
    "pincode": "641109",
    "officetype": "BO",
    "delivery": "Delivery",
    "district": "COIMBATORE",
    "statename": "TAMIL NADU",
    "latitude": "10.9669650",
    "longitude": "76.8001600"
  },
  {
    "circlename": "Tamilnadu Circle",
    "regionname": "Western Region Coimbatore",
    "divisionname": "Coimbatore Division",
    "officename": "Jakkirnaickenpalayam BO",
    "pincode": "641109",
    "officetype": "BO",
    "delivery": "Delivery",
    "district": "COIMBATORE",
    "statename": "TAMIL NADU",
    "latitude": "10.9807583",
    "longitude": "76.7917216"
  },
  {
    "circlename": "Tamilnadu Circle",
    "regionname": "Western Region Coimbatore",
    "divisionname": "Coimbatore Division",
    "officename": "Narasipuram BO",
    "pincode": "641109",
    "officetype": "BO",
    "delivery": "Delivery",
    "district": "COIMBATORE",
    "statename": "TAMIL NADU",
    "latitude": "10.9875600",
    "longitude": "76.7733300"
  },
  {
    "circlename": "Tamilnadu Circle",
    "regionname": "Western Region Coimbatore",
    "divisionname": "Coimbatore Division",
    "officename": "Thoppampatti BO",
    "pincode": "641017",
    "officetype": "BO",
    "delivery": "Delivery",
    "district": "COIMBATORE",
    "statename": "TAMIL NADU",
    "latitude": "11.0942849",
    "longitude": "76.9302883"
  },
  {
    "circlename": "Tamilnadu Circle",
    "regionname": "Western Region Coimbatore",
    "divisionname": "Coimbatore Division",
    "officename": "Coimbatore HO",
    "pincode": "641001",
    "officetype": "HO",
    "delivery": "Delivery",
    "district": "COIMBATORE",
    "statename": "TAMIL NADU",
    "latitude": "11.0000000",
    "longitude": "76.9632000"
  },
  {
    "circlename": "Tamilnadu Circle",
    "regionname": "Western Region Coimbatore",
    "divisionname": "Coimbatore Division",
    "officename": "Amritanagar SO",
    "pincode": "641112",
    "officetype": "PO",
    "delivery": "Delivery",
    "district": "COIMBATORE",
    "statename": "TAMIL NADU",
    "latitude": "10.8997460",
    "longitude": "76.9003570"
  },
  {
    "circlename": "Tamilnadu Circle",
    "regionname": "Western Region Coimbatore",
    "divisionname": "Coimbatore Division",
    "officename": "Chettipalayam SO",
    "pincode": "641201",
    "officetype": "PO",
    "delivery": "Delivery",
    "district": "COIMBATORE",
    "statename": "TAMIL NADU",
    "latitude": "10.9142000",
    "longitude": "77.0362200"
  },
  {
    "circlename": "Tamilnadu Circle",
    "regionname": "Western Region Coimbatore",
    "divisionname": "Coimbatore Division",
    "officename": "Coimbatore Industrial Estate SO",
    "pincode": "641021",
    "officetype": "PO",
    "delivery": "Delivery",
    "district": "COIMBATORE",
    "statename": "TAMIL NADU",
    "latitude": "10.9412300",
    "longitude": "76.9720300"
  },
  {
    "circlename": "Tamilnadu Circle",
    "regionname": "Western Region Coimbatore",
    "divisionname": "Coimbatore Division",
    "officename": "NDC Coimbatore HO",
    "pincode": "641063",
    "officetype": "PO",
    "delivery": "Delivery",
    "district": "COIMBATORE",
    "statename": "TAMIL NADU",
    "latitude": "11.0000000",
    "longitude": "76.9632000"
  },
  {
    "circlename": "Tamilnadu Circle",
    "regionname": "Western Region Coimbatore",
    "divisionname": "Coimbatore Division",
    "officename": "Gnanambika Mills SO",
    "pincode": "641029",
    "officetype": "PO",
    "delivery": "Delivery",
    "district": "COIMBATORE",
    "statename": "TAMIL NADU",
    "latitude": "11.0599100",
    "longitude": "76.9461900"
  },
  {
    "circlename": "Tamilnadu Circle",
    "regionname": "Western Region Coimbatore",
    "divisionname": "Coimbatore Division",
    "officename": "Kuppakonanpudur SO",
    "pincode": "641038",
    "officetype": "PO",
    "delivery": "Delivery",
    "district": "COIMBATORE",
    "statename": "TAMIL NADU",
    "latitude": "11.0182200",
    "longitude": "76.9579590"
  },
  {
    "circlename": "Tamilnadu Circle",
    "regionname": "Western Region Coimbatore",
    "divisionname": "Coimbatore Division",
    "officename": "NGGO Colony SO",
    "pincode": "641022",
    "officetype": "PO",
    "delivery": "Delivery",
    "district": "COIMBATORE",
    "statename": "TAMIL NADU",
    "latitude": "11.0900000",
    "longitude": "76.9449000"
  },
  {
    "circlename": "Tamilnadu Circle",
    "regionname": "Western Region Coimbatore",
    "divisionname": "Coimbatore Division",
    "officename": "Tudiyalur SO",
    "pincode": "641034",
    "officetype": "PO",
    "delivery": "Delivery",
    "district": "COIMBATORE",
    "statename": "TAMIL NADU",
    "latitude": "11.0810700",
    "longitude": "76.9440100"
  },
  {
    "circlename": "Tamilnadu Circle",
    "regionname": "Western Region Coimbatore",
    "divisionname": "Coimbatore Division",
    "officename": "Vadavalli SO",
    "pincode": "641041",
    "officetype": "PO",
    "delivery": "Non Delivery",
    "district": "COIMBATORE",
    "statename": "TAMIL NADU",
    "latitude": "11.0248900",
    "longitude": "76.8993500"
  },
  {
    "circlename": "Tamilnadu Circle",
    "regionname": "Western Region Coimbatore",
    "divisionname": "Pollachi Division",
    "officename": "Cinchona S.O",
    "pincode": "642106",
    "officetype": "PO",
    "delivery": "Delivery",
    "district": "COIMBATORE",
    "statename": "TAMIL NADU",
    "latitude": "10.9997222",
    "longitude": "76.9637222"
  },
  {
    "circlename": "Tamilnadu Circle",
    "regionname": "Western Region Coimbatore",
    "divisionname": "Pollachi Division",
    "officename": "Iyerpadi S.O",
    "pincode": "642108",
    "officetype": "PO",
    "delivery": "Delivery",
    "district": "COIMBATORE",
    "statename": "TAMIL NADU",
    "latitude": "10.3621111",
    "longitude": "76.9801667"
  },
  {
    "circlename": "Tamilnadu Circle",
    "regionname": "Western Region Coimbatore",
    "divisionname": "Pollachi Division",
    "officename": "Makkinaicken Patti S.O",
    "pincode": "642003",
    "officetype": "PO",
    "delivery": "Delivery",
    "district": "COIMBATORE",
    "statename": "TAMIL NADU",
    "latitude": "10.6561",
    "longitude": "77.0340"
  },
  {
    "circlename": "Tamilnadu Circle",
    "regionname": "Western Region Coimbatore",
    "divisionname": "Pollachi Division",
    "officename": "Negamam S.O",
    "pincode": "642120",
    "officetype": "PO",
    "delivery": "Delivery",
    "district": "COIMBATORE",
    "statename": "TAMIL NADU",
    "latitude": "10.7460",
    "longitude": "77.0976"
  },
  {
    "circlename": "Tamilnadu Circle",
    "regionname": "Western Region Coimbatore",
    "divisionname": "Pollachi Division",
    "officename": "Somandurai S.O",
    "pincode": "642134",
    "officetype": "PO",
    "delivery": "Delivery",
    "district": "COIMBATORE",
    "statename": "TAMIL NADU",
    "latitude": "10.5701",
    "longitude": "76.9878"
  },
  {
    "circlename": "Tamilnadu Circle",
    "regionname": "Western Region Coimbatore",
    "divisionname": "Pollachi Division",
    "officename": "Suleeswaran Patti S.O",
    "pincode": "642006",
    "officetype": "PO",
    "delivery": "Delivery",
    "district": "COIMBATORE",
    "statename": "TAMIL NADU",
    "latitude": "10.6467",
    "longitude": "77.0073"
  },
  {
    "circlename": "Tamilnadu Circle",
    "regionname": "Western Region Coimbatore",
    "divisionname": "Pollachi Division",
    "officename": "Water Falls Estate S.O",
    "pincode": "642105",
    "officetype": "PO",
    "delivery": "Delivery",
    "district": "COIMBATORE",
    "statename": "TAMIL NADU",
    "latitude": "10.4135",
    "longitude": "76.9964"
  },
  {
    "circlename": "Tamilnadu Circle",
    "regionname": "Western Region Coimbatore",
    "divisionname": "Pollachi Division",
    "officename": "Zamin Muthur S.O",
    "pincode": "642005",
    "officetype": "PO",
    "delivery": "Delivery",
    "district": "COIMBATORE",
    "statename": "TAMIL NADU",
    "latitude": "10.6773",
    "longitude": "76.9694"
  },
  {
    "circlename": "Tamilnadu Circle",
    "regionname": "Western Region Coimbatore",
    "divisionname": "Tirupur Division",
    "officename": "Sulur SO",
    "pincode": "641402",
    "officetype": "PO",
    "delivery": "Delivery",
    "district": "COIMBATORE",
    "statename": "TAMIL NADU",
    "latitude": "11.0252970",
    "longitude": "77.1258500"
  },
  {
    "circlename": "Tamilnadu Circle",
    "regionname": "Western Region Coimbatore",
    "divisionname": "Tirupur Division",
    "officename": "Pasuravanashi BO",
    "pincode": "641653",
    "officetype": "BO",
    "delivery": "Delivery",
    "district": "COIMBATORE",
    "statename": "TAMIL NADU",
    "latitude": "11.2810040",
    "longitude": "77.1204410"
  },
  {
    "circlename": "Tamilnadu Circle",
    "regionname": "Western Region Coimbatore",
    "divisionname": "Tirupur Division",
    "officename": "Chinthamanipudur BO",
    "pincode": "641103",
    "officetype": "BO",
    "delivery": "Delivery",
    "district": "COIMBATORE",
    "statename": "TAMIL NADU",
    "latitude": "11.0083983",
    "longitude": "77.0744616"
  },
  {
    "circlename": "Tamilnadu Circle",
    "regionname": "Western Region Coimbatore",
    "divisionname": "Tirupur Division",
    "officename": "Mangalakaraipudur BO",
    "pincode": "641104",
    "officetype": "BO",
    "delivery": "Delivery",
    "district": "COIMBATORE",
    "statename": "TAMIL NADU",
    "latitude": "11.2595650",
    "longitude": "76.9310030"
  },
  {
    "circlename": "Tamilnadu Circle",
    "regionname": "Western Region Coimbatore",
    "divisionname": "Tirupur Division",
    "officename": "Velliankadu BO",
    "pincode": "641104",
    "officetype": "BO",
    "delivery": "Delivery",
    "district": "COIMBATORE",
    "statename": "TAMIL NADU",
    "latitude": "11.2163070",
    "longitude": "76.8204530"
  },
  {
    "circlename": "Tamilnadu Circle",
    "regionname": "Western Region Coimbatore",
    "divisionname": "Tirupur Division",
    "officename": "Chennappachettipudur BO",
    "pincode": "641659",
    "officetype": "BO",
    "delivery": "Delivery",
    "district": "COIMBATORE",
    "statename": "TAMIL NADU",
    "latitude": "11.1644650",
    "longitude": "77.1129110"
  },
  {
    "circlename": "Tamilnadu Circle",
    "regionname": "Western Region Coimbatore",
    "divisionname": "Tirupur Division",
    "officename": "Periaputhur BO",
    "pincode": "641697",
    "officetype": "BO",
    "delivery": "Delivery",
    "district": "COIMBATORE",
    "statename": "TAMIL NADU",
    "latitude": "11.2298640",
    "longitude": "77.0274280"
  },
  {
    "circlename": "Tamilnadu Circle",
    "regionname": "Western Region Coimbatore",
    "divisionname": "Tirupur Division",
    "officename": "Therampalayam BO",
    "pincode": "641697",
    "officetype": "BO",
    "delivery": "Delivery",
    "district": "COIMBATORE",
    "statename": "TAMIL NADU",
    "latitude": "11.2746720",
    "longitude": "76.9989810"
  },
  {
    "circlename": "Tamilnadu Circle",
    "regionname": "Western Region Coimbatore",
    "divisionname": "Tirupur Division",
    "officename": "Sellappampalayam BO",
    "pincode": "638459",
    "officetype": "BO",
    "delivery": "Delivery",
    "district": "COIMBATORE",
    "statename": "TAMIL NADU",
    "latitude": "11.3263320",
    "longitude": "77.1464860"
  },
  {
    "circlename": "Tamilnadu Circle",
    "regionname": "Western Region Coimbatore",
    "divisionname": "Tirupur Division",
    "officename": "Thimmanur BO",
    "pincode": "641302",
    "officetype": "BO",
    "delivery": "Delivery",
    "district": "COIMBATORE",
    "statename": "TAMIL NADU",
    "latitude": "11.3321200",
    "longitude": "77.0673150"
  },
  {
    "circlename": "Tamilnadu Circle",
    "regionname": "Western Region Coimbatore",
    "divisionname": "Tirupur Division",
    "officename": "Subbarayanpudur BO",
    "pincode": "641668",
    "officetype": "BO",
    "delivery": "Delivery",
    "district": "COIMBATORE",
    "statename": "TAMIL NADU",
    "latitude": "11.0993390",
    "longitude": "77.2130670"
  },
  {
    "circlename": "Tamilnadu Circle",
    "regionname": "Western Region Coimbatore",
    "divisionname": "Tirupur Division",
    "officename": "Kannampalayam BO",
    "pincode": "641402",
    "officetype": "BO",
    "delivery": "Delivery",
    "district": "COIMBATORE",
    "statename": "TAMIL NADU",
    "latitude": "10.9930500",
    "longitude": "77.0974833"
  },
  {
    "circlename": "Tamilnadu Circle",
    "regionname": "Western Region Coimbatore",
    "divisionname": "Tirupur Division",
    "officename": "Muthugoundenpudur BO",
    "pincode": "641402",
    "officetype": "BO",
    "delivery": "Delivery",
    "district": "COIMBATORE",
    "statename": "TAMIL NADU",
    "latitude": "11.0503850",
    "longitude": "77.1180760"
  },
  {
    "circlename": "Tamilnadu Circle",
    "regionname": "Western Region Coimbatore",
    "divisionname": "Tirupur Division",
    "officename": "Rasipalayam BO",
    "pincode": "641402",
    "officetype": "BO",
    "delivery": "Delivery",
    "district": "COIMBATORE",
    "statename": "TAMIL NADU",
    "latitude": "11.0613140",
    "longitude": "77.1324040"
  },
  {
    "circlename": "Tamilnadu Circle",
    "regionname": "Western Region Coimbatore",
    "divisionname": "Tirupur Division",
    "officename": "Chandrapuram BO",
    "pincode": "641669",
    "officetype": "BO",
    "delivery": "Delivery",
    "district": "COIMBATORE",
    "statename": "TAMIL NADU",
    "latitude": "12.5105970",
    "longitude": "78.4783900"
  },
  {
    "circlename": "Tamilnadu Circle",
    "regionname": "Western Region Coimbatore",
    "divisionname": "Tirupur Division",
    "officename": "Malayadipalayam BO",
    "pincode": "641669",
    "officetype": "BO",
    "delivery": "Delivery",
    "district": "COIMBATORE",
    "statename": "TAMIL NADU",
    "latitude": "11.4582280",
    "longitude": "77.7712080"
  },
  {
    "circlename": "Tamilnadu Circle",
    "regionname": "Western Region Coimbatore",
    "divisionname": "Coimbatore Division",
    "officename": "Ettimadai BO",
    "pincode": "641112",
    "officetype": "BO",
    "delivery": "Non Delivery",
    "district": "COIMBATORE",
    "statename": "TAMIL NADU",
    "latitude": "10.8904766",
    "longitude": "76.9075216"
  },
  {
    "circlename": "Tamilnadu Circle",
    "regionname": "Western Region Coimbatore",
    "divisionname": "Coimbatore Division",
    "officename": "Eachanari BO",
    "pincode": "641021",
    "officetype": "BO",
    "delivery": "Delivery",
    "district": "COIMBATORE",
    "statename": "TAMIL NADU",
    "latitude": "10.9229750",
    "longitude": "76.9829150"
  },
  {
    "circlename": "Tamilnadu Circle",
    "regionname": "Western Region Coimbatore",
    "divisionname": "Coimbatore Division",
    "officename": "Pattanam BO",
    "pincode": "641016",
    "officetype": "BO",
    "delivery": "Delivery",
    "district": "COIMBATORE",
    "statename": "TAMIL NADU",
    "latitude": "10.9811850",
    "longitude": "77.0596083"
  },
  {
    "circlename": "Tamilnadu Circle",
    "regionname": "Western Region Coimbatore",
    "divisionname": "Coimbatore Division",
    "officename": "Elur BO",
    "pincode": "641032",
    "officetype": "BO",
    "delivery": "Delivery",
    "district": "COIMBATORE",
    "statename": "TAMIL NADU",
    "latitude": "10.8421133",
    "longitude": "77.0080800"
  },
  {
    "circlename": "Tamilnadu Circle",
    "regionname": "Western Region Coimbatore",
    "divisionname": "Coimbatore Division",
    "officename": "Athipalayam BO",
    "pincode": "641110",
    "officetype": "BO",
    "delivery": "Delivery",
    "district": "COIMBATORE",
    "statename": "TAMIL NADU",
    "latitude": "11.1190088",
    "longitude": "76.9794510"
  },
  {
    "circlename": "Tamilnadu Circle",
    "regionname": "Western Region Coimbatore",
    "divisionname": "Coimbatore Division",
    "officename": "Nathegoundenpudur BO",
    "pincode": "641101",
    "officetype": "BO",
    "delivery": "Non Delivery",
    "district": "COIMBATORE",
    "statename": "TAMIL NADU",
    "latitude": "10.9368100",
    "longitude": "76.7954183"
  },
  {
    "circlename": "Tamilnadu Circle",
    "regionname": "Western Region Coimbatore",
    "divisionname": "Coimbatore Division",
    "officename": "Tenkarai BO",
    "pincode": "641101",
    "officetype": "BO",
    "delivery": "Delivery",
    "district": "COIMBATORE",
    "statename": "TAMIL NADU",
    "latitude": "10.9479266",
    "longitude": "76.8452933"
  },
  {
    "circlename": "Tamilnadu Circle",
    "regionname": "Western Region Coimbatore",
    "divisionname": "Coimbatore Division",
    "officename": "Marudamalai BO",
    "pincode": "641046",
    "officetype": "BO",
    "delivery": "Non Delivery",
    "district": "COIMBATORE",
    "statename": "TAMIL NADU",
    "latitude": "11.0441250",
    "longitude": "76.8615166"
  },
  {
    "circlename": "Tamilnadu Circle",
    "regionname": "Western Region Coimbatore",
    "divisionname": "Coimbatore Division",
    "officename": "Gudalurcoimbatore BO",
    "pincode": "641047",
    "officetype": "BO",
    "delivery": "Delivery",
    "district": "COIMBATORE",
    "statename": "TAMIL NADU",
    "latitude": "11.1705650",
    "longitude": "76.9459083"
  },
  {
    "circlename": "Tamilnadu Circle",
    "regionname": "Western Region Coimbatore",
    "divisionname": "Coimbatore Division",
    "officename": "Samichettipalayam BO",
    "pincode": "641047",
    "officetype": "BO",
    "delivery": "Delivery",
    "district": "COIMBATORE",
    "statename": "TAMIL NADU",
    "latitude": "11.1637466",
    "longitude": "76.9366500"
  },
  {
    "circlename": "Tamilnadu Circle",
    "regionname": "Western Region Coimbatore",
    "divisionname": "Coimbatore Division",
    "officename": "Ishana Vihar BO",
    "pincode": "641114",
    "officetype": "BO",
    "delivery": "Delivery",
    "district": "COIMBATORE",
    "statename": "TAMIL NADU",
    "latitude": "10.9765466",
    "longitude": "76.7374116"
  },
  {
    "circlename": "Tamilnadu Circle",
    "regionname": "Western Region Coimbatore",
    "divisionname": "Coimbatore Division",
    "officename": "Sengalipalayam BO",
    "pincode": "641022",
    "officetype": "BO",
    "delivery": "Delivery",
    "district": "COIMBATORE",
    "statename": "TAMIL NADU",
    "latitude": "11.1018680",
    "longitude": "76.9537677"
  },
  {
    "circlename": "Tamilnadu Circle",
    "regionname": "Western Region Coimbatore",
    "divisionname": "Coimbatore Division",
    "officename": "Rakkipalayam BO",
    "pincode": "641031",
    "officetype": "BO",
    "delivery": "Delivery",
    "district": "COIMBATORE",
    "statename": "TAMIL NADU",
    "latitude": "11.1055299",
    "longitude": "76.9433600"
  },
  {
    "circlename": "Tamilnadu Circle",
    "regionname": "Western Region Coimbatore",
    "divisionname": "Coimbatore Division",
    "officename": "Sundakkamuthur BO",
    "pincode": "641010",
    "officetype": "BO",
    "delivery": "Delivery",
    "district": "COIMBATORE",
    "statename": "TAMIL NADU",
    "latitude": "10.9566233",
    "longitude": "76.9240400"
  },
  {
    "circlename": "Tamilnadu Circle",
    "regionname": "Western Region Coimbatore",
    "divisionname": "Coimbatore Division",
    "officename": "Anaikatti BO",
    "pincode": "641108",
    "officetype": "BO",
    "delivery": "Delivery",
    "district": "COIMBATORE",
    "statename": "TAMIL NADU",
    "latitude": "11.1076555",
    "longitude": "76.7702481"
  },
  {
    "circlename": "Tamilnadu Circle",
    "regionname": "Western Region Coimbatore",
    "divisionname": "Pollachi Division",
    "officename": "Athu Pollachi B.O",
    "pincode": "642103",
    "officetype": "BO",
    "delivery": "Delivery",
    "district": "COIMBATORE",
    "statename": "TAMIL NADU",
    "latitude": "NA",
    "longitude": "NA"
  },
  {
    "circlename": "Tamilnadu Circle",
    "regionname": "Western Region Coimbatore",
    "divisionname": "Pollachi Division",
    "officename": "Chinnakallar B.O",
    "pincode": "642106",
    "officetype": "BO",
    "delivery": "Delivery",
    "district": "COIMBATORE",
    "statename": "TAMIL NADU",
    "latitude": "NA",
    "longitude": "NA"
  },
  {
    "circlename": "Tamilnadu Circle",
    "regionname": "Western Region Coimbatore",
    "divisionname": "Pollachi Division",
    "officename": "Periya Kallar B.O",
    "pincode": "642106",
    "officetype": "BO",
    "delivery": "Delivery",
    "district": "COIMBATORE",
    "statename": "TAMIL NADU",
    "latitude": "10.6125500",
    "longitude": "76.9465000"
  },
  {
    "circlename": "Tamilnadu Circle",
    "regionname": "Western Region Coimbatore",
    "divisionname": "Pollachi Division",
    "officename": "Kattampatti B.O",
    "pincode": "642202",
    "officetype": "BO",
    "delivery": "Delivery",
    "district": "COIMBATORE",
    "statename": "TAMIL NADU",
    "latitude": "NA",
    "longitude": "NA"
  },
  {
    "circlename": "Tamilnadu Circle",
    "regionname": "Western Region Coimbatore",
    "divisionname": "Pollachi Division",
    "officename": "Vellamalai B.O",
    "pincode": "642130",
    "officetype": "BO",
    "delivery": "Delivery",
    "district": "COIMBATORE",
    "statename": "TAMIL NADU",
    "latitude": "10.6572837",
    "longitude": "77.0106593"
  },
  {
    "circlename": "Tamilnadu Circle",
    "regionname": "Western Region Coimbatore",
    "divisionname": "Pollachi Division",
    "officename": "Palarpathy B.O",
    "pincode": "642109",
    "officetype": "BO",
    "delivery": "Delivery",
    "district": "COIMBATORE",
    "statename": "TAMIL NADU",
    "latitude": "NA",
    "longitude": "NA"
  },
  {
    "circlename": "Tamilnadu Circle",
    "regionname": "Western Region Coimbatore",
    "divisionname": "Pollachi Division",
    "officename": "Sokkanur B.O",
    "pincode": "642109",
    "officetype": "BO",
    "delivery": "Delivery",
    "district": "COIMBATORE",
    "statename": "TAMIL NADU",
    "latitude": "NA",
    "longitude": "NA"
  },
  {
    "circlename": "Tamilnadu Circle",
    "regionname": "Western Region Coimbatore",
    "divisionname": "Pollachi Division",
    "officename": "Thamaraikulam B.O",
    "pincode": "642109",
    "officetype": "BO",
    "delivery": "Delivery",
    "district": "COIMBATORE",
    "statename": "TAMIL NADU",
    "latitude": "NA",
    "longitude": "NA"
  },
  {
    "circlename": "Tamilnadu Circle",
    "regionname": "Western Region Coimbatore",
    "divisionname": "Pollachi Division",
    "officename": "Poravipalayam B.O",
    "pincode": "642110",
    "officetype": "BO",
    "delivery": "Delivery",
    "district": "COIMBATORE",
    "statename": "TAMIL NADU",
    "latitude": "NA",
    "longitude": "NA"
  },
  {
    "circlename": "Tamilnadu Circle",
    "regionname": "Western Region Coimbatore",
    "divisionname": "Pollachi Division",
    "officename": "R.Ponnapuram B.O",
    "pincode": "642002",
    "officetype": "BO",
    "delivery": "Delivery",
    "district": "COIMBATORE",
    "statename": "TAMIL NADU",
    "latitude": "NA",
    "longitude": "NA"
  },
  {
    "circlename": "Tamilnadu Circle",
    "regionname": "Western Region Coimbatore",
    "divisionname": "Pollachi Division",
    "officename": "Pollachi West B.O",
    "pincode": "642001",
    "officetype": "BO",
    "delivery": "Non Delivery",
    "district": "COIMBATORE",
    "statename": "TAMIL NADU",
    "latitude": "10.6547000",
    "longitude": "77.0046000"
  },
  {
    "circlename": "Tamilnadu Circle",
    "regionname": "Western Region Coimbatore",
    "divisionname": "Pollachi Division",
    "officename": "Kappalankarai B.O",
    "pincode": "642120",
    "officetype": "BO",
    "delivery": "Delivery",
    "district": "COIMBATORE",
    "statename": "TAMIL NADU",
    "latitude": "NA",
    "longitude": "NA"
  },
  {
    "circlename": "Tamilnadu Circle",
    "regionname": "Western Region Coimbatore",
    "divisionname": "Pollachi Division",
    "officename": "Senguttaipalayam B.O",
    "pincode": "642120",
    "officetype": "BO",
    "delivery": "Delivery",
    "district": "COIMBATORE",
    "statename": "TAMIL NADU",
    "latitude": "NA",
    "longitude": "NA"
  },
  {
    "circlename": "Tamilnadu Circle",
    "regionname": "Western Region Coimbatore",
    "divisionname": "Pollachi Division",
    "officename": "Vellalapalayam B.O",
    "pincode": "642120",
    "officetype": "BO",
    "delivery": "Delivery",
    "district": "COIMBATORE",
    "statename": "TAMIL NADU",
    "latitude": "NA",
    "longitude": "NA"
  },
  {
    "circlename": "Tamilnadu Circle",
    "regionname": "Western Region Coimbatore",
    "divisionname": "Pollachi Division",
    "officename": "Thondamuthur B.O",
    "pincode": "642123",
    "officetype": "BO",
    "delivery": "Delivery",
    "district": "COIMBATORE",
    "statename": "TAMIL NADU",
    "latitude": "NA",
    "longitude": "NA"
  },
  {
    "circlename": "Tamilnadu Circle",
    "regionname": "Western Region Coimbatore",
    "divisionname": "Pollachi Division",
    "officename": "Murugali Bazaar B.O",
    "pincode": "642125",
    "officetype": "BO",
    "delivery": "Delivery",
    "district": "COIMBATORE",
    "statename": "TAMIL NADU",
    "latitude": "NA",
    "longitude": "NA"
  },
  {
    "circlename": "Tamilnadu Circle",
    "regionname": "Western Region Coimbatore",
    "divisionname": "Pollachi Division",
    "officename": "Ramanamudali Pudur B.O",
    "pincode": "642134",
    "officetype": "BO",
    "delivery": "Delivery",
    "district": "COIMBATORE",
    "statename": "TAMIL NADU",
    "latitude": "NA",
    "longitude": "NA"
  },
  {
    "circlename": "Tamilnadu Circle",
    "regionname": "Western Region Coimbatore",
    "divisionname": "Pollachi Division",
    "officename": "Kondampatti B.O",
    "pincode": "641202",
    "officetype": "BO",
    "delivery": "Delivery",
    "district": "COIMBATORE",
    "statename": "TAMIL NADU",
    "latitude": "NA",
    "longitude": "NA"
  },
  {
    "circlename": "Tamilnadu Circle",
    "regionname": "Western Region Coimbatore",
    "divisionname": "Pollachi Division",
    "officename": "Pannimade B.O",
    "pincode": "642127",
    "officetype": "BO",
    "delivery": "Delivery",
    "district": "COIMBATORE",
    "statename": "TAMIL NADU",
    "latitude": "NA",
    "longitude": "NA"
  },
  {
    "circlename": "Tamilnadu Circle",
    "regionname": "Western Region Coimbatore",
    "divisionname": "Pollachi Division",
    "officename": "Sholayar B.O",
    "pincode": "642127",
    "officetype": "BO",
    "delivery": "Delivery",
    "district": "COIMBATORE",
    "statename": "TAMIL NADU",
    "latitude": "NA",
    "longitude": "NA"
  },
  {
    "circlename": "Tamilnadu Circle",
    "regionname": "Western Region Coimbatore",
    "divisionname": "Pollachi Division",
    "officename": "Urulikkal B.O",
    "pincode": "642127",
    "officetype": "BO",
    "delivery": "Delivery",
    "district": "COIMBATORE",
    "statename": "TAMIL NADU",
    "latitude": "NA",
    "longitude": "NA"
  },
  {
    "circlename": "Tamilnadu Circle",
    "regionname": "Western Region Coimbatore",
    "divisionname": "Pollachi Division",
    "officename": "Kaliapuram B.O",
    "pincode": "642129",
    "officetype": "BO",
    "delivery": "Delivery",
    "district": "COIMBATORE",
    "statename": "TAMIL NADU",
    "latitude": "NA",
    "longitude": "NA"
  },
  {
    "circlename": "Tamilnadu Circle",
    "regionname": "Western Region Coimbatore",
    "divisionname": "Pollachi Division",
    "officename": "Pollachi H.O",
    "pincode": "642001",
    "officetype": "HO",
    "delivery": "Delivery",
    "district": "COIMBATORE",
    "statename": "TAMIL NADU",
    "latitude": "10.6595",
    "longitude": "77.0079"
  },
  {
    "circlename": "Tamilnadu Circle",
    "regionname": "Western Region Coimbatore",
    "divisionname": "Tirupur Division",
    "officename": "Mettupalayam HO",
    "pincode": "641301",
    "officetype": "HO",
    "delivery": "Delivery",
    "district": "COIMBATORE",
    "statename": "TAMIL NADU",
    "latitude": "11.2925556",
    "longitude": "76.9401667"
  },
  {
    "circlename": "Tamilnadu Circle",
    "regionname": "Western Region Coimbatore",
    "divisionname": "Coimbatore Division",
    "officename": "CBE MplCentral Busstand SO",
    "pincode": "641018",
    "officetype": "PO",
    "delivery": "Non Delivery",
    "district": "COIMBATORE",
    "statename": "TAMIL NADU",
    "latitude": "11.0020500",
    "longitude": "76.9649000"
  },
  {
    "circlename": "Tamilnadu Circle",
    "regionname": "Western Region Coimbatore",
    "divisionname": "Coimbatore Division",
    "officename": "Chinnavedampatti SO",
    "pincode": "641049",
    "officetype": "PO",
    "delivery": "Delivery",
    "district": "COIMBATORE",
    "statename": "TAMIL NADU",
    "latitude": "11.0611000",
    "longitude": "76.9852400"
  },
  {
    "circlename": "Tamilnadu Circle",
    "regionname": "Western Region Coimbatore",
    "divisionname": "Coimbatore Division",
    "officename": "Coimbatore Tidel Park SO",
    "pincode": "641014",
    "officetype": "PO",
    "delivery": "Non Delivery",
    "district": "COIMBATORE",
    "statename": "TAMIL NADU",
    "latitude": "11.0316200",
    "longitude": "77.0191200"
  },
  {
    "circlename": "Tamilnadu Circle",
    "regionname": "Western Region Coimbatore",
    "divisionname": "Coimbatore Division",
    "officename": "Commercial Tax Office Building SO",
    "pincode": "641018",
    "officetype": "PO",
    "delivery": "Non Delivery",
    "district": "COIMBATORE",
    "statename": "TAMIL NADU",
    "latitude": "11.0103000",
    "longitude": "76.9755380"
  },
  {
    "circlename": "Tamilnadu Circle",
    "regionname": "Western Region Coimbatore",
    "divisionname": "Coimbatore Division",
    "officename": "Ganapathy SO",
    "pincode": "641006",
    "officetype": "PO",
    "delivery": "Delivery",
    "district": "COIMBATORE",
    "statename": "TAMIL NADU",
    "latitude": "11.0330000",
    "longitude": "76.9787000"
  },
  {
    "circlename": "Tamilnadu Circle",
    "regionname": "Western Region Coimbatore",
    "divisionname": "Coimbatore Division",
    "officename": "Kuniamuthur SO",
    "pincode": "641008",
    "officetype": "PO",
    "delivery": "Delivery",
    "district": "COIMBATORE",
    "statename": "TAMIL NADU",
    "latitude": "10.9414000",
    "longitude": "76.9520100"
  },
  {
    "circlename": "Tamilnadu Circle",
    "regionname": "Western Region Coimbatore",
    "divisionname": "Coimbatore Division",
    "officename": "Peelamedu SO",
    "pincode": "641004",
    "officetype": "PO",
    "delivery": "Delivery",
    "district": "COIMBATORE",
    "statename": "TAMIL NADU",
    "latitude": "11.0142000",
    "longitude": "76.5948000"
  },
  {
    "circlename": "Tamilnadu Circle",
    "regionname": "Western Region Coimbatore",
    "divisionname": "Coimbatore Division",
    "officename": "Singanallur SO",
    "pincode": "641005",
    "officetype": "PO",
    "delivery": "Delivery",
    "district": "COIMBATORE",
    "statename": "TAMIL NADU",
    "latitude": "10.9998611",
    "longitude": "77.0308056"
  },
  {
    "circlename": "Tamilnadu Circle",
    "regionname": "Western Region Coimbatore",
    "divisionname": "Coimbatore Division",
    "officename": "Vellalore SO",
    "pincode": "641111",
    "officetype": "PO",
    "delivery": "Delivery",
    "district": "COIMBATORE",
    "statename": "TAMIL NADU",
    "latitude": "11.0060000",
    "longitude": "76.9689500"
  },
  {
    "circlename": "Tamilnadu Circle",
    "regionname": "Western Region Coimbatore",
    "divisionname": "Coimbatore Division",
    "officename": "Cheranmaanagar SO",
    "pincode": "641051",
    "officetype": "PO",
    "delivery": "Delivery",
    "district": "COIMBATORE",
    "statename": "TAMIL NADU",
    "latitude": "11.055437",
    "longitude": "77.016114"
  },
  {
    "circlename": "Tamilnadu Circle",
    "regionname": "Western Region Coimbatore",
    "divisionname": "Coimbatore Division",
    "officename": "Alandurai SO",
    "pincode": "641101",
    "officetype": "PO",
    "delivery": "Delivery",
    "district": "COIMBATORE",
    "statename": "TAMIL NADU",
    "latitude": "10.9535780",
    "longitude": "76.7884000"
  },
  {
    "circlename": "Tamilnadu Circle",
    "regionname": "Western Region Coimbatore",
    "divisionname": "Coimbatore Division",
    "officename": "Jothipuram SO",
    "pincode": "641047",
    "officetype": "PO",
    "delivery": "Delivery",
    "district": "COIMBATORE",
    "statename": "TAMIL NADU",
    "latitude": "11.1618770",
    "longitude": "76.9473150"
  },
  {
    "circlename": "Tamilnadu Circle",
    "regionname": "Western Region Coimbatore",
    "divisionname": "Coimbatore Division",
    "officename": "Kavundampalayam Colony SO",
    "pincode": "641030",
    "officetype": "PO",
    "delivery": "Delivery",
    "district": "COIMBATORE",
    "statename": "TAMIL NADU",
    "latitude": "11.0445190",
    "longitude": "76.9411200"
  },
  {
    "circlename": "Tamilnadu Circle",
    "regionname": "Western Region Coimbatore",
    "divisionname": "Coimbatore Division",
    "officename": "Komarapalayam Coimbatore SO",
    "pincode": "641026",
    "officetype": "PO",
    "delivery": "Delivery",
    "district": "COIMBATORE",
    "statename": "TAMIL NADU",
    "latitude": "10.9883000",
    "longitude": "76.9359000"
  },
  {
    "circlename": "Tamilnadu Circle",
    "regionname": "Western Region Coimbatore",
    "divisionname": "Coimbatore Division",
    "officename": "Periyanaickenpalayam SO",
    "pincode": "641020",
    "officetype": "PO",
    "delivery": "Non Delivery",
    "district": "COIMBATORE",
    "statename": "TAMIL NADU",
    "latitude": "11.1542700",
    "longitude": "76.9469100"
  },
  {
    "circlename": "Tamilnadu Circle",
    "regionname": "Western Region Coimbatore",
    "divisionname": "Coimbatore Division",
    "officename": "SBInstitute SO",
    "pincode": "641007",
    "officetype": "PO",
    "delivery": "Delivery",
    "district": "COIMBATORE",
    "statename": "TAMIL NADU",
    "latitude": "11.0064700",
    "longitude": "76.9161800"
  },
  {
    "circlename": "Tamilnadu Circle",
    "regionname": "Western Region Coimbatore",
    "divisionname": "Coimbatore Division",
    "officename": "Sahs College SO",
    "pincode": "641043",
    "officetype": "PO",
    "delivery": "Delivery",
    "district": "COIMBATORE",
    "statename": "TAMIL NADU",
    "latitude": "11.0198300",
    "longitude": "76.9516000"
  },
  {
    "circlename": "Tamilnadu Circle",
    "regionname": "Western Region Coimbatore",
    "divisionname": "Coimbatore Division",
    "officename": "Saibaba Mission SO",
    "pincode": "641011",
    "officetype": "PO",
    "delivery": "Delivery",
    "district": "COIMBATORE",
    "statename": "TAMIL NADU",
    "latitude": "11.0262440",
    "longitude": "76.9473500"
  },
  {
    "circlename": "Tamilnadu Circle",
    "regionname": "Western Region Coimbatore",
    "divisionname": "Coimbatore Division",
    "officename": "Vadamadurai Kurudampalayam SO",
    "pincode": "641017",
    "officetype": "PO",
    "delivery": "Delivery",
    "district": "COIMBATORE",
    "statename": "TAMIL NADU",
    "latitude": "11.0847700",
    "longitude": "76.9381800"
  },
  {
    "circlename": "Tamilnadu Circle",
    "regionname": "Western Region Coimbatore",
    "divisionname": "Coimbatore Division",
    "officename": "Velandipalayam SO",
    "pincode": "641025",
    "officetype": "PO",
    "delivery": "Delivery",
    "district": "COIMBATORE",
    "statename": "TAMIL NADU",
    "latitude": "11.0350120",
    "longitude": "76.9334000"
  },
  {
    "circlename": "Tamilnadu Circle",
    "regionname": "Western Region Coimbatore",
    "divisionname": "Pollachi Division",
    "officename": "Aliyar Nagar S.O",
    "pincode": "642101",
    "officetype": "PO",
    "delivery": "Delivery",
    "district": "COIMBATORE",
    "statename": "TAMIL NADU",
    "latitude": "10.4863",
    "longitude": "76.9669"
  },
  {
    "circlename": "Tamilnadu Circle",
    "regionname": "Western Region Coimbatore",
    "divisionname": "Pollachi Division",
    "officename": "Mahalinga Puram S.O",
    "pincode": "642002",
    "officetype": "PO",
    "delivery": "Delivery",
    "district": "COIMBATORE",
    "statename": "TAMIL NADU",
    "latitude": "10.6693",
    "longitude": "77.0125"
  },
  {
    "circlename": "Tamilnadu Circle",
    "regionname": "Western Region Coimbatore",
    "divisionname": "Pollachi Division",
    "officename": "Samathur S.O",
    "pincode": "642123",
    "officetype": "PO",
    "delivery": "Delivery",
    "district": "COIMBATORE",
    "statename": "TAMIL NADU",
    "latitude": "10.6010",
    "longitude": "77.0149"
  },
  {
    "circlename": "Tamilnadu Circle",
    "regionname": "Western Region Coimbatore",
    "divisionname": "Pollachi Division",
    "officename": "Sethumadai S.O",
    "pincode": "642133",
    "officetype": "PO",
    "delivery": "Delivery",
    "district": "COIMBATORE",
    "statename": "TAMIL NADU",
    "latitude": "10.5128",
    "longitude": "76.8823"
  },
  {
    "circlename": "Tamilnadu Circle",
    "regionname": "Western Region Coimbatore",
    "divisionname": "Pollachi Division",
    "officename": "Valparai S.O",
    "pincode": "642127",
    "officetype": "PO",
    "delivery": "Delivery",
    "district": "COIMBATORE",
    "statename": "TAMIL NADU",
    "latitude": "10.3294",
    "longitude": "76.9567"
  },
  {
    "circlename": "Tamilnadu Circle",
    "regionname": "Western Region Coimbatore",
    "divisionname": "Pollachi Division",
    "officename": "Vettaikaran Pudur S.O",
    "pincode": "642129",
    "officetype": "PO",
    "delivery": "Delivery",
    "district": "COIMBATORE",
    "statename": "TAMIL NADU",
    "latitude": "10.5657",
    "longitude": "76.9205"
  },
  {
    "circlename": "Tamilnadu Circle",
    "regionname": "Western Region Coimbatore",
    "divisionname": "Pollachi Division",
    "officename": "Malayandipattinam S.O",
    "pincode": "642114",
    "officetype": "PO",
    "delivery": "Delivery",
    "district": "COIMBATORE",
    "statename": "TAMIL NADU",
    "latitude": "10.5407",
    "longitude": "76.9833"
  },
  {
    "circlename": "Tamilnadu Circle",
    "regionname": "Western Region Coimbatore",
    "divisionname": "Tirupur Division",
    "officename": "Annur SO",
    "pincode": "641653",
    "officetype": "PO",
    "delivery": "Delivery",
    "district": "COIMBATORE",
    "statename": "TAMIL NADU",
    "latitude": "11.2318889",
    "longitude": "77.1050556"
  },
  {
    "circlename": "Tamilnadu Circle",
    "regionname": "Western Region Coimbatore",
    "divisionname": "Tirupur Division",
    "officename": "Irugur SO",
    "pincode": "641103",
    "officetype": "PO",
    "delivery": "Delivery",
    "district": "COIMBATORE",
    "statename": "TAMIL NADU",
    "latitude": "11.0170190",
    "longitude": "77.0664390"
  },
  {
    "circlename": "Tamilnadu Circle",
    "regionname": "Western Region Coimbatore",
    "divisionname": "Tirupur Division",
    "officename": "Kangayampalayam SO",
    "pincode": "641401",
    "officetype": "PO",
    "delivery": "Delivery",
    "district": "COIMBATORE",
    "statename": "TAMIL NADU",
    "latitude": "11.0252340",
    "longitude": "77.1535220"
  },
  {
    "circlename": "Tamilnadu Circle",
    "regionname": "Western Region Coimbatore",
    "divisionname": "Tirupur Division",
    "officename": "Karumathampatti SO",
    "pincode": "641659",
    "officetype": "PO",
    "delivery": "Delivery",
    "district": "COIMBATORE",
    "statename": "TAMIL NADU",
    "latitude": "11.1094450",
    "longitude": "77.1810950"
  },
  {
    "circlename": "Tamilnadu Circle",
    "regionname": "Western Region Coimbatore",
    "divisionname": "Tirupur Division",
    "officename": "Sirumugai SO",
    "pincode": "641302",
    "officetype": "PO",
    "delivery": "Delivery",
    "district": "COIMBATORE",
    "statename": "TAMIL NADU",
    "latitude": "11.3225210",
    "longitude": "77.0088611"
  },
  {
    "circlename": "Tamilnadu Circle",
    "regionname": "Western Region Coimbatore",
    "divisionname": "Coimbatore Division",
    "officename": "Kallapalayam BO",
    "pincode": "641201",
    "officetype": "BO",
    "delivery": "Delivery",
    "district": "COIMBATORE",
    "statename": "TAMIL NADU",
    "latitude": "11.0564597",
    "longitude": "77.0672483"
  },
  {
    "circlename": "Tamilnadu Circle",
    "regionname": "Western Region Coimbatore",
    "divisionname": "Coimbatore Division",
    "officename": "Vellanaipatti BO",
    "pincode": "641048",
    "officetype": "BO",
    "delivery": "Delivery",
    "district": "COIMBATORE",
    "statename": "TAMIL NADU",
    "latitude": "11.0968659",
    "longitude": "77.0704878"
  },
  {
    "circlename": "Tamilnadu Circle",
    "regionname": "Western Region Coimbatore",
    "divisionname": "Coimbatore Division",
    "officename": "Sinnanavakkarai BO",
    "pincode": "641105",
    "officetype": "BO",
    "delivery": "Delivery",
    "district": "COIMBATORE",
    "statename": "TAMIL NADU",
    "latitude": "10.8661266",
    "longitude": "76.8777883"
  },
  {
    "circlename": "Tamilnadu Circle",
    "regionname": "Western Region Coimbatore",
    "divisionname": "Coimbatore Division",
    "officename": "Thirumalayampalayam BO",
    "pincode": "641105",
    "officetype": "BO",
    "delivery": "Delivery",
    "district": "COIMBATORE",
    "statename": "TAMIL NADU",
    "latitude": "10.8797050",
    "longitude": "76.9286900"
  },
  {
    "circlename": "Tamilnadu Circle",
    "regionname": "Western Region Coimbatore",
    "divisionname": "Coimbatore Division",
    "officename": "Edayapalayam BO",
    "pincode": "641016",
    "officetype": "BO",
    "delivery": "Delivery",
    "district": "COIMBATORE",
    "statename": "TAMIL NADU",
    "latitude": "11.0403171",
    "longitude": "76.9240969"
  },
  {
    "circlename": "Tamilnadu Circle",
    "regionname": "Western Region Coimbatore",
    "divisionname": "Coimbatore Division",
    "officename": "Arisipalayam BO",
    "pincode": "641032",
    "officetype": "BO",
    "delivery": "Delivery",
    "district": "COIMBATORE",
    "statename": "TAMIL NADU",
    "latitude": "10.8679000",
    "longitude": "76.9746900"
  },
  {
    "circlename": "Tamilnadu Circle",
    "regionname": "Western Region Coimbatore",
    "divisionname": "Coimbatore Division",
    "officename": "Konavaikalpalayam BO",
    "pincode": "641023",
    "officetype": "BO",
    "delivery": "Non Delivery",
    "district": "COIMBATORE",
    "statename": "TAMIL NADU",
    "latitude": "10.9646000",
    "longitude": "77.0006066"
  },
  {
    "circlename": "Tamilnadu Circle",
    "regionname": "Western Region Coimbatore",
    "divisionname": "Coimbatore Division",
    "officename": "Vilankurichi BO",
    "pincode": "641035",
    "officetype": "BO",
    "delivery": "Delivery",
    "district": "COIMBATORE",
    "statename": "TAMIL NADU",
    "latitude": "10.9807583",
    "longitude": "76.7917216"
  },
  {
    "circlename": "Tamilnadu Circle",
    "regionname": "Western Region Coimbatore",
    "divisionname": "Coimbatore Division",
    "officename": "Ganesapuram BO",
    "pincode": "641107",
    "officetype": "BO",
    "delivery": "Delivery",
    "district": "COIMBATORE",
    "statename": "TAMIL NADU",
    "latitude": "11.1741064",
    "longitude": "77.0569639"
  },
  {
    "circlename": "Tamilnadu Circle",
    "regionname": "Western Region Coimbatore",
    "divisionname": "Coimbatore Division",
    "officename": "Masagoundenchettipalayam BO",
    "pincode": "641107",
    "officetype": "BO",
    "delivery": "Delivery",
    "district": "COIMBATORE",
    "statename": "TAMIL NADU",
    "latitude": "11.1482710",
    "longitude": "77.0760267"
  },
  {
    "circlename": "Tamilnadu Circle",
    "regionname": "Western Region Coimbatore",
    "divisionname": "Coimbatore Division",
    "officename": "Ponnegoundenpudur BO",
    "pincode": "641107",
    "officetype": "BO",
    "delivery": "Delivery",
    "district": "COIMBATORE",
    "statename": "TAMIL NADU",
    "latitude": "11.1527858",
    "longitude": "77.0933369"
  },
  {
    "circlename": "Tamilnadu Circle",
    "regionname": "Western Region Coimbatore",
    "divisionname": "Coimbatore Division",
    "officename": "Oraikkalpalayam BO",
    "pincode": "641107",
    "officetype": "BO",
    "delivery": "Delivery",
    "district": "COIMBATORE",
    "statename": "TAMIL NADU",
    "latitude": "11.1572870",
    "longitude": "77.0658300"
  },
  {
    "circlename": "Tamilnadu Circle",
    "regionname": "Western Region Coimbatore",
    "divisionname": "Coimbatore Division",
    "officename": "Venkitapuram BO",
    "pincode": "641062",
    "officetype": "BO",
    "delivery": "Delivery",
    "district": "COIMBATORE",
    "statename": "TAMIL NADU",
    "latitude": "11.0532816",
    "longitude": "77.0724216"
  },
  {
    "circlename": "Tamilnadu Circle",
    "regionname": "Western Region Coimbatore",
    "divisionname": "Coimbatore Division",
    "officename": "Odayampalayam BO",
    "pincode": "641028",
    "officetype": "BO",
    "delivery": "Non Delivery",
    "district": "COIMBATORE",
    "statename": "TAMIL NADU",
    "latitude": "11.0114731",
    "longitude": "77.0022409"
  },
  {
    "circlename": "Tamilnadu Circle",
    "regionname": "Western Region Coimbatore",
    "divisionname": "Coimbatore Division",
    "officename": "Vellamadai BO",
    "pincode": "641110",
    "officetype": "BO",
    "delivery": "Delivery",
    "district": "COIMBATORE",
    "statename": "TAMIL NADU",
    "latitude": "11.1622341",
    "longitude": "76.9962637"
  },
  {
    "circlename": "Tamilnadu Circle",
    "regionname": "Western Region Coimbatore",
    "divisionname": "Coimbatore Division",
    "officename": "Bilichi BO",
    "pincode": "641019",
    "officetype": "BO",
    "delivery": "Delivery",
    "district": "COIMBATORE",
    "statename": "TAMIL NADU",
    "latitude": "11.1969066",
    "longitude": "76.9604066"
  },
  {
    "circlename": "Tamilnadu Circle",
    "regionname": "Western Region Coimbatore",
    "divisionname": "Coimbatore Division",
    "officename": "Veerapandi Periyanaickenpalaya BO",
    "pincode": "641019",
    "officetype": "BO",
    "delivery": "Delivery",
    "district": "COIMBATORE",
    "statename": "TAMIL NADU",
    "latitude": "11.1778467",
    "longitude": "76.9603959"
  },
  {
    "circlename": "Tamilnadu Circle",
    "regionname": "Western Region Coimbatore",
    "divisionname": "Coimbatore Division",
    "officename": "Vellakinar BO",
    "pincode": "641029",
    "officetype": "BO",
    "delivery": "Delivery",
    "district": "COIMBATORE",
    "statename": "TAMIL NADU",
    "latitude": "11.0739349",
    "longitude": "76.9546833"
  },
  {
    "circlename": "Tamilnadu Circle",
    "regionname": "Western Region Coimbatore",
    "divisionname": "Coimbatore Division",
    "officename": "Kalampalayam BO",
    "pincode": "641010",
    "officetype": "BO",
    "delivery": "Delivery",
    "district": "COIMBATORE",
    "statename": "TAMIL NADU",
    "latitude": "10.9807583",
    "longitude": "76.7917216"
  },
  {
    "circlename": "Tamilnadu Circle",
    "regionname": "Western Region Coimbatore",
    "divisionname": "Coimbatore Division",
    "officename": "Tekkupalayam BO",
    "pincode": "641020",
    "officetype": "BO",
    "delivery": "Non Delivery",
    "district": "COIMBATORE",
    "statename": "TAMIL NADU",
    "latitude": "11.1337366",
    "longitude": "76.9341300"
  },
  {
    "circlename": "Tamilnadu Circle",
    "regionname": "Western Region Coimbatore",
    "divisionname": "Coimbatore Division",
    "officename": "Nanjundapuramtadagam BO",
    "pincode": "641108",
    "officetype": "BO",
    "delivery": "Delivery",
    "district": "COIMBATORE",
    "statename": "TAMIL NADU",
    "latitude": "11.0699833",
    "longitude": "76.8819300"
  },
  {
    "circlename": "Tamilnadu Circle",
    "regionname": "Western Region Coimbatore",
    "divisionname": "Coimbatore Division",
    "officename": "Veerapanditadagam BO",
    "pincode": "641108",
    "officetype": "BO",
    "delivery": "Delivery",
    "district": "COIMBATORE",
    "statename": "TAMIL NADU",
    "latitude": "11.0820399",
    "longitude": "76.8486033"
  },
  {
    "circlename": "Tamilnadu Circle",
    "regionname": "Western Region Coimbatore",
    "divisionname": "Coimbatore Division",
    "officename": "Anaikatti North R.F B.O",
    "pincode": "641108",
    "officetype": "BO",
    "delivery": "Delivery",
    "district": "COIMBATORE",
    "statename": "TAMIL NADU",
    "latitude": "11.119493",
    "longitude": "76.787790999999999"
  },
  {
    "circlename": "Tamilnadu Circle",
    "regionname": "Western Region Coimbatore",
    "divisionname": "Coimbatore Division",
    "officename": "Thennamanallur BO",
    "pincode": "641109",
    "officetype": "BO",
    "delivery": "Delivery",
    "district": "COIMBATORE",
    "statename": "TAMIL NADU",
    "latitude": "10.9741416",
    "longitude": "76.8157833"
  },