[
  {
    "circlename": "Tamilnadu Circle",
    "regionname": "Central Region Trichirapalli",
    "divisionname": "Vriddhachalam Division",
    "officename": "Koothakudi B.O",
    "pincode": "606305",
    "officetype": "BO",
    "delivery": "Delivery",
    "district": "KALLAKURICHI",
    "statename": "TAMIL NADU",
    "latitude": "11.6100000",
    "longitude": "79.1300000"
  },
  {
    "circlename": "Tamilnadu Circle",
    "regionname": "Central Region Trichirapalli",
    "divisionname": "Vriddhachalam Division",
    "officename": "Ninnaiyur B.O",
    "pincode": "606305",
    "officetype": "BO",
    "delivery": "Delivery",
    "district": "KALLAKURICHI",
    "statename": "TAMIL NADU",
    "latitude": "11.6600000",
    "longitude": "79.1500000"
  },
  {
    "circlename": "Tamilnadu Circle",
    "regionname": "Central Region Trichirapalli",
    "divisionname": "Vriddhachalam Division",
    "officename": "Ammaiagaram B.O",
    "pincode": "606201",
    "officetype": "BO",
    "delivery": "Delivery",
    "district": "KALLAKURICHI",
    "statename": "TAMIL NADU",
    "latitude": "11.6200000",
    "longitude": "78.8500000"
  },
  {
    "circlename": "Tamilnadu Circle",
    "regionname": "Central Region Trichirapalli",
    "divisionname": "Vriddhachalam Division",
    "officename": "Dagamtheerthapuram B.O",
    "pincode": "606201",
    "officetype": "BO",
    "delivery": "Delivery",
    "district": "KALLAKURICHI",
    "statename": "TAMIL NADU",
    "latitude": "11.6000000",
    "longitude": "78.8400000"
  },
  {
    "circlename": "Tamilnadu Circle",
    "regionname": "Central Region Trichirapalli",
    "divisionname": "Vriddhachalam Division",
    "officename": "Kaniyamur B.O",
    "pincode": "606201",
    "officetype": "BO",
    "delivery": "Delivery",
    "district": "KALLAKURICHI",
    "statename": "TAMIL NADU",
    "latitude": "11.6500000",
    "longitude": "78.9200000"
  },
  {
    "circlename": "Tamilnadu Circle",
    "regionname": "Central Region Trichirapalli",
    "divisionname": "Vriddhachalam Division",
    "officename": "Melur B.O",
    "pincode": "606201",
    "officetype": "BO",
    "delivery": "Delivery",
    "district": "KALLAKURICHI",
    "statename": "TAMIL NADU",
    "latitude": "11.6600000",
    "longitude": "78.9400000"
  },
  {
    "circlename": "Tamilnadu Circle",
    "regionname": "Central Region Trichirapalli",
    "divisionname": "Vriddhachalam Division",
    "officename": "Paithanthurai B.O",
    "pincode": "606201",
    "officetype": "BO",
    "delivery": "Delivery",
    "district": "KALLAKURICHI",
    "statename": "TAMIL NADU",
    "latitude": "11.7000000",
    "longitude": "78.8700000"
  },
  {
    "circlename": "Tamilnadu Circle",
    "regionname": "Central Region Trichirapalli",
    "divisionname": "Vriddhachalam Division",
    "officename": "Periyakurukkai B.O",
    "pincode": "607201",
    "officetype": "BO",
    "delivery": "Delivery",
    "district": "KALLAKURICHI",
    "statename": "TAMIL NADU",
    "latitude": "11.8200000",
    "longitude": "79.2100000"
  },
  {
    "circlename": "Tamilnadu Circle",
    "regionname": "Central Region Trichirapalli",
    "divisionname": "Vriddhachalam Division",
    "officename": "Kuvagam B.O",
    "pincode": "606102",
    "officetype": "BO",
    "delivery": "Delivery",
    "district": "KALLAKURICHI",
    "statename": "TAMIL NADU",
    "latitude": "11.8100000",
    "longitude": "79.3400000"
  },
  {
    "circlename": "Tamilnadu Circle",
    "regionname": "Central Region Trichirapalli",
    "divisionname": "Vriddhachalam Division",
    "officename": "Ma kunnathur B.O",
    "pincode": "606102",
    "officetype": "BO",
    "delivery": "Delivery",
    "district": "KALLAKURICHI",
    "statename": "TAMIL NADU",
    "latitude": "11.8300000",
    "longitude": "79.2800000"
  },
  {
    "circlename": "Tamilnadu Circle",
    "regionname": "Central Region Trichirapalli",
    "divisionname": "Vriddhachalam Division",
    "officename": "Orathur B.O",
    "pincode": "606102",
    "officetype": "BO",
    "delivery": "Delivery",
    "district": "KALLAKURICHI",
    "statename": "TAMIL NADU",
    "latitude": "12.0000000",
    "longitude": "79.5000000"
  },
  {
    "circlename": "Tamilnadu Circle",
    "regionname": "Central Region Trichirapalli",
    "divisionname": "Vriddhachalam Division",
    "officename": "Pandur B.O",
    "pincode": "606102",
    "officetype": "BO",
    "delivery": "Delivery",
    "district": "KALLAKURICHI",
    "statename": "TAMIL NADU",
    "latitude": "11.7300000",
    "longitude": "79.2900000"
  },
  {
    "circlename": "Tamilnadu Circle",
    "regionname": "Central Region Trichirapalli",
    "divisionname": "Vriddhachalam Division",
    "officename": "Nathamur B.O",
    "pincode": "606102",
    "officetype": "BO",
    "delivery": "Delivery",
    "district": "KALLAKURICHI",
    "statename": "TAMIL NADU",
    "latitude": "11.8400000",
    "longitude": "79.2300000"
  },
  {
    "circlename": "Tamilnadu Circle",
    "regionname": "Central Region Trichirapalli",
    "divisionname": "Vriddhachalam Division",
    "officename": "K.Alambalam B.O",
    "pincode": "606213",
    "officetype": "BO",
    "delivery": "Delivery",
    "district": "KALLAKURICHI",
    "statename": "TAMIL NADU",
    "latitude": "11.7800000",
    "longitude": "78.9200000"
  },
  {
    "circlename": "Tamilnadu Circle",
    "regionname": "Central Region Trichirapalli",
    "divisionname": "Vriddhachalam Division",
    "officename": "Neelamangalam B.O",
    "pincode": "606213",
    "officetype": "BO",
    "delivery": "Delivery",
    "district": "KALLAKURICHI",
    "statename": "TAMIL NADU",
    "latitude": "11.7200000",
    "longitude": "79.0000000"
  },
  {
    "circlename": "Tamilnadu Circle",
    "regionname": "Central Region Trichirapalli",
    "divisionname": "Vriddhachalam Division",
    "officename": "Olagankathan B.O",
    "pincode": "606213",
    "officetype": "BO",
    "delivery": "Delivery",
    "district": "KALLAKURICHI",
    "statename": "TAMIL NADU",
    "latitude": "11.7000000",
    "longitude": "78.9300000"
  },
  {
    "circlename": "Tamilnadu Circle",
    "regionname": "Central Region Trichirapalli",
    "divisionname": "Vriddhachalam Division",
    "officename": "Siruvangur B.O",
    "pincode": "606213",
    "officetype": "BO",
    "delivery": "Delivery",
    "district": "KALLAKURICHI",
    "statename": "TAMIL NADU",
    "latitude": "11.7500000",
    "longitude": "78.9800000"
  },
  {
    "circlename": "Tamilnadu Circle",
    "regionname": "Central Region Trichirapalli",
    "divisionname": "Vriddhachalam Division",
    "officename": "Somandargudi B.O",
    "pincode": "606213",
    "officetype": "BO",
    "delivery": "Delivery",
    "district": "KALLAKURICHI",
    "statename": "TAMIL NADU",
    "latitude": "11.7600000",
    "longitude": "78.9300000"
  },
  {
    "circlename": "Tamilnadu Circle",
    "regionname": "Central Region Trichirapalli",
    "divisionname": "Vriddhachalam Division",
    "officename": "Brammakundam B.O",
    "pincode": "605702",
    "officetype": "BO",
    "delivery": "Delivery",
    "district": "KALLAKURICHI",
    "statename": "TAMIL NADU",
    "latitude": "11.9900000",
    "longitude": "78.9300000"
  },
  {
    "circlename": "Tamilnadu Circle",
    "regionname": "Central Region Trichirapalli",
    "divisionname": "Vriddhachalam Division",
    "officename": "Alathur B.O",
    "pincode": "606208",
    "officetype": "BO",
    "delivery": "Delivery",
    "district": "KALLAKURICHI",
    "statename": "TAMIL NADU",
    "latitude": "11.8000000",
    "longitude": "78.9400000"
  },
  {
    "circlename": "Tamilnadu Circle",
    "regionname": "Central Region Trichirapalli",
    "divisionname": "Vriddhachalam Division",
    "officename": "Manjaputhur B.O",
    "pincode": "606208",
    "officetype": "BO",
    "delivery": "Delivery",
    "district": "KALLAKURICHI",
    "statename": "TAMIL NADU",
    "latitude": "11.8600000",
    "longitude": "78.9500000"
  },
  {
    "circlename": "Tamilnadu Circle",
    "regionname": "Central Region Trichirapalli",
    "divisionname": "Vriddhachalam Division",
    "officename": "Kongarayapalayam B.O",
    "pincode": "606203",
    "officetype": "BO",
    "delivery": "Delivery",
    "district": "KALLAKURICHI",
    "statename": "TAMIL NADU",
    "latitude": "11.6500000",
    "longitude": "79.1000000"
  },
  {
    "circlename": "Tamilnadu Circle",
    "regionname": "Central Region Trichirapalli",
    "divisionname": "Vriddhachalam Division",
    "officename": "Porasakurichi B.O",
    "pincode": "606203",
    "officetype": "BO",
    "delivery": "Delivery",
    "district": "KALLAKURICHI",
    "statename": "TAMIL NADU",
    "latitude": "11.6700000",
    "longitude": "79.0400000"
  },
  {
    "circlename": "Tamilnadu Circle",
    "regionname": "Central Region Trichirapalli",
    "divisionname": "Vriddhachalam Division",
    "officename": "Varanjaram B.O",
    "pincode": "606203",
    "officetype": "BO",
    "delivery": "Delivery",
    "district": "KALLAKURICHI",
    "statename": "TAMIL NADU",
    "latitude": "11.6400000",
    "longitude": "79.0800000"
  },
  {
    "circlename": "Tamilnadu Circle",
    "regionname": "Central Region Trichirapalli",
    "divisionname": "Vriddhachalam Division",
    "officename": "Virugavur B.O",
    "pincode": "606203",
    "officetype": "BO",
    "delivery": "Delivery",
    "district": "KALLAKURICHI",
    "statename": "TAMIL NADU",
    "latitude": "11.6900000",
    "longitude": "79.0500000"
  },
  {
    "circlename": "Tamilnadu Circle",
    "regionname": "Central Region Trichirapalli",
    "divisionname": "Vriddhachalam Division",
    "officename": "Rangappanur B.O",
    "pincode": "606402",
    "officetype": "BO",
    "delivery": "Delivery",
    "district": "KALLAKURICHI",
    "statename": "TAMIL NADU",
    "latitude": "11.9700000",
    "longitude": "78.7900000"
  },
  {
    "circlename": "Tamilnadu Circle",
    "regionname": "Central Region Trichirapalli",
    "divisionname": "Vriddhachalam Division",
    "officename": "S.Kolathur B.O",
    "pincode": "606402",
    "officetype": "BO",
    "delivery": "Delivery",
    "district": "KALLAKURICHI",
    "statename": "TAMIL NADU",
    "latitude": "11.8800000",
    "longitude": "78.9100000"
  },
  {
    "circlename": "Tamilnadu Circle",
    "regionname": "Central Region Trichirapalli",
    "divisionname": "Vriddhachalam Division",
    "officename": "Viriyur B.O",
    "pincode": "606402",
    "officetype": "BO",
    "delivery": "Delivery",
    "district": "KALLAKURICHI",
    "statename": "TAMIL NADU",
    "latitude": "11.8900000",
    "longitude": "78.9600000"
  },
  {
    "circlename": "Tamilnadu Circle",
    "regionname": "Central Region Trichirapalli",
    "divisionname": "Vriddhachalam Division",
    "officename": "Eyyanur B.O",
    "pincode": "606204",
    "officetype": "BO",
    "delivery": "Delivery",
    "district": "KALLAKURICHI",
    "statename": "TAMIL NADU",
    "latitude": "11.6200000",
    "longitude": "79.0600000"
  },
  {
    "circlename": "Tamilnadu Circle",
    "regionname": "Central Region Trichirapalli",
    "divisionname": "Vriddhachalam Division",
    "officename": "Sathaputhur B.O",
    "pincode": "606205",
    "officetype": "BO",
    "delivery": "Delivery",
    "district": "KALLAKURICHI",
    "statename": "TAMIL NADU",
    "latitude": "11.8300000",
    "longitude": "79.0500000"
  },
  {
    "circlename": "Tamilnadu Circle",
    "regionname": "Central Region Trichirapalli",
    "divisionname": "Vriddhachalam Division",
    "officename": "Arasampattu B.O",
    "pincode": "606401",
    "officetype": "BO",
    "delivery": "Delivery",
    "district": "KALLAKURICHI",
    "statename": "TAMIL NADU",
    "latitude": "11.8900000",
    "longitude": "78.8600000"
  },
  {
    "circlename": "Tamilnadu Circle",
    "regionname": "Central Region Trichirapalli",
    "divisionname": "Vriddhachalam Division",
    "officename": "Kilakkadu B.O",
    "pincode": "606401",
    "officetype": "BO",
    "delivery": "Delivery",
    "district": "KALLAKURICHI",
    "statename": "TAMIL NADU",
    "latitude": "11.9500000",
    "longitude": "78.7500000"
  },
  {
    "circlename": "Tamilnadu Circle",
    "regionname": "Central Region Trichirapalli",
    "divisionname": "Vriddhachalam Division",
    "officename": "Mottampatti B.O",
    "pincode": "606401",
    "officetype": "BO",
    "delivery": "Delivery",
    "district": "KALLAKURICHI",
    "statename": "TAMIL NADU",
    "latitude": "11.9200000",
    "longitude": "78.7800000"
  },
  {
    "circlename": "Tamilnadu Circle",
    "regionname": "Central Region Trichirapalli",
    "divisionname": "Vriddhachalam Division",
    "officename": "Serapattu B.O",
    "pincode": "606401",
    "officetype": "BO",
    "delivery": "Delivery",
    "district": "KALLAKURICHI",
    "statename": "TAMIL NADU",
    "latitude": "11.9700000",
    "longitude": "78.7800000"
  },
  {
    "circlename": "Tamilnadu Circle",
    "regionname": "Central Region Trichirapalli",
    "divisionname": "Vriddhachalam Division",
    "officename": "Vanjikuli B.O",
    "pincode": "606401",
    "officetype": "BO",
    "delivery": "Delivery",
    "district": "KALLAKURICHI",
    "statename": "TAMIL NADU",
    "latitude": "11.9600000",
    "longitude": "78.8100000"
  },
  {
    "circlename": "Tamilnadu Circle",
    "regionname": "Central Region Trichirapalli",
    "divisionname": "Vriddhachalam Division",
    "officename": "Vengodu B.O",
    "pincode": "606401",
    "officetype": "BO",
    "delivery": "Delivery",
    "district": "KALLAKURICHI",
    "statename": "TAMIL NADU",
    "latitude": "11.8800000",
    "longitude": "78.7300000"
  },
  {
    "circlename": "Tamilnadu Circle",
    "regionname": "Central Region Trichirapalli",
    "divisionname": "Vriddhachalam Division",
    "officename": "Sithalur B.O",
    "pincode": "606206",
    "officetype": "BO",
    "delivery": "Delivery",
    "district": "KALLAKURICHI",
    "statename": "TAMIL NADU",
    "latitude": "11.6900000",
    "longitude": "79.0800000"
  },
  {
    "circlename": "Tamilnadu Circle",
    "regionname": "Central Region Trichirapalli",
    "divisionname": "Vriddhachalam Division",
    "officename": "Moolasamudram B.O",
    "pincode": "606107",
    "officetype": "BO",
    "delivery": "Delivery",
    "district": "KALLAKURICHI",
    "statename": "TAMIL NADU",
    "latitude": "11.7100000",
    "longitude": "79.2700000"
  },
  {
    "circlename": "Tamilnadu Circle",
    "regionname": "Central Region Trichirapalli",
    "divisionname": "Vriddhachalam Division",
    "officename": "Karadichittur B.O",
    "pincode": "606207",
    "officetype": "BO",
    "delivery": "Delivery",
    "district": "KALLAKURICHI",
    "statename": "TAMIL NADU",
    "latitude": "11.8300000",
    "longitude": "78.8700000"
  },
  {
    "circlename": "Tamilnadu Circle",
    "regionname": "Central Region Trichirapalli",
    "divisionname": "Vriddhachalam Division",
    "officename": "Nochimedu B.O",
    "pincode": "606209",
    "officetype": "BO",
    "delivery": "Delivery",
    "district": "KALLAKURICHI",
    "statename": "TAMIL NADU",
    "latitude": "11.8300000",
    "longitude": "78.7400000"
  },
  {
    "circlename": "Tamilnadu Circle",
    "regionname": "Central Region Trichirapalli",
    "divisionname": "Vriddhachalam Division",
    "officename": "Vazhapadi B.O",
    "pincode": "606209",
    "officetype": "BO",
    "delivery": "Delivery",
    "district": "KALLAKURICHI",
    "statename": "TAMIL NADU",
    "latitude": "11.7900000",
    "longitude": "78.7300000"
  },
  {
    "circlename": "Tamilnadu Circle",
    "regionname": "Central Region Trichirapalli",
    "divisionname": "Vriddhachalam Division",
    "officename": "Cholavandipuram B.O",
    "pincode": "605751",
    "officetype": "BO",
    "delivery": "Delivery",
    "district": "KALLAKURICHI",
    "statename": "TAMIL NADU",
    "latitude": "11.8700000",
    "longitude": "79.1200000"
  },
  {
    "circlename": "Tamilnadu Circle",
    "regionname": "Central Region Trichirapalli",
    "divisionname": "Vriddhachalam Division",
    "officename": "Sirpanandal B.O",
    "pincode": "605802",
    "officetype": "BO",
    "delivery": "Delivery",
    "district": "KALLAKURICHI",
    "statename": "TAMIL NADU",
    "latitude": "11.98",
    "longitude": "79.040000000000006"
  },
  {
    "circlename": "Tamilnadu Circle",
    "regionname": "Central Region Trichirapalli",
    "divisionname": "Vriddhachalam Division",
    "officename": "Sangiyam B.O",
    "pincode": "605754",
    "officetype": "BO",
    "delivery": "Delivery",
    "district": "KALLAKURICHI",
    "statename": "TAMIL NADU",
    "latitude": "11.9800000",
    "longitude": "79.1300000"
  },
  {
    "circlename": "Tamilnadu Circle",
    "regionname": "Central Region Trichirapalli",
    "divisionname": "Vriddhachalam Division",
    "officename": "T  . Kolathur B.O",
    "pincode": "607209",
    "officetype": "BO",
    "delivery": "Delivery",
    "district": "KALLAKURICHI",
    "statename": "TAMIL NADU",
    "latitude": "11.8500000",
    "longitude": "79.3000000"
  },
  {
    "circlename": "Tamilnadu Circle",
    "regionname": "Central Region Trichirapalli",
    "divisionname": "Vriddhachalam Division",
    "officename": "Deviagaram B.O",
    "pincode": "605766",
    "officetype": "BO",
    "delivery": "Delivery",
    "district": "KALLAKURICHI",
    "statename": "TAMIL NADU",
    "latitude": "11.9500000",
    "longitude": "79.2100000"
  },
  {
    "circlename": "Tamilnadu Circle",
    "regionname": "Central Region Trichirapalli",
    "divisionname": "Vriddhachalam Division",
    "officename": "Kuladeepamangalam B.O",
    "pincode": "605756",
    "officetype": "BO",
    "delivery": "Delivery",
    "district": "KALLAKURICHI",
    "statename": "TAMIL NADU",
    "latitude": "11.9800000",
    "longitude": "79.1700000"
  },
  {
    "circlename": "Tamilnadu Circle",
    "regionname": "Central Region Trichirapalli",
    "divisionname": "Vriddhachalam Division",
    "officename": "Eswarakandanallur B.O",
    "pincode": "607204",
    "officetype": "BO",
    "delivery": "Delivery",
    "district": "KALLAKURICHI",
    "statename": "TAMIL NADU",
    "latitude": "11.7500000",
    "longitude": "79.4300000"
  },
  {
    "circlename": "Tamilnadu Circle",
    "regionname": "Central Region Trichirapalli",
    "divisionname": "Vriddhachalam Division",
    "officename": "Perumbakkam B.O",
    "pincode": "607204",
    "officetype": "BO",
    "delivery": "Delivery",
    "district": "KALLAKURICHI",
    "statename": "TAMIL NADU",
    "latitude": "11.7900000",
    "longitude": "79.3500000"
  },
  {
    "circlename": "Tamilnadu Circle",
    "regionname": "Central Region Trichirapalli",
    "divisionname": "Vriddhachalam Division",
    "officename": "Eraiyur S.O (Villupuram)",
    "pincode": "607201",
    "officetype": "PO",
    "delivery": "Delivery",
    "district": "KALLAKURICHI",
    "statename": "TAMIL NADU",
    "latitude": "11.9453889",
    "longitude": "79.4952500"
  },
  {
    "circlename": "Tamilnadu Circle",
    "regionname": "Central Region Trichirapalli",
    "divisionname": "Vriddhachalam Division",
    "officename": "Ulundurpet S.O",
    "pincode": "606107",
    "officetype": "PO",
    "delivery": "Delivery",
    "district": "KALLAKURICHI",
    "statename": "TAMIL NADU",
    "latitude": "11.6917222",
    "longitude": "79.2906944"
  },
  {
    "circlename": "Tamilnadu Circle",
    "regionname": "Central Region Trichirapalli",
    "divisionname": "Vriddhachalam Division",
    "officename": "Vellimalai S.O",
    "pincode": "606209",
    "officetype": "PO",
    "delivery": "Delivery",
    "district": "KALLAKURICHI",
    "statename": "TAMIL NADU",
    "latitude": "11.7381667",
    "longitude": "78.9601389"
  },
  {
    "circlename": "Tamilnadu Circle",
    "regionname": "Central Region Trichirapalli",
    "divisionname": "Vriddhachalam Division",
    "officename": "Manampoondi S.O",
    "pincode": "605759",
    "officetype": "PO",
    "delivery": "Delivery",
    "district": "KALLAKURICHI",
    "statename": "TAMIL NADU",
    "latitude": "11.9773889",
    "longitude": "79.2054722"
  },
  {
    "circlename": "Tamilnadu Circle",
    "regionname": "Central Region Trichirapalli",
    "divisionname": "Vriddhachalam Division",
    "officename": "Santhapettai S.O",
    "pincode": "605766",
    "officetype": "PO",
    "delivery": "Delivery",
    "district": "KALLAKURICHI",
    "statename": "TAMIL NADU",
    "latitude": "11.9612222",
    "longitude": "79.1946389"
  },
  {
    "circlename": "Tamilnadu Circle",
    "regionname": "Central Region Trichirapalli",
    "divisionname": "Vriddhachalam Division",
    "officename": "Tirunavalur S.O",
    "pincode": "607204",
    "officetype": "PO",
    "delivery": "Delivery",
    "district": "KALLAKURICHI",
    "statename": "TAMIL NADU",
    "latitude": "11.7603333",
    "longitude": "79.4012778"
  },
  {
    "circlename": "Tamilnadu Circle",
    "regionname": "Central Region Trichirapalli",
    "divisionname": "Vriddhachalam Division",
    "officename": "Jambai B.O",
    "pincode": "605754",
    "officetype": "BO",
    "delivery": "Delivery",
    "district": "KALLAKURICHI",
    "statename": "TAMIL NADU",
    "latitude": "12.0000000",
    "longitude": "79.0600000"
  },
  {
    "circlename": "Tamilnadu Circle",
    "regionname": "Central Region Trichirapalli",
    "divisionname": "Vriddhachalam Division",
    "officename": "Kangeyanur B.O",
    "pincode": "605754",
    "officetype": "BO",
    "delivery": "Delivery",
    "district": "KALLAKURICHI",
    "statename": "TAMIL NADU",
    "latitude": "11.9900000",
    "longitude": "79.1300000"
  },
  {
    "circlename": "Tamilnadu Circle",
    "regionname": "Central Region Trichirapalli",
    "divisionname": "Vriddhachalam Division",
    "officename": "Karadi B.O",
    "pincode": "605766",
    "officetype": "BO",
    "delivery": "Delivery",
    "district": "KALLAKURICHI",
    "statename": "TAMIL NADU",
    "latitude": "11.9600000",
    "longitude": "79.1700000"
  },
  {
    "circlename": "Tamilnadu Circle",
    "regionname": "Central Region Trichirapalli",
    "divisionname": "Vriddhachalam Division",
    "officename": "Kattupaiyur B.O",
    "pincode": "605766",
    "officetype": "BO",
    "delivery": "Delivery",
    "district": "KALLAKURICHI",
    "statename": "TAMIL NADU",
    "latitude": "11.9100000",
    "longitude": "79.2300000"
  },
  {
    "circlename": "Tamilnadu Circle",
    "regionname": "Central Region Trichirapalli",
    "divisionname": "Vriddhachalam Division",
    "officename": "Thagadi B.O",
    "pincode": "605766",
    "officetype": "BO",
    "delivery": "Delivery",
    "district": "KALLAKURICHI",
    "statename": "TAMIL NADU",
    "latitude": "11.9600000",
    "longitude": "79.1300000"
  },
  {
    "circlename": "Tamilnadu Circle",
    "regionname": "Central Region Trichirapalli",
    "divisionname": "Vriddhachalam Division",
    "officename": "Irundai B.O",
    "pincode": "607204",
    "officetype": "BO",
    "delivery": "Delivery",
    "district": "KALLAKURICHI",
    "statename": "TAMIL NADU",
    "latitude": "11.8000000",
    "longitude": "79.3800000"
  },
  {
    "circlename": "Tamilnadu Circle",
    "regionname": "Central Region Trichirapalli",
    "divisionname": "Vriddhachalam Division",
    "officename": "Tiruppayar B.O",
    "pincode": "606305",
    "officetype": "BO",
    "delivery": "Delivery",
    "district": "KALLAKURICHI",
    "statename": "TAMIL NADU",
    "latitude": "11.6500000",
    "longitude": "79.2000000"
  },
  {
    "circlename": "Tamilnadu Circle",
    "regionname": "Central Region Trichirapalli",
    "divisionname": "Vriddhachalam Division",
    "officename": "Pethanur B.O",
    "pincode": "606201",
    "officetype": "BO",
    "delivery": "Delivery",
    "district": "KALLAKURICHI",
    "statename": "TAMIL NADU",
    "latitude": "11.6400000",
    "longitude": "78.9200000"
  },
  {
    "circlename": "Tamilnadu Circle",
    "regionname": "Central Region Trichirapalli",
    "divisionname": "Vriddhachalam Division",
    "officename": "Vettiperumalagaram B.O",
    "pincode": "606201",
    "officetype": "BO",
    "delivery": "Delivery",
    "district": "KALLAKURICHI",
    "statename": "TAMIL NADU",
    "latitude": "11.6600000",
    "longitude": "78.8800000"
  },
  {
    "circlename": "Tamilnadu Circle",
    "regionname": "Central Region Trichirapalli",
    "divisionname": "Vriddhachalam Division",
    "officename": "Pugaipatti B.O",
    "pincode": "607202",
    "officetype": "BO",
    "delivery": "Delivery",
    "district": "KALLAKURICHI",
    "statename": "TAMIL NADU",
    "latitude": "11.7400000",
    "longitude": "79.1900000"
  },
  {
    "circlename": "Tamilnadu Circle",
    "regionname": "Central Region Trichirapalli",
    "divisionname": "Vriddhachalam Division",
    "officename": "Pu malayanur B.O",
    "pincode": "607202",
    "officetype": "BO",
    "delivery": "Delivery",
    "district": "KALLAKURICHI",
    "statename": "TAMIL NADU",
    "latitude": "11.7200000",
    "longitude": "79.1800000"
  },
  {
    "circlename": "Tamilnadu Circle",
    "regionname": "Central Region Trichirapalli",
    "divisionname": "Vriddhachalam Division",
    "officename": "Kiliyur B.O",
    "pincode": "606102",
    "officetype": "BO",
    "delivery": "Delivery",
    "district": "KALLAKURICHI",
    "statename": "TAMIL NADU",
    "latitude": "11.8100000",
    "longitude": "79.2500000"
  },
  {
    "circlename": "Tamilnadu Circle",
    "regionname": "Central Region Trichirapalli",
    "divisionname": "Vriddhachalam Division",
    "officename": "Nannaram B.O",
    "pincode": "606102",
    "officetype": "BO",
    "delivery": "Delivery",
    "district": "KALLAKURICHI",
    "statename": "TAMIL NADU",
    "latitude": "11.7900000",
    "longitude": "79.2800000"
  },
  {
    "circlename": "Tamilnadu Circle",
    "regionname": "Central Region Trichirapalli",
    "divisionname": "Vriddhachalam Division",
    "officename": "Vilambar B.O",
    "pincode": "606213",
    "officetype": "BO",
    "delivery": "Delivery",
    "district": "KALLAKURICHI",
    "statename": "TAMIL NADU",
    "latitude": "11.7000000",
    "longitude": "78.9800000"
  },
  {
    "circlename": "Tamilnadu Circle",
    "regionname": "Central Region Trichirapalli",
    "divisionname": "Vriddhachalam Division",
    "officename": "Michaelpuram B.O",
    "pincode": "605702",
    "officetype": "BO",
    "delivery": "Delivery",
    "district": "KALLAKURICHI",
    "statename": "TAMIL NADU",
    "latitude": "12.0300000",
    "longitude": "78.9600000"
  },
  {
    "circlename": "Tamilnadu Circle",
    "regionname": "Central Region Trichirapalli",
    "divisionname": "Vriddhachalam Division",
    "officename": "Pounjipattu B.O",
    "pincode": "605702",
    "officetype": "BO",
    "delivery": "Delivery",
    "district": "KALLAKURICHI",
    "statename": "TAMIL NADU",
    "latitude": "12.0000000",
    "longitude": "78.9100000"
  },
  {
    "circlename": "Tamilnadu Circle",
    "regionname": "Central Region Trichirapalli",
    "divisionname": "Vriddhachalam Division",
    "officename": "Nedumanur B.O",
    "pincode": "606208",
    "officetype": "BO",
    "delivery": "Delivery",
    "district": "KALLAKURICHI",
    "statename": "TAMIL NADU",
    "latitude": "11.8400000",
    "longitude": "78.9000000"
  },
  {
    "circlename": "Tamilnadu Circle",
    "regionname": "Central Region Trichirapalli",
    "divisionname": "Vriddhachalam Division",
    "officename": "Mookanur B.O",
    "pincode": "606402",
    "officetype": "BO",
    "delivery": "Delivery",
    "district": "KALLAKURICHI",
    "statename": "TAMIL NADU",
    "latitude": "11.9100000",
    "longitude": "78.9200000"
  },
  {
    "circlename": "Tamilnadu Circle",
    "regionname": "Central Region Trichirapalli",
    "divisionname": "Vriddhachalam Division",
    "officename": "Pudupattu B.O",
    "pincode": "606402",
    "officetype": "BO",
    "delivery": "Delivery",
    "district": "KALLAKURICHI",
    "statename": "TAMIL NADU",
    "latitude": "11.9700000",
    "longitude": "78.9000000"
  },
  {
    "circlename": "Tamilnadu Circle",
    "regionname": "Central Region Trichirapalli",
    "divisionname": "Vriddhachalam Division",
    "officename": "Ravathanallur B.O",
    "pincode": "606402",
    "officetype": "BO",
    "delivery": "Delivery",
    "district": "KALLAKURICHI",
    "statename": "TAMIL NADU",
    "latitude": "11.9500000",
    "longitude": "78.9100000"
  },
  {
    "circlename": "Tamilnadu Circle",
    "regionname": "Central Region Trichirapalli",
    "divisionname": "Vriddhachalam Division",
    "officename": "Maligaimedu B.O",
    "pincode": "606204",
    "officetype": "BO",
    "delivery": "Delivery",
    "district": "KALLAKURICHI",
    "statename": "TAMIL NADU",
    "latitude": "11.6100000",
    "longitude": "79.0300000"
  },
  {
    "circlename": "Tamilnadu Circle",
    "regionname": "Central Region Trichirapalli",
    "divisionname": "Vriddhachalam Division",
    "officename": "Perumangalam B.O",
    "pincode": "606204",
    "officetype": "BO",
    "delivery": "Delivery",
    "district": "KALLAKURICHI",
    "statename": "TAMIL NADU",
    "latitude": "11.6200000",
    "longitude": "78.9900000"
  },
  {
    "circlename": "Tamilnadu Circle",
    "regionname": "Central Region Trichirapalli",
    "divisionname": "Vriddhachalam Division",
    "officename": "Pudupalapattu B.O",
    "pincode": "606401",
    "officetype": "BO",
    "delivery": "Delivery",
    "district": "KALLAKURICHI",
    "statename": "TAMIL NADU",
    "latitude": "11.8900000",
    "longitude": "78.8400000"
  },
  {
    "circlename": "Tamilnadu Circle",
    "regionname": "Central Region Trichirapalli",
    "divisionname": "Vriddhachalam Division",
    "officename": "Palayasiruvangur B.O",
    "pincode": "606206",
    "officetype": "BO",
    "delivery": "Delivery",
    "district": "KALLAKURICHI",
    "statename": "TAMIL NADU",
    "latitude": "11.8300000",
    "longitude": "78.9900000"
  },
  {
    "circlename": "Tamilnadu Circle",
    "regionname": "Central Region Trichirapalli",
    "divisionname": "Vriddhachalam Division",
    "officename": "Pallagacherry B.O",
    "pincode": "606206",
    "officetype": "BO",
    "delivery": "Delivery",
    "district": "KALLAKURICHI",
    "statename": "TAMIL NADU",
    "latitude": "11.7800000",
    "longitude": "79.0400000"
  },
  {
    "circlename": "Tamilnadu Circle",
    "regionname": "Central Region Trichirapalli",
    "divisionname": "Vriddhachalam Division",
    "officename": "Tiyagai B.O",
    "pincode": "606206",
    "officetype": "BO",
    "delivery": "Delivery",
    "district": "KALLAKURICHI",
    "statename": "TAMIL NADU",
    "latitude": "11.6900000",
    "longitude": "79.0900000"
  },
  {
    "circlename": "Tamilnadu Circle",
    "regionname": "Central Region Trichirapalli",
    "divisionname": "Vriddhachalam Division",
    "officename": "Pu.Mambakkam B.O",
    "pincode": "606107",
    "officetype": "BO",
    "delivery": "Delivery",
    "district": "KALLAKURICHI",
    "statename": "TAMIL NADU",
    "latitude": "11.6800000",
    "longitude": "79.3200000"
  },
  {
    "circlename": "Tamilnadu Circle",
    "regionname": "Central Region Trichirapalli",
    "divisionname": "Vriddhachalam Division",
    "officename": "Eduthavainatham B.O",
    "pincode": "606207",
    "officetype": "BO",
    "delivery": "Delivery",
    "district": "KALLAKURICHI",
    "statename": "TAMIL NADU",
    "latitude": "11.8100000",
    "longitude": "78.8300000"
  },
  {
    "circlename": "Tamilnadu Circle",
    "regionname": "Central Region Trichirapalli",
    "divisionname": "Vriddhachalam Division",
    "officename": "Mathur B.O",
    "pincode": "606207",
    "officetype": "BO",
    "delivery": "Delivery",
    "district": "KALLAKURICHI",
    "statename": "TAMIL NADU",
    "latitude": "11.7900000",
    "longitude": "78.8600000"
  },
  {
    "circlename": "Tamilnadu Circle",
    "regionname": "Central Region Trichirapalli",
    "divisionname": "Vriddhachalam Division",
    "officename": "Arampoondi B.O",
    "pincode": "606209",
    "officetype": "BO",
    "delivery": "Delivery",
    "district": "KALLAKURICHI",
    "statename": "TAMIL NADU",
    "latitude": "11.7600000",
    "longitude": "78.6700000"
  },
  {
    "circlename": "Tamilnadu Circle",
    "regionname": "Central Region Trichirapalli",
    "divisionname": "Vriddhachalam Division",
    "officename": "Innadu B.O",
    "pincode": "606209",
    "officetype": "BO",
    "delivery": "Delivery",
    "district": "KALLAKURICHI",
    "statename": "TAMIL NADU",
    "latitude": "11.8300000",
    "longitude": "78.6800000"
  },
  {
    "circlename": "Tamilnadu Circle",
    "regionname": "Central Region Trichirapalli",
    "divisionname": "Vriddhachalam Division",
    "officename": "Kodumathi B.O",
    "pincode": "606209",
    "officetype": "BO",
    "delivery": "Delivery",
    "district": "KALLAKURICHI",
    "statename": "TAMIL NADU",
    "latitude": "11.8100000",
    "longitude": "78.7100000"
  },
  {
    "circlename": "Tamilnadu Circle",
    "regionname": "Central Region Trichirapalli",
    "divisionname": "Vriddhachalam Division",
    "officename": "Thoradipattu B.O",
    "pincode": "606209",
    "officetype": "BO",
    "delivery": "Delivery",
    "district": "KALLAKURICHI",
    "statename": "TAMIL NADU",
    "latitude": "11.7300000",
    "longitude": "78.7000000"
  },
  {
    "circlename": "Tamilnadu Circle",
    "regionname": "Central Region Trichirapalli",
    "divisionname": "Vriddhachalam Division",
    "officename": "Uppur B.O",
    "pincode": "606209",
    "officetype": "BO",
    "delivery": "Delivery",
    "district": "KALLAKURICHI",
    "statename": "TAMIL NADU",
    "latitude": "11.7400000",
    "longitude": "78.6800000"
  },
  {
    "circlename": "Tamilnadu Circle",
    "regionname": "Central Region Trichirapalli",
    "divisionname": "Vriddhachalam Division",
    "officename": "Memalur B.O",
    "pincode": "605751",
    "officetype": "BO",
    "delivery": "Delivery",
    "district": "KALLAKURICHI",
    "statename": "TAMIL NADU",
    "latitude": "11.8600000",
    "longitude": "79.1800000"
  },
  {
    "circlename": "Tamilnadu Circle",
    "regionname": "Central Region Trichirapalli",
    "divisionname": "Vriddhachalam Division",
    "officename": "Tirukkoyilur H.O",
    "pincode": "605757",
    "officetype": "HO",
    "delivery": "Delivery",
    "district": "KALLAKURICHI",
    "statename": "TAMIL NADU",
    "latitude": "11.9660556",
    "longitude": "79.2046667"
  },
  {
    "circlename": "Tamilnadu Circle",
    "regionname": "Central Region Trichirapalli",
    "divisionname": "Vriddhachalam Division",
    "officename": "Asanur S.O",
    "pincode": "606305",
    "officetype": "PO",
    "delivery": "Delivery",
    "district": "KALLAKURICHI",
    "statename": "TAMIL NADU",
    "latitude": "11.6236667",
    "longitude": "79.1902778"
  },
  {
    "circlename": "Tamilnadu Circle",
    "regionname": "Central Region Trichirapalli",
    "divisionname": "Vriddhachalam Division",
    "officename": "Moongilthuraipattu S.O",
    "pincode": "605702",
    "officetype": "PO",
    "delivery": "Delivery",
    "district": "KALLAKURICHI",
    "statename": "TAMIL NADU",
    "latitude": "11.9773889",
    "longitude": "79.2010556"
  },
  {
    "circlename": "Tamilnadu Circle",
    "regionname": "Central Region Trichirapalli",
    "divisionname": "Vriddhachalam Division",
    "officename": "Padur S.O",
    "pincode": "606115",
    "officetype": "PO",
    "delivery": "Delivery",
    "district": "KALLAKURICHI",
    "statename": "TAMIL NADU",
    "latitude": "11.7828611",
    "longitude": "79.1968056"
  },
  {
    "circlename": "Tamilnadu Circle",
    "regionname": "Central Region Trichirapalli",
    "divisionname": "Vriddhachalam Division",
    "officename": "Ariyalur (Villupuram) S.O",
    "pincode": "605801",
    "officetype": "PO",
    "delivery": "Delivery",
    "district": "KALLAKURICHI",
    "statename": "TAMIL NADU",
    "latitude": "11.9453889",
    "longitude": "79.4952500"
  },
  {
    "circlename": "Tamilnadu Circle",
    "regionname": "Central Region Trichirapalli",
    "divisionname": "Vriddhachalam Division",
    "officename": "Tirukkoyilur Bazaar S.O",
    "pincode": "605757",
    "officetype": "PO",
    "delivery": "Non Delivery",
    "district": "KALLAKURICHI",
    "statename": "TAMIL NADU",
    "latitude": "11.9636667",
    "longitude": "79.2034167"
  },
  {
    "circlename": "Tamilnadu Circle",
    "regionname": "Central Region Trichirapalli",
    "divisionname": "Vriddhachalam Division",
    "officename": "T.Mavidanthal B.O",
    "pincode": "606305",
    "officetype": "BO",
    "delivery": "Delivery",
    "district": "KALLAKURICHI",
    "statename": "TAMIL NADU",
    "latitude": "11.6300000",
    "longitude": "79.2200000"
  },
  {
    "circlename": "Tamilnadu Circle",
    "regionname": "Central Region Trichirapalli",
    "divisionname": "Vriddhachalam Division",
    "officename": "Melnariyappanur B.O",
    "pincode": "606201",
    "officetype": "BO",
    "delivery": "Delivery",
    "district": "KALLAKURICHI",
    "statename": "TAMIL NADU",
    "latitude": "11.6200000",
    "longitude": "78.8100000"
  },
  {
    "circlename": "Tamilnadu Circle",
    "regionname": "Central Region Trichirapalli",
    "divisionname": "Vriddhachalam Division",
    "officename": "Thottiyam B.O",
    "pincode": "606201",
    "officetype": "BO",
    "delivery": "Delivery",
    "district": "KALLAKURICHI",
    "statename": "TAMIL NADU",
    "latitude": "11.6900000",
    "longitude": "78.8900000"
  },
  {
    "circlename": "Tamilnadu Circle",
    "regionname": "Central Region Trichirapalli",
    "divisionname": "Vriddhachalam Division",
    "officename": "Adhanur B.O",
    "pincode": "606102",
    "officetype": "BO",
    "delivery": "Delivery",
    "district": "KALLAKURICHI",
    "statename": "TAMIL NADU",
    "latitude": "12.0200000",
    "longitude": "78.9900000"
  },
  {
    "circlename": "Tamilnadu Circle",
    "regionname": "Central Region Trichirapalli",
    "divisionname": "Vriddhachalam Division",
    "officename": "Velur B.O",
    "pincode": "606102",
    "officetype": "BO",
    "delivery": "Delivery",
    "district": "KALLAKURICHI",
    "statename": "TAMIL NADU",
    "latitude": "11.8100000",
    "longitude": "79.3100000"
  },
  {
    "circlename": "Tamilnadu Circle",
    "regionname": "Central Region Trichirapalli",
    "divisionname": "Vriddhachalam Division",
    "officename": "Agarakottalam B.O",
    "pincode": "606213",
    "officetype": "BO",
    "delivery": "Delivery",
    "district": "KALLAKURICHI",
    "statename": "TAMIL NADU",
    "latitude": "11.7900000",
    "longitude": "78.9900000"
  },
  {
    "circlename": "Tamilnadu Circle",
    "regionname": "Central Region Trichirapalli",
    "divisionname": "Vriddhachalam Division",
    "officename": "Kudiraichandal B.O",
    "pincode": "606213",
    "officetype": "BO",
    "delivery": "Delivery",
    "district": "KALLAKURICHI",
    "statename": "TAMIL NADU",
    "latitude": "11.7300000",
    "longitude": "78.9100000"
  },
  {
    "circlename": "Tamilnadu Circle",
    "regionname": "Central Region Trichirapalli",
    "divisionname": "Vriddhachalam Division",
    "officename": "Thandalai B.O",
    "pincode": "606213",
    "officetype": "BO",
    "delivery": "Delivery",
    "district": "KALLAKURICHI",
    "statename": "TAMIL NADU",
    "latitude": "11.7600000",
    "longitude": "79.0000000"
  },
  {
    "circlename": "Tamilnadu Circle",
    "regionname": "Central Region Trichirapalli",
    "divisionname": "Vriddhachalam Division",
    "officename": "Thenkeeranur B.O",
    "pincode": "606213",
    "officetype": "BO",
    "delivery": "Delivery",
    "district": "KALLAKURICHI",
    "statename": "TAMIL NADU",
    "latitude": "11.7200000",
    "longitude": "78.9800000"
  },
  {
    "circlename": "Tamilnadu Circle",
    "regionname": "Central Region Trichirapalli",
    "divisionname": "Vriddhachalam Division",
    "officename": "Porasapattu B.O",
    "pincode": "605702",
    "officetype": "BO",
    "delivery": "Delivery",
    "district": "KALLAKURICHI",
    "statename": "TAMIL NADU",
    "latitude": "12.0200000",
    "longitude": "78.9900000"
  },
  {
    "circlename": "Tamilnadu Circle",
    "regionname": "Central Region Trichirapalli",
    "divisionname": "Vriddhachalam Division",
    "officename": "Cholampattu B.O",
    "pincode": "606208",
    "officetype": "BO",
    "delivery": "Delivery",
    "district": "KALLAKURICHI",
    "statename": "TAMIL NADU",
    "latitude": "11.8400000",
    "longitude": "78.9200000"
  },
  {
    "circlename": "Tamilnadu Circle",
    "regionname": "Central Region Trichirapalli",
    "divisionname": "Vriddhachalam Division",
    "officename": "Mudiyanur B.O",
    "pincode": "606203",
    "officetype": "BO",
    "delivery": "Delivery",
    "district": "KALLAKURICHI",
    "statename": "TAMIL NADU",
    "latitude": "11.7000000",
    "longitude": "79.0400000"
  },
  {
    "circlename": "Tamilnadu Circle",
    "regionname": "Central Region Trichirapalli",
    "divisionname": "Vriddhachalam Division",
    "officename": "V  Alambalam B.O",
    "pincode": "606301",
    "officetype": "BO",
    "delivery": "Delivery",
    "district": "KALLAKURICHI",
    "statename": "TAMIL NADU",
    "latitude": "11.5700000",
    "longitude": "78.8800000"
  },
  {
    "circlename": "Tamilnadu Circle",
    "regionname": "Central Region Trichirapalli",
    "divisionname": "Vriddhachalam Division",
    "officename": "Koo kallakurichi B.O",
    "pincode": "606115",
    "officetype": "BO",
    "delivery": "Delivery",
    "district": "KALLAKURICHI",
    "statename": "TAMIL NADU",
    "latitude": "11.7400000",
    "longitude": "79.3400000"
  },
  {
    "circlename": "Tamilnadu Circle",
    "regionname": "Central Region Trichirapalli",
    "divisionname": "Vriddhachalam Division",
    "officename": "Arur B.O",
    "pincode": "606402",
    "officetype": "BO",
    "delivery": "Delivery",
    "district": "KALLAKURICHI",
    "statename": "TAMIL NADU",
    "latitude": "11.8800000",
    "longitude": "78.9500000"
  },
  {
    "circlename": "Tamilnadu Circle",
    "regionname": "Central Region Trichirapalli",
    "divisionname": "Vriddhachalam Division",
    "officename": "Puthirampattu B.O",
    "pincode": "606402",
    "officetype": "BO",
    "delivery": "Delivery",
    "district": "KALLAKURICHI",
    "statename": "TAMIL NADU",
    "latitude": "11.9600000",
    "longitude": "78.9000000"
  },
  {
    "circlename": "Tamilnadu Circle",
    "regionname": "Central Region Trichirapalli",
    "divisionname": "Vriddhachalam Division",
    "officename": "Thensiruvalur B.O",
    "pincode": "606204",
    "officetype": "BO",
    "delivery": "Delivery",
    "district": "KALLAKURICHI",
    "statename": "TAMIL NADU",
    "latitude": "11.6000000",
    "longitude": "78.9500000"
  },
  {
    "circlename": "Tamilnadu Circle",
    "regionname": "Central Region Trichirapalli",
    "divisionname": "Vriddhachalam Division",
    "officename": "Mandagapadi B.O",
    "pincode": "606205",
    "officetype": "BO",
    "delivery": "Delivery",
    "district": "KALLAKURICHI",
    "statename": "TAMIL NADU",
    "latitude": "11.8200000",
    "longitude": "79.1300000"
  },
  {
    "circlename": "Tamilnadu Circle",
    "regionname": "Central Region Trichirapalli",
    "divisionname": "Vriddhachalam Division",
    "officename": "Pasar B.O",
    "pincode": "606205",
    "officetype": "BO",
    "delivery": "Delivery",
    "district": "KALLAKURICHI",
    "statename": "TAMIL NADU",
    "latitude": "11.8400000",
    "longitude": "79.0800000"
  },
  {
    "circlename": "Tamilnadu Circle",
    "regionname": "Central Region Trichirapalli",
    "divisionname": "Vriddhachalam Division",
    "officename": "Seedevi B.O",
    "pincode": "606205",
    "officetype": "BO",
    "delivery": "Delivery",
    "district": "KALLAKURICHI",
    "statename": "TAMIL NADU",
    "latitude": "11.8000000",
    "longitude": "79.1300000"
  },
  {
    "circlename": "Tamilnadu Circle",
    "regionname": "Central Region Trichirapalli",
    "divisionname": "Vriddhachalam Division",
    "officename": "Sikkadu B.O",
    "pincode": "606205",
    "officetype": "BO",
    "delivery": "Delivery",
    "district": "KALLAKURICHI",
    "statename": "TAMIL NADU",
    "latitude": "11.7700000",
    "longitude": "79.1300000"
  },
  {
    "circlename": "Tamilnadu Circle",
    "regionname": "Central Region Trichirapalli",
    "divisionname": "Vriddhachalam Division",
    "officename": "Sulankurichi B.O",
    "pincode": "606206",
    "officetype": "BO",
    "delivery": "Delivery",
    "district": "KALLAKURICHI",
    "statename": "TAMIL NADU",
    "latitude": "11.7900000",
    "longitude": "79.0200000"
  },
  {
    "circlename": "Tamilnadu Circle",
    "regionname": "Central Region Trichirapalli",
    "divisionname": "Vriddhachalam Division",
    "officename": "Timmalai B.O",
    "pincode": "606206",
    "officetype": "BO",
    "delivery": "Delivery",
    "district": "KALLAKURICHI",
    "statename": "TAMIL NADU",
    "latitude": "11.7400000",
    "longitude": "79.1300000"
  },
  {
    "circlename": "Tamilnadu Circle",
    "regionname": "Central Region Trichirapalli",
    "divisionname": "Vriddhachalam Division",
    "officename": "Vadathorasalur B.O",
    "pincode": "606206",
    "officetype": "BO",
    "delivery": "Delivery",
    "district": "KALLAKURICHI",
    "statename": "TAMIL NADU",
    "latitude": "11.7800000",
    "longitude": "79.0700000"
  },
  {
    "circlename": "Tamilnadu Circle",
    "regionname": "Central Region Trichirapalli",
    "divisionname": "Vriddhachalam Division",
    "officename": "Madiyanur B.O",
    "pincode": "606107",
    "officetype": "BO",
    "delivery": "Delivery",
    "district": "KALLAKURICHI",
    "statename": "TAMIL NADU",
    "latitude": "11.6800000",
    "longitude": "79.3400000"
  },
  {
    "circlename": "Tamilnadu Circle",
    "regionname": "Central Region Trichirapalli",
    "divisionname": "Vriddhachalam Division",
    "officename": "Pu konalavadi B.O",
    "pincode": "606107",
    "officetype": "BO",
    "delivery": "Delivery",
    "district": "KALLAKURICHI",
    "statename": "TAMIL NADU",
    "latitude": "11.8700000",
    "longitude": "79.2700000"
  },
  {
    "circlename": "Tamilnadu Circle",
    "regionname": "Central Region Trichirapalli",
    "divisionname": "Vriddhachalam Division",
    "officename": "Semmanangur B.O",
    "pincode": "606107",
    "officetype": "BO",
    "delivery": "Delivery",
    "district": "KALLAKURICHI",
    "statename": "TAMIL NADU",
    "latitude": "11.7200000",
    "longitude": "79.3000000"
  },
  {
    "circlename": "Tamilnadu Circle",
    "regionname": "Central Region Trichirapalli",
    "divisionname": "Vriddhachalam Division",
    "officename": "Chellampattu B.O",
    "pincode": "606207",
    "officetype": "BO",
    "delivery": "Delivery",
    "district": "KALLAKURICHI",
    "statename": "TAMIL NADU",
    "latitude": "11.8500000",
    "longitude": "78.8500000"
  },
  {
    "circlename": "Tamilnadu Circle",
    "regionname": "Central Region Trichirapalli",
    "divisionname": "Vriddhachalam Division",
    "officename": "Mattaparai B.O",
    "pincode": "606207",
    "officetype": "BO",
    "delivery": "Delivery",
    "district": "KALLAKURICHI",
    "statename": "TAMIL NADU",
    "latitude": "11.8400000",
    "longitude": "78.8000000"
  },
  {
    "circlename": "Tamilnadu Circle",
    "regionname": "Central Region Trichirapalli",
    "divisionname": "Vriddhachalam Division",
    "officename": "Kariyalur B.O",
    "pincode": "606209",
    "officetype": "BO",
    "delivery": "Delivery",
    "district": "KALLAKURICHI",
    "statename": "TAMIL NADU",
    "latitude": "11.8200000",
    "longitude": "78.7200000"
  },
  {
    "circlename": "Tamilnadu Circle",
    "regionname": "Central Region Trichirapalli",
    "divisionname": "Vriddhachalam Division",
    "officename": "Pakkam B.O",
    "pincode": "605801",
    "officetype": "BO",
    "delivery": "Delivery",
    "district": "KALLAKURICHI",
    "statename": "TAMIL NADU",
    "latitude": "11.9500000",
    "longitude": "78.9600000"
  },
  {
    "circlename": "Tamilnadu Circle",
    "regionname": "Central Region Trichirapalli",
    "divisionname": "Vriddhachalam Division",
    "officename": "Tholuvanthangal B.O",
    "pincode": "605801",
    "officetype": "BO",
    "delivery": "Delivery",
    "district": "KALLAKURICHI",
    "statename": "TAMIL NADU",
    "latitude": "11.9400000",
    "longitude": "78.9700000"
  },
  {
    "circlename": "Tamilnadu Circle",
    "regionname": "Central Region Trichirapalli",
    "divisionname": "Vriddhachalam Division",
    "officename": "Kattu Edaiyur B.O",
    "pincode": "605751",
    "officetype": "BO",
    "delivery": "Delivery",
    "district": "KALLAKURICHI",
    "statename": "TAMIL NADU",
    "latitude": "11.8500000",
    "longitude": "79.1400000"
  },
  {
    "circlename": "Tamilnadu Circle",
    "regionname": "Central Region Trichirapalli",
    "divisionname": "Vriddhachalam Division",
    "officename": "Pazhangur B.O",
    "pincode": "605751",
    "officetype": "BO",
    "delivery": "Delivery",
    "district": "KALLAKURICHI",
    "statename": "TAMIL NADU",
    "latitude": "11.8900000",
    "longitude": "79.2100000"
  },
  {
    "circlename": "Tamilnadu Circle",
    "regionname": "Central Region Trichirapalli",
    "divisionname": "Vriddhachalam Division",
    "officename": "Vengur B.O",
    "pincode": "605751",
    "officetype": "BO",
    "delivery": "Delivery",
    "district": "KALLAKURICHI",
    "statename": "TAMIL NADU",
    "latitude": "11.9000000",
    "longitude": "79.1900000"
  },
  {
    "circlename": "Tamilnadu Circle",
    "regionname": "Central Region Trichirapalli",
    "divisionname": "Vriddhachalam Division",
    "officename": "Sirpadanallur B.O",
    "pincode": "605802",
    "officetype": "BO",
    "delivery": "Delivery",
    "district": "KALLAKURICHI",
    "statename": "TAMIL NADU",
    "latitude": "12.01",
    "longitude": "79.030000000000001"
  },
  {
    "circlename": "Tamilnadu Circle",
    "regionname": "Central Region Trichirapalli",
    "divisionname": "Vriddhachalam Division",
    "officename": "Tiruvarangam B.O",
    "pincode": "605802",
    "officetype": "BO",
    "delivery": "Delivery",
    "district": "KALLAKURICHI",
    "statename": "TAMIL NADU",
    "latitude": "12",
    "longitude": "79.060000000000002"
  },
  {
    "circlename": "Tamilnadu Circle",
    "regionname": "Central Region Trichirapalli",
    "divisionname": "Vriddhachalam Division",
    "officename": "Devaradiyarkuppam B.O",
    "pincode": "605754",
    "officetype": "BO",
    "delivery": "Delivery",
    "district": "KALLAKURICHI",
    "statename": "TAMIL NADU",
    "latitude": "12.0100000",
    "longitude": "79.0900000"
  },
  {
    "circlename": "Tamilnadu Circle",
    "regionname": "Central Region Trichirapalli",
    "divisionname": "Vriddhachalam Division",
    "officename": "Valayampattu B.O",
    "pincode": "607107",
    "officetype": "BO",
    "delivery": "Delivery",
    "district": "KALLAKURICHI",
    "statename": "TAMIL NADU",
    "latitude": "11.8600000",
    "longitude": "79.4200000"
  },
  {
    "circlename": "Tamilnadu Circle",
    "regionname": "Central Region Trichirapalli",
    "divisionname": "Vriddhachalam Division",
    "officename": "Kuvanur B.O",
    "pincode": "605766",
    "officetype": "BO",
    "delivery": "Delivery",
    "district": "KALLAKURICHI",
    "statename": "TAMIL NADU",
    "latitude": "11.9700000",
    "longitude": "79.1000000"
  },
  {
    "circlename": "Tamilnadu Circle",
    "regionname": "Central Region Trichirapalli",
    "divisionname": "Vriddhachalam Division",
    "officename": "Tiruppalapandal B.O",
    "pincode": "605766",
    "officetype": "BO",
    "delivery": "Delivery",
    "district": "KALLAKURICHI",
    "statename": "TAMIL NADU",
    "latitude": "11.9400000",
    "longitude": "79.1300000"
  },
  {
    "circlename": "Tamilnadu Circle",
    "regionname": "Central Region Trichirapalli",
    "divisionname": "Vriddhachalam Division",
    "officename": "Vilandai B.O",
    "pincode": "605756",
    "officetype": "BO",
    "delivery": "Delivery",
    "district": "KALLAKURICHI",
    "statename": "TAMIL NADU",
    "latitude": "11.9700000",
    "longitude": "79.1500000"
  },
  {
    "circlename": "Tamilnadu Circle",
    "regionname": "Central Region Trichirapalli",
    "divisionname": "Vriddhachalam Division",
    "officename": "Madapattu B.O",
    "pincode": "607204",
    "officetype": "BO",
    "delivery": "Delivery",
    "district": "KALLAKURICHI",
    "statename": "TAMIL NADU",
    "latitude": "11.7900000",
    "longitude": "79.4100000"
  },
  {
    "circlename": "Tamilnadu Circle",
    "regionname": "Central Region Trichirapalli",
    "divisionname": "Vriddhachalam Division",
    "officename": "Vanampattu B.O",
    "pincode": "607204",
    "officetype": "BO",
    "delivery": "Delivery",
    "district": "KALLAKURICHI",
    "statename": "TAMIL NADU",
    "latitude": "11.7000000",
    "longitude": "79.4000000"
  },
  {
    "circlename": "Tamilnadu Circle",
    "regionname": "Central Region Trichirapalli",
    "divisionname": "Vriddhachalam Division",
    "officename": "Kallakurichi H.O",
    "pincode": "606202",
    "officetype": "HO",
    "delivery": "Delivery",
    "district": "KALLAKURICHI",
    "statename": "TAMIL NADU",
    "latitude": "11.7381667",
    "longitude": "78.9601389"
  },
  {
    "circlename": "Tamilnadu Circle",
    "regionname": "Central Region Trichirapalli",
    "divisionname": "Vriddhachalam Division",
    "officename": "Chinnasalem S.O",
    "pincode": "606201",
    "officetype": "PO",
    "delivery": "Delivery",
    "district": "KALLAKURICHI",
    "statename": "TAMIL NADU",
    "latitude": "11.6357778",
    "longitude": "78.8788056"
  },
  {
    "circlename": "Tamilnadu Circle",
    "regionname": "Central Region Trichirapalli",
    "divisionname": "Vriddhachalam Division",
    "officename": "Kalamarudur S.O",
    "pincode": "606102",
    "officetype": "PO",
    "delivery": "Delivery",
    "district": "KALLAKURICHI",
    "statename": "TAMIL NADU",
    "latitude": "11.7718889",
    "longitude": "79.3041944"
  },
  {
    "circlename": "Tamilnadu Circle",
    "regionname": "Central Region Trichirapalli",
    "divisionname": "Vriddhachalam Division",
    "officename": "Nainarpalayam S.O",
    "pincode": "606301",
    "officetype": "PO",
    "delivery": "Delivery",
    "district": "KALLAKURICHI",
    "statename": "TAMIL NADU",
    "latitude": "11.9453889",
    "longitude": "79.4952500"
  },
  {
    "circlename": "Tamilnadu Circle",
    "regionname": "Central Region Trichirapalli",
    "divisionname": "Vriddhachalam Division",
    "officename": "Pukkiravari S.O",
    "pincode": "606204",
    "officetype": "PO",
    "delivery": "Delivery",
    "district": "KALLAKURICHI",
    "statename": "TAMIL NADU",
    "latitude": "11.6305556",
    "longitude": "78.9897778"
  },
  {
    "circlename": "Tamilnadu Circle",
    "regionname": "Central Region Trichirapalli",
    "divisionname": "Vriddhachalam Division",
    "officename": "Eranji B.O",
    "pincode": "606305",
    "officetype": "BO",
    "delivery": "Delivery",
    "district": "KALLAKURICHI",
    "statename": "TAMIL NADU",
    "latitude": "11.6000000",
    "longitude": "79.1700000"
  },
  {
    "circlename": "Tamilnadu Circle",
    "regionname": "Central Region Trichirapalli",
    "divisionname": "Vriddhachalam Division",
    "officename": "Gurupeedapuram B.O",
    "pincode": "606305",
    "officetype": "BO",
    "delivery": "Delivery",
    "district": "KALLAKURICHI",
    "statename": "TAMIL NADU",
    "latitude": "11.6300000",
    "longitude": "79.1700000"
  },
  {
    "circlename": "Tamilnadu Circle",
    "regionname": "Central Region Trichirapalli",
    "divisionname": "Vriddhachalam Division",
    "officename": "Siruvathur B.O",
    "pincode": "606201",
    "officetype": "BO",
    "delivery": "Delivery",
    "district": "KALLAKURICHI",
    "statename": "TAMIL NADU",
    "latitude": "11.6300000",
    "longitude": "78.9400000"
  },
  {
    "circlename": "Tamilnadu Circle",
    "regionname": "Central Region Trichirapalli",
    "divisionname": "Vriddhachalam Division",
    "officename": "Ellaigramam B.O",
    "pincode": "607201",
    "officetype": "BO",
    "delivery": "Delivery",
    "district": "KALLAKURICHI",
    "statename": "TAMIL NADU",
    "latitude": "11.7900000",
    "longitude": "79.2100000"
  },
  {
    "circlename": "Tamilnadu Circle",
    "regionname": "Central Region Trichirapalli",
    "divisionname": "Vriddhachalam Division",
    "officename": "Kunjaram B.O",
    "pincode": "607201",
    "officetype": "BO",
    "delivery": "Delivery",
    "district": "KALLAKURICHI",
    "statename": "TAMIL NADU",
    "latitude": "11.7700000",
    "longitude": "79.8000000"
  },
  {
    "circlename": "Tamilnadu Circle",
    "regionname": "Central Region Trichirapalli",
    "divisionname": "Vriddhachalam Division",
    "officename": "Kuvadu B.O",
    "pincode": "607201",
    "officetype": "BO",
    "delivery": "Delivery",
    "district": "KALLAKURICHI",
    "statename": "TAMIL NADU",
    "latitude": "11.7800000",
    "longitude": "79.2200000"
  },
  {
    "circlename": "Tamilnadu Circle",
    "regionname": "Central Region Trichirapalli",
    "divisionname": "Vriddhachalam Division",
    "officename": "Attur B.O",
    "pincode": "606102",
    "officetype": "BO",
    "delivery": "Delivery",
    "district": "KALLAKURICHI",
    "statename": "TAMIL NADU",
    "latitude": "11.8000000",
    "longitude": "79.3000000"
  },
  {
    "circlename": "Tamilnadu Circle",
    "regionname": "Central Region Trichirapalli",
    "divisionname": "Vriddhachalam Division",
    "officename": "Thachur B.O",
    "pincode": "606213",
    "officetype": "BO",
    "delivery": "Delivery",
    "district": "KALLAKURICHI",
    "statename": "TAMIL NADU",
    "latitude": "11.7000000",
    "longitude": "78.9600000"
  },
  {
    "circlename": "Tamilnadu Circle",
    "regionname": "Central Region Trichirapalli",
    "divisionname": "Vriddhachalam Division",
    "officename": "B. Arulambadi B.O",
    "pincode": "605702",
    "officetype": "BO",
    "delivery": "Delivery",
    "district": "KALLAKURICHI",
    "statename": "TAMIL NADU",
    "latitude": "12.0100000",
    "longitude": "78.9800000"
  },
  {
    "circlename": "Tamilnadu Circle",
    "regionname": "Central Region Trichirapalli",
    "divisionname": "Vriddhachalam Division",
    "officename": "Melsiruvallur B.O",
    "pincode": "605702",
    "officetype": "BO",
    "delivery": "Delivery",
    "district": "KALLAKURICHI",
    "statename": "TAMIL NADU",
    "latitude": "12.0200000",
    "longitude": "78.9500000"
  },
  {
    "circlename": "Tamilnadu Circle",
    "regionname": "Central Region Trichirapalli",
    "divisionname": "Vriddhachalam Division",
    "officename": "Kilapattu B.O",
    "pincode": "606208",
    "officetype": "BO",
    "delivery": "Delivery",
    "district": "KALLAKURICHI",
    "statename": "TAMIL NADU",
    "latitude": "11.8400000",
    "longitude": "78.9600000"
  },
  {
    "circlename": "Tamilnadu Circle",
    "regionname": "Central Region Trichirapalli",
    "divisionname": "Vriddhachalam Division",
    "officename": "Malaikottalam B.O",
    "pincode": "606203",
    "officetype": "BO",
    "delivery": "Delivery",
    "district": "KALLAKURICHI",
    "statename": "TAMIL NADU",
    "latitude": "11.6900000",
    "longitude": "79.0100000"
  },
  {
    "circlename": "Tamilnadu Circle",
    "regionname": "Central Region Trichirapalli",
    "divisionname": "Vriddhachalam Division",
    "officename": "Pudu Uchimedu B.O",
    "pincode": "606203",
    "officetype": "BO",
    "delivery": "Delivery",
    "district": "KALLAKURICHI",
    "statename": "TAMIL NADU",
    "latitude": "11.6500000",
    "longitude": "79.1000000"
  },
  {
    "circlename": "Tamilnadu Circle",
    "regionname": "Central Region Trichirapalli",
    "divisionname": "Vriddhachalam Division",
    "officename": "Kugaiyur B.O",
    "pincode": "606301",
    "officetype": "BO",
    "delivery": "Delivery",
    "district": "KALLAKURICHI",
    "statename": "TAMIL NADU",
    "latitude": "11.5300000",
    "longitude": "78.8600000"
  },
  {
    "circlename": "Tamilnadu Circle",
    "regionname": "Central Region Trichirapalli",
    "divisionname": "Vriddhachalam Division",
    "officename": "V  Mamandur B.O",
    "pincode": "606301",
    "officetype": "BO",
    "delivery": "Delivery",
    "district": "KALLAKURICHI",
    "statename": "TAMIL NADU",
    "latitude": "11.5200000",
    "longitude": "78.9000000"
  },
  {
    "circlename": "Tamilnadu Circle",
    "regionname": "Central Region Trichirapalli",
    "divisionname": "Vriddhachalam Division",
    "officename": "Lakkinayakkanpatti B.O",
    "pincode": "606402",
    "officetype": "BO",
    "delivery": "Delivery",
    "district": "KALLAKURICHI",
    "statename": "TAMIL NADU",
    "latitude": "11.9900000",
    "longitude": "78.8800000"
  },
  {
    "circlename": "Tamilnadu Circle",
    "regionname": "Central Region Trichirapalli",
    "divisionname": "Vriddhachalam Division",
    "officename": "Asakalathur B.O",
    "pincode": "606204",
    "officetype": "BO",
    "delivery": "Delivery",
    "district": "KALLAKURICHI",
    "statename": "TAMIL NADU",
    "latitude": "11.5900000",
    "longitude": "79.0500000"
  },
  {
    "circlename": "Tamilnadu Circle",
    "regionname": "Central Region Trichirapalli",
    "divisionname": "Vriddhachalam Division",
    "officename": "Iriyur B.O",
    "pincode": "606204",
    "officetype": "BO",
    "delivery": "Delivery",
    "district": "KALLAKURICHI",
    "statename": "TAMIL NADU",
    "latitude": "11.6000000",
    "longitude": "79.0000000"
  },
  {
    "circlename": "Tamilnadu Circle",
    "regionname": "Central Region Trichirapalli",
    "divisionname": "Vriddhachalam Division",
    "officename": "Olagiyanallur B.O",
    "pincode": "606204",
    "officetype": "BO",
    "delivery": "Delivery",
    "district": "KALLAKURICHI",
    "statename": "TAMIL NADU",
    "latitude": "11.6200000",
    "longitude": "78.9700000"
  },
  {
    "circlename": "Tamilnadu Circle",
    "regionname": "Central Region Trichirapalli",
    "divisionname": "Vriddhachalam Division",
    "officename": "Pootai B.O",
    "pincode": "606401",
    "officetype": "BO",
    "delivery": "Delivery",
    "district": "KALLAKURICHI",
    "statename": "TAMIL NADU",
    "latitude": "11.9000000",
    "longitude": "78.8800000"
  },
  {
    "circlename": "Tamilnadu Circle",
    "regionname": "Central Region Trichirapalli",
    "divisionname": "Vriddhachalam Division",
    "officename": "Soundaravallipalayam B.O",
    "pincode": "606401",
    "officetype": "BO",
    "delivery": "Delivery",
    "district": "KALLAKURICHI",
    "statename": "TAMIL NADU",
    "latitude": "11.8500000",
    "longitude": "78.9300000"
  },
  {
    "circlename": "Tamilnadu Circle",
    "regionname": "Central Region Trichirapalli",
    "divisionname": "Vriddhachalam Division",
    "officename": "Thekkampattu B.O",
    "pincode": "606401",
    "officetype": "BO",
    "delivery": "Delivery",
    "district": "KALLAKURICHI",
    "statename": "TAMIL NADU",
    "latitude": "11.9900000",
    "longitude": "78.7600000"
  },
  {
    "circlename": "Tamilnadu Circle",
    "regionname": "Central Region Trichirapalli",
    "divisionname": "Vriddhachalam Division",
    "officename": "Madur B.O",
    "pincode": "606206",
    "officetype": "BO",
    "delivery": "Delivery",
    "district": "KALLAKURICHI",
    "statename": "TAMIL NADU",
    "latitude": "11.7400000",
    "longitude": "79.0200000"
  },
  {
    "circlename": "Tamilnadu Circle",
    "regionname": "Central Region Trichirapalli",
    "divisionname": "Vriddhachalam Division",
    "officename": "Peelamedu B.O",
    "pincode": "606206",
    "officetype": "BO",
    "delivery": "Delivery",
    "district": "KALLAKURICHI",
    "statename": "TAMIL NADU",
    "latitude": "11.7800000",
    "longitude": "79.0600000"
  },
  {
    "circlename": "Tamilnadu Circle",
    "regionname": "Central Region Trichirapalli",
    "divisionname": "Vriddhachalam Division",
    "officename": "Periyamampattu B.O",
    "pincode": "606206",
    "officetype": "BO",
    "delivery": "Delivery",
    "district": "KALLAKURICHI",
    "statename": "TAMIL NADU",
    "latitude": "11.7300000",
    "longitude": "79.0800000"
  },
  {
    "circlename": "Tamilnadu Circle",
    "regionname": "Central Region Trichirapalli",
    "divisionname": "Vriddhachalam Division",
    "officename": "Prithivimangalam B.O",
    "pincode": "606206",
    "officetype": "BO",
    "delivery": "Delivery",
    "district": "KALLAKURICHI",
    "statename": "TAMIL NADU",
    "latitude": "11.7400000",
    "longitude": "79.0500000"
  },
  {
    "circlename": "Tamilnadu Circle",
    "regionname": "Central Region Trichirapalli",
    "divisionname": "Vriddhachalam Division",
    "officename": "Veeracholapuram B.O",
    "pincode": "606206",
    "officetype": "BO",
    "delivery": "Delivery",
    "district": "KALLAKURICHI",
    "statename": "TAMIL NADU",
    "latitude": "11.7500000",
    "longitude": "79.0300000"
  },
  {
    "circlename": "Tamilnadu Circle",
    "regionname": "Central Region Trichirapalli",
    "divisionname": "Vriddhachalam Division",
    "officename": "Vilakkur B.O",
    "pincode": "606206",
    "officetype": "BO",
    "delivery": "Delivery",
    "district": "KALLAKURICHI",
    "statename": "TAMIL NADU",
    "latitude": "11.7200000",
    "longitude": "79.0800000"
  },
  {
    "circlename": "Tamilnadu Circle",
    "regionname": "Central Region Trichirapalli",
    "divisionname": "Vriddhachalam Division",
    "officename": "Anganur B.O",
    "pincode": "606107",
    "officetype": "BO",
    "delivery": "Delivery",
    "district": "KALLAKURICHI",
    "statename": "TAMIL NADU",
    "latitude": "11.7400000",
    "longitude": "79.2300000"
  },
  {
    "circlename": "Tamilnadu Circle",
    "regionname": "Central Region Trichirapalli",
    "divisionname": "Vriddhachalam Division",
    "officename": "Edaikkal B.O",
    "pincode": "606107",
    "officetype": "BO",
    "delivery": "Delivery",
    "district": "KALLAKURICHI",
    "statename": "TAMIL NADU",
    "latitude": "11.6700000",
    "longitude": "79.2700000"
  },
  {
    "circlename": "Tamilnadu Circle",
    "regionname": "Central Region Trichirapalli",
    "divisionname": "Vriddhachalam Division",
    "officename": "Kanaiyar B.O",
    "pincode": "606107",
    "officetype": "BO",
    "delivery": "Delivery",
    "district": "KALLAKURICHI",
    "statename": "TAMIL NADU",
    "latitude": "11.6800000",
    "longitude": "79.3500000"
  },
  {
    "circlename": "Tamilnadu Circle",
    "regionname": "Central Region Trichirapalli",
    "divisionname": "Vriddhachalam Division",
    "officename": "Puliyur B.O",
    "pincode": "606107",
    "officetype": "BO",
    "delivery": "Delivery",
    "district": "KALLAKURICHI",
    "statename": "TAMIL NADU",
    "latitude": "11.6600000",
    "longitude": "79.3500000"
  },
  {
    "circlename": "Tamilnadu Circle",
    "regionname": "Central Region Trichirapalli",
    "divisionname": "Vriddhachalam Division",
    "officename": "Vellaiyur B.O",
    "pincode": "606107",
    "officetype": "BO",
    "delivery": "Delivery",
    "district": "KALLAKURICHI",
    "statename": "TAMIL NADU",
    "latitude": "11.7200000",
    "longitude": "79.2400000"
  },
  {
    "circlename": "Tamilnadu Circle",
    "regionname": "Central Region Trichirapalli",
    "divisionname": "Vriddhachalam Division",
    "officename": "Madavacherry B.O",
    "pincode": "606207",
    "officetype": "BO",
    "delivery": "Delivery",
    "district": "KALLAKURICHI",
    "statename": "TAMIL NADU",
    "latitude": "11.7900000",
    "longitude": "78.8800000"
  },
  {
    "circlename": "Tamilnadu Circle",
    "regionname": "Central Region Trichirapalli",
    "divisionname": "Vriddhachalam Division",
    "officename": "Madhur B.O",
    "pincode": "606209",
    "officetype": "BO",
    "delivery": "Delivery",
    "district": "KALLAKURICHI",
    "statename": "TAMIL NADU",
    "latitude": "11.7600000",
    "longitude": "78.7200000"
  },
  {
    "circlename": "Tamilnadu Circle",
    "regionname": "Central Region Trichirapalli",
    "divisionname": "Vriddhachalam Division",
    "officename": "Pottiyam B.O",
    "pincode": "606207",
    "officetype": "BO",
    "delivery": "Delivery",
    "district": "KALLAKURICHI",
    "statename": "TAMIL NADU",
    "latitude": "11.8600000",
    "longitude": "78.8000000"
  },
  {
    "circlename": "Tamilnadu Circle",
    "regionname": "Central Region Trichirapalli",
    "divisionname": "Vriddhachalam Division",
    "officename": "Venkatampettai B.O",
    "pincode": "606207",
    "officetype": "BO",
    "delivery": "Delivery",
    "district": "KALLAKURICHI",
    "statename": "TAMIL NADU",
    "latitude": "11.7800000",
    "longitude": "78.8900000"
  },
  {
    "circlename": "Tamilnadu Circle",
    "regionname": "Central Region Trichirapalli",
    "divisionname": "Vriddhachalam Division",
    "officename": "Kottapudur B.O",
    "pincode": "606209",
    "officetype": "BO",
    "delivery": "Delivery",
    "district": "KALLAKURICHI",
    "statename": "TAMIL NADU",
    "latitude": "11.7600000",
    "longitude": "78.7100000"
  },
  {
    "circlename": "Tamilnadu Circle",
    "regionname": "Central Region Trichirapalli",
    "divisionname": "Vriddhachalam Division",
    "officename": "Mundiyur B.O",
    "pincode": "606209",
    "officetype": "BO",
    "delivery": "Delivery",
    "district": "KALLAKURICHI",
    "statename": "TAMIL NADU",
    "latitude": "11.7400000",
    "longitude": "78.7400000"
  },
  {
    "circlename": "Tamilnadu Circle",
    "regionname": "Central Region Trichirapalli",
    "divisionname": "Vriddhachalam Division",
    "officename": "Endal B.O",
    "pincode": "605801",
    "officetype": "BO",
    "delivery": "Delivery",
    "district": "KALLAKURICHI",
    "statename": "TAMIL NADU",
    "latitude": "11.9100000",
    "longitude": "79.0200000"
  },
  {
    "circlename": "Tamilnadu Circle",
    "regionname": "Central Region Trichirapalli",
    "divisionname": "Vriddhachalam Division",
    "officename": "Maiyanur B.O",
    "pincode": "605801",
    "officetype": "BO",
    "delivery": "Delivery",
    "district": "KALLAKURICHI",
    "statename": "TAMIL NADU",
    "latitude": "11.8800000",
    "longitude": "79.0100000"
  },
  {
    "circlename": "Tamilnadu Circle",
    "regionname": "Central Region Trichirapalli",
    "divisionname": "Vriddhachalam Division",
    "officename": "Periyakolliyur B.O",
    "pincode": "605801",
    "officetype": "BO",
    "delivery": "Delivery",
    "district": "KALLAKURICHI",
    "statename": "TAMIL NADU",
    "latitude": "11.9500000",
    "longitude": "78.9900000"
  },
  {
    "circlename": "Tamilnadu Circle",
    "regionname": "Central Region Trichirapalli",
    "divisionname": "Vriddhachalam Division",
    "officename": "Padiyandal B.O",
    "pincode": "605751",
    "officetype": "BO",
    "delivery": "Delivery",
    "district": "KALLAKURICHI",
    "statename": "TAMIL NADU",
    "latitude": "11.9000000",
    "longitude": "79.1200000"
  },
  {
    "circlename": "Tamilnadu Circle",
    "regionname": "Central Region Trichirapalli",
    "divisionname": "Vriddhachalam Division",
    "officename": "Keelathalanur B.O",
    "pincode": "605766",
    "officetype": "BO",
    "delivery": "Delivery",
    "district": "KALLAKURICHI",
    "statename": "TAMIL NADU",
    "latitude": "11.9200000",
    "longitude": "79.1900000"
  },
  {
    "circlename": "Tamilnadu Circle",
    "regionname": "Central Region Trichirapalli",
    "divisionname": "Vriddhachalam Division",
    "officename": "Madam B.O",
    "pincode": "605759",
    "officetype": "BO",
    "delivery": "Delivery",
    "district": "KALLAKURICHI",
    "statename": "TAMIL NADU",
    "latitude": "12.0100000",
    "longitude": "79.1600000"
  },
  {
    "circlename": "Tamilnadu Circle",
    "regionname": "Central Region Trichirapalli",
    "divisionname": "Vriddhachalam Division",
    "officename": "Kizakkumarudur B.O",
    "pincode": "607204",
    "officetype": "BO",
    "delivery": "Delivery",
    "district": "KALLAKURICHI",
    "statename": "TAMIL NADU",
    "latitude": "11.3800000",
    "longitude": "79.3700000"
  },
  {
    "circlename": "Tamilnadu Circle",
    "regionname": "Central Region Trichirapalli",
    "divisionname": "Vriddhachalam Division",
    "officename": "Parikkal B.O",
    "pincode": "607204",
    "officetype": "BO",
    "delivery": "Delivery",
    "district": "KALLAKURICHI",
    "statename": "TAMIL NADU",
    "latitude": "11.7900000",
    "longitude": "79.3700000"
  },
  {
    "circlename": "Tamilnadu Circle",
    "regionname": "Central Region Trichirapalli",
    "divisionname": "Vriddhachalam Division",
    "officename": "Periyakuppam B.O",
    "pincode": "607204",
    "officetype": "BO",
    "delivery": "Delivery",
    "district": "KALLAKURICHI",
    "statename": "TAMIL NADU",
    "latitude": "11.8200000",
    "longitude": "79.2100000"
  },
  {
    "circlename": "Tamilnadu Circle",
    "regionname": "Central Region Trichirapalli",
    "divisionname": "Vriddhachalam Division",
    "officename": "Elavanasur S.O",
    "pincode": "607202",
    "officetype": "PO",
    "delivery": "Delivery",
    "district": "KALLAKURICHI",
    "statename": "TAMIL NADU",
    "latitude": "11.7140278",
    "longitude": "79.1846111"
  },
  {
    "circlename": "Tamilnadu Circle",
    "regionname": "Central Region Trichirapalli",
    "divisionname": "Vriddhachalam Division",
    "officename": "Murarbad S.O",
    "pincode": "606208",
    "officetype": "PO",
    "delivery": "Delivery",
    "district": "KALLAKURICHI",
    "statename": "TAMIL NADU",
    "latitude": "11.8312220",
    "longitude": "78.9355190"
  },
  {
    "circlename": "Tamilnadu Circle",
    "regionname": "Central Region Trichirapalli",
    "divisionname": "Vriddhachalam Division",
    "officename": "Nagalur S.O",
    "pincode": "606203",
    "officetype": "PO",
    "delivery": "Delivery",
    "district": "KALLAKURICHI",
    "statename": "TAMIL NADU",
    "latitude": "11.9453889",
    "longitude": "79.4952500"
  },
  {
    "circlename": "Tamilnadu Circle",
    "regionname": "Central Region Trichirapalli",
    "divisionname": "Vriddhachalam Division",
    "officename": "Sankarapuram (Villupuram) S.O",
    "pincode": "606401",
    "officetype": "PO",
    "delivery": "Delivery",
    "district": "KALLAKURICHI",
    "statename": "TAMIL NADU",
    "latitude": "11.9453889",
    "longitude": "79.4952500"
  },
  {
    "circlename": "Tamilnadu Circle",
    "regionname": "Central Region Trichirapalli",
    "divisionname": "Vriddhachalam Division",
    "officename": "Tiyagadrug S.O",
    "pincode": "606206",
    "officetype": "PO",
    "delivery": "Delivery",
    "district": "KALLAKURICHI",
    "statename": "TAMIL NADU",
    "latitude": "11.7423611",
    "longitude": "79.0752500"
  },
  {
    "circlename": "Tamilnadu Circle",
    "regionname": "Central Region Trichirapalli",
    "divisionname": "Vriddhachalam Division",
    "officename": "Vadakkanandal S.O",
    "pincode": "606207",
    "officetype": "PO",
    "delivery": "Delivery",
    "district": "KALLAKURICHI",
    "statename": "TAMIL NADU",
    "latitude": "11.7762778",
    "longitude": "78.8608611"
  },
  {
    "circlename": "Tamilnadu Circle",
    "regionname": "Central Region Trichirapalli",
    "divisionname": "Vriddhachalam Division",
    "officename": "Ariyur S.O (Villupuram)",
    "pincode": "605751",
    "officetype": "PO",
    "delivery": "Delivery",
    "district": "KALLAKURICHI",
    "statename": "TAMIL NADU",
    "latitude": "11.9453889",
    "longitude": "79.4952500"
  },
  {
    "circlename": "Tamilnadu Circle",
    "regionname": "Central Region Trichirapalli",
    "divisionname": "Vriddhachalam Division",
    "officename": "Kadambur S.O (Villupuram)",
    "pincode": "605802",
    "officetype": "PO",
    "delivery": "Delivery",
    "district": "KALLAKURICHI",
    "statename": "TAMIL NADU",
    "latitude": "11.9453889",
    "longitude": "79.4952500"
  },
  {
    "circlename": "Tamilnadu Circle",
    "regionname": "Central Region Trichirapalli",
    "divisionname": "Vriddhachalam Division",
    "officename": "Parindal B.O",
    "pincode": "606305",
    "officetype": "BO",
    "delivery": "Delivery",
    "district": "KALLAKURICHI",
    "statename": "TAMIL NADU",
    "latitude": "11.6700000",
    "longitude": "79.1800000"
  },
  {
    "circlename": "Tamilnadu Circle",
    "regionname": "Central Region Trichirapalli",
    "divisionname": "Vriddhachalam Division",
    "officename": "Moongilpadi B.O",
    "pincode": "606201",
    "officetype": "BO",
    "delivery": "Delivery",
    "district": "KALLAKURICHI",
    "statename": "TAMIL NADU",
    "latitude": "11.6400000",
    "longitude": "78.8500000"
  },
  {
    "circlename": "Tamilnadu Circle",
    "regionname": "Central Region Trichirapalli",
    "divisionname": "Vriddhachalam Division",
    "officename": "Pandiyankuppam B.O",
    "pincode": "606201",
    "officetype": "BO",
    "delivery": "Delivery",
    "district": "KALLAKURICHI",
    "statename": "TAMIL NADU",
    "latitude": "11.6600000",
    "longitude": "78.8400000"
  },
  {
    "circlename": "Tamilnadu Circle",
    "regionname": "Central Region Trichirapalli",
    "divisionname": "Vriddhachalam Division",
    "officename": "Thengiyanatham B.O",
    "pincode": "606201",
    "officetype": "BO",
    "delivery": "Delivery",
    "district": "KALLAKURICHI",
    "statename": "TAMIL NADU",
    "latitude": "11.6100000",
    "longitude": "78.9800000"
  },
  {
    "circlename": "Tamilnadu Circle",
    "regionname": "Central Region Trichirapalli",
    "divisionname": "Vriddhachalam Division",
    "officename": "Pinnalavadi B.O",
    "pincode": "607202",
    "officetype": "BO",
    "delivery": "Delivery",
    "district": "KALLAKURICHI",
    "statename": "TAMIL NADU",
    "latitude": "11.7500000",
    "longitude": "79.1500000"
  },
  {
    "circlename": "Tamilnadu Circle",
    "regionname": "Central Region Trichirapalli",
    "divisionname": "Vriddhachalam Division",
    "officename": "Sembiamadevi B.O",
    "pincode": "607202",
    "officetype": "BO",
    "delivery": "Delivery",
    "district": "KALLAKURICHI",
    "statename": "TAMIL NADU",
    "latitude": "11.7200000",
    "longitude": "79.1800000"
  },
  {
    "circlename": "Tamilnadu Circle",
    "regionname": "Central Region Trichirapalli",
    "divisionname": "Vriddhachalam Division",
    "officename": "Adaiyur B.O",
    "pincode": "607201",
    "officetype": "BO",
    "delivery": "Delivery",
    "district": "KALLAKURICHI",
    "statename": "TAMIL NADU",
    "latitude": "11.7900000",
    "longitude": "79.1500000"
  },
  {
    "circlename": "Tamilnadu Circle",
    "regionname": "Central Region Trichirapalli",
    "divisionname": "Vriddhachalam Division",
    "officename": "Pallavadi B.O",
    "pincode": "607201",
    "officetype": "BO",
    "delivery": "Delivery",
    "district": "KALLAKURICHI",
    "statename": "TAMIL NADU",
    "latitude": "11.8200000",
    "longitude": "79.1700000"
  },
  {
    "circlename": "Tamilnadu Circle",
    "regionname": "Central Region Trichirapalli",
    "divisionname": "Vriddhachalam Division",
    "officename": "Nallathur B.O",
    "pincode": "606213",
    "officetype": "BO",
    "delivery": "Delivery",
    "district": "KALLAKURICHI",
    "statename": "TAMIL NADU",
    "latitude": "13.2700000",
    "longitude": "79.6500000"
  },
  {
    "circlename": "Tamilnadu Circle",
    "regionname": "Central Region Trichirapalli",
    "divisionname": "Vriddhachalam Division",
    "officename": "Irudayampattu B.O",
    "pincode": "605702",
    "officetype": "BO",
    "delivery": "Delivery",
    "district": "KALLAKURICHI",
    "statename": "TAMIL NADU",
    "latitude": "12.0200000",
    "longitude": "78.9900000"
  },
  {
    "circlename": "Tamilnadu Circle",
    "regionname": "Central Region Trichirapalli",
    "divisionname": "Vriddhachalam Division",
    "officename": "Vadaponparappi B.O",
    "pincode": "605702",
    "officetype": "BO",
    "delivery": "Delivery",
    "district": "KALLAKURICHI",
    "statename": "TAMIL NADU",
    "latitude": "12.0000000",
    "longitude": "78.9500000"
  },
  {
    "circlename": "Tamilnadu Circle",
    "regionname": "Central Region Trichirapalli",
    "divisionname": "Vriddhachalam Division",
    "officename": "Anumanandal B.O",
    "pincode": "606301",
    "officetype": "BO",
    "delivery": "Delivery",
    "district": "KALLAKURICHI",
    "statename": "TAMIL NADU",
    "latitude": "11.5800000",
    "longitude": "78.9400000"
  },
  {
    "circlename": "Tamilnadu Circle",
    "regionname": "Central Region Trichirapalli",
    "divisionname": "Vriddhachalam Division",
    "officename": "Karunthalakurichi B.O",
    "pincode": "606301",
    "officetype": "BO",
    "delivery": "Delivery",
    "district": "KALLAKURICHI",
    "statename": "TAMIL NADU",
    "latitude": "11.5400000",
    "longitude": "78.9100000"
  },
  {
    "circlename": "Tamilnadu Circle",
    "regionname": "Central Region Trichirapalli",
    "divisionname": "Vriddhachalam Division",
    "officename": "Pakkampadi B.O",
    "pincode": "606301",
    "officetype": "BO",
    "delivery": "Delivery",
    "district": "KALLAKURICHI",
    "statename": "TAMIL NADU",
    "latitude": "11.5600000",
    "longitude": "78.8400000"
  },
  {
    "circlename": "Tamilnadu Circle",
    "regionname": "Central Region Trichirapalli",
    "divisionname": "Vriddhachalam Division",
    "officename": "Thottapadi B.O",
    "pincode": "606301",
    "officetype": "BO",
    "delivery": "Delivery",
    "district": "KALLAKURICHI",
    "statename": "TAMIL NADU",
    "latitude": "11.6100000",
    "longitude": "78.8900000"
  },
  {
    "circlename": "Tamilnadu Circle",
    "regionname": "Central Region Trichirapalli",
    "divisionname": "Vriddhachalam Division",
    "officename": "Senkurichi B.O",
    "pincode": "606115",
    "officetype": "BO",
    "delivery": "Delivery",
    "district": "KALLAKURICHI",
    "statename": "TAMIL NADU",
    "latitude": "11.7100000",
    "longitude": "79.3300000"
  },
  {
    "circlename": "Tamilnadu Circle",
    "regionname": "Central Region Trichirapalli",
    "divisionname": "Vriddhachalam Division",
    "officename": "Ammakalathur B.O",
    "pincode": "606204",
    "officetype": "BO",
    "delivery": "Delivery",
    "district": "KALLAKURICHI",
    "statename": "TAMIL NADU",
    "latitude": "11.6000000",
    "longitude": "78.9700000"
  },
  {
    "circlename": "Tamilnadu Circle",
    "regionname": "Central Region Trichirapalli",
    "divisionname": "Vriddhachalam Division",
    "officename": "S. Ohaiyur B.O",
    "pincode": "606204",
    "officetype": "BO",
    "delivery": "Delivery",
    "district": "KALLAKURICHI",
    "statename": "TAMIL NADU",
    "latitude": "11.6200000",
    "longitude": "79.0300000"
  },
  {
    "circlename": "Tamilnadu Circle",
    "regionname": "Central Region Trichirapalli",
    "divisionname": "Vriddhachalam Division",
    "officename": "Thenthorasalur B.O",
    "pincode": "606204",
    "officetype": "BO",
    "delivery": "Delivery",
    "district": "KALLAKURICHI",
    "statename": "TAMIL NADU",
    "latitude": "11.6500000",
    "longitude": "78.9800000"
  },
  {
    "circlename": "Tamilnadu Circle",
    "regionname": "Central Region Trichirapalli",
    "divisionname": "Vriddhachalam Division",
    "officename": "Komalur B.O",
    "pincode": "606205",
    "officetype": "BO",
    "delivery": "Delivery",
    "district": "KALLAKURICHI",
    "statename": "TAMIL NADU",
    "latitude": "11.8900000",
    "longitude": "79.0900000"
  },
  {
    "circlename": "Tamilnadu Circle",
    "regionname": "Central Region Trichirapalli",
    "divisionname": "Vriddhachalam Division",
    "officename": "La  Gudalur B.O",
    "pincode": "606205",
    "officetype": "BO",
    "delivery": "Delivery",
    "district": "KALLAKURICHI",
    "statename": "TAMIL NADU",
    "latitude": "11.8000000",
    "longitude": "79.1200000"
  },
  {
    "circlename": "Tamilnadu Circle",
    "regionname": "Central Region Trichirapalli",
    "divisionname": "Vriddhachalam Division",
    "officename": "Munivalai B.O",
    "pincode": "606205",
    "officetype": "BO",
    "delivery": "Delivery",
    "district": "KALLAKURICHI",
    "statename": "TAMIL NADU",
    "latitude": "11.8400000",
    "longitude": "79.1100000"
  },
  {
    "circlename": "Tamilnadu Circle",
    "regionname": "Central Region Trichirapalli",
    "divisionname": "Vriddhachalam Division",
    "officename": "Nurolai B.O",
    "pincode": "606205",
    "officetype": "BO",
    "delivery": "Delivery",
    "district": "KALLAKURICHI",
    "statename": "TAMIL NADU",
    "latitude": "11.8500000",
    "longitude": "79.0300000"
  },
  {
    "circlename": "Tamilnadu Circle",
    "regionname": "Central Region Trichirapalli",
    "divisionname": "Vriddhachalam Division",
    "officename": "Kosapadi B.O",
    "pincode": "606401",
    "officetype": "BO",
    "delivery": "Delivery",
    "district": "KALLAKURICHI",
    "statename": "TAMIL NADU",
    "latitude": "11.8800000",
    "longitude": "78.8500000"
  },
  {
    "circlename": "Tamilnadu Circle",
    "regionname": "Central Region Trichirapalli",
    "divisionname": "Vriddhachalam Division",
    "officename": "Perumbur B.O",
    "pincode": "606401",
    "officetype": "BO",
    "delivery": "Delivery",
    "district": "KALLAKURICHI",
    "statename": "TAMIL NADU",
    "latitude": "11.9200000",
    "longitude": "78.8200000"
  },
  {
    "circlename": "Tamilnadu Circle",
    "regionname": "Central Region Trichirapalli",
    "divisionname": "Vriddhachalam Division",
    "officename": "Poykunam B.O",
    "pincode": "606401",
    "officetype": "BO",
    "delivery": "Delivery",
    "district": "KALLAKURICHI",
    "statename": "TAMIL NADU",
    "latitude": "11.8700000",
    "longitude": "78.8800000"
  },
  {
    "circlename": "Tamilnadu Circle",
    "regionname": "Central Region Trichirapalli",
    "divisionname": "Vriddhachalam Division",
    "officename": "Vellarikadu B.O",
    "pincode": "606401",
    "officetype": "BO",
    "delivery": "Delivery",
    "district": "KALLAKURICHI",
    "statename": "TAMIL NADU",
    "latitude": "11.8800000",
    "longitude": "78.7600000"
  },
  {
    "circlename": "Tamilnadu Circle",
    "regionname": "Central Region Trichirapalli",
    "divisionname": "Vriddhachalam Division",
    "officename": "Vengaivadi B.O",
    "pincode": "606206",
    "officetype": "BO",
    "delivery": "Delivery",
    "district": "KALLAKURICHI",
    "statename": "TAMIL NADU",
    "latitude": "11.6800000",
    "longitude": "79.1000000"
  },
  {
    "circlename": "Tamilnadu Circle",
    "regionname": "Central Region Trichirapalli",
    "divisionname": "Vriddhachalam Division",
    "officename": "Pu killanur B.O",
    "pincode": "606107",
    "officetype": "BO",
    "delivery": "Delivery",
    "district": "KALLAKURICHI",
    "statename": "TAMIL NADU",
    "latitude": "10.5500000",
    "longitude": "78.9000000"
  },
  {
    "circlename": "Tamilnadu Circle",
    "regionname": "Central Region Trichirapalli",
    "divisionname": "Vriddhachalam Division",
    "officename": "Eruvaipattinam B.O",
    "pincode": "606207",
    "officetype": "BO",
    "delivery": "Delivery",
    "district": "KALLAKURICHI",
    "statename": "TAMIL NADU",
    "latitude": "11.8400000",
    "longitude": "79.4300000"
  },
  {
    "circlename": "Tamilnadu Circle",
    "regionname": "Central Region Trichirapalli",
    "divisionname": "Vriddhachalam Division",
    "officename": "Kachirapalayam B.O",
    "pincode": "606207",
    "officetype": "BO",
    "delivery": "Non Delivery",
    "district": "KALLAKURICHI",
    "statename": "TAMIL NADU",
    "latitude": "11.7800000",
    "longitude": "78.8700000"
  },
  {
    "circlename": "Tamilnadu Circle",
    "regionname": "Central Region Trichirapalli",
    "divisionname": "Vriddhachalam Division",
    "officename": "Malliyapadi B.O",
    "pincode": "606207",
    "officetype": "BO",
    "delivery": "Delivery",
    "district": "KALLAKURICHI",
    "statename": "TAMIL NADU",
    "latitude": "11.7700000",
    "longitude": "78.7700000"
  },
  {
    "circlename": "Tamilnadu Circle",
    "regionname": "Central Region Trichirapalli",
    "divisionname": "Vriddhachalam Division",
    "officename": "Manmalai B.O",
    "pincode": "606207",
    "officetype": "BO",
    "delivery": "Delivery",
    "district": "KALLAKURICHI",
    "statename": "TAMIL NADU",
    "latitude": "11.8300000",
    "longitude": "78.8500000"
  },
  {
    "circlename": "Tamilnadu Circle",
    "regionname": "Central Region Trichirapalli",
    "divisionname": "Vriddhachalam Division",
    "officename": "Maniyampalayam B.O",
    "pincode": "606209",
    "officetype": "BO",
    "delivery": "Delivery",
    "district": "KALLAKURICHI",
    "statename": "TAMIL NADU",
    "latitude": "11.8800000",
    "longitude": "78.6700000"
  },
  {
    "circlename": "Tamilnadu Circle",
    "regionname": "Central Region Trichirapalli",
    "divisionname": "Vriddhachalam Division",
    "officename": "Thorangur BO",
    "pincode": "606209",
    "officetype": "BO",
    "delivery": "Delivery",
    "district": "KALLAKURICHI",
    "statename": "TAMIL NADU",
    "latitude": "78.696679000000003",
    "longitude": "11.703735"
  },
  {
    "circlename": "Tamilnadu Circle",
    "regionname": "Central Region Trichirapalli",
    "divisionname": "Vriddhachalam Division",
    "officename": "Kaduvanur B.O",
    "pincode": "605801",
    "officetype": "BO",
    "delivery": "Delivery",
    "district": "KALLAKURICHI",
    "statename": "TAMIL NADU",
    "latitude": "11.9400000",
    "longitude": "78.9500000"
  },
  {
    "circlename": "Tamilnadu Circle",
    "regionname": "Central Region Trichirapalli",
    "divisionname": "Vriddhachalam Division",
    "officename": "Eduthanur B.O",
    "pincode": "605802",
    "officetype": "BO",
    "delivery": "Delivery",
    "district": "KALLAKURICHI",
    "statename": "TAMIL NADU",
    "latitude": "11.960000000000001",
    "longitude": "79.030000000000001"
  },
  {
    "circlename": "Tamilnadu Circle",
    "regionname": "Central Region Trichirapalli",
    "divisionname": "Vriddhachalam Division",
    "officename": "Elayanarkuppam B.O",
    "pincode": "605802",
    "officetype": "BO",
    "delivery": "Delivery",
    "district": "KALLAKURICHI",
    "statename": "TAMIL NADU",
    "latitude": "11.98",
    "longitude": "79.019999999999996"
  },
  {
    "circlename": "Tamilnadu Circle",
    "regionname": "Central Region Trichirapalli",
    "divisionname": "Vriddhachalam Division",
    "officename": "Kazhumalam B.O",
    "pincode": "605754",
    "officetype": "BO",
    "delivery": "Delivery",
    "district": "KALLAKURICHI",
    "statename": "TAMIL NADU",
    "latitude": "11.9700000",
    "longitude": "79.1400000"
  },
  {
    "circlename": "Tamilnadu Circle",
    "regionname": "Central Region Trichirapalli",
    "divisionname": "Vriddhachalam Division",
    "officename": "Murukkambadi B.O",
    "pincode": "605754",
    "officetype": "BO",
    "delivery": "Delivery",
    "district": "KALLAKURICHI",
    "statename": "TAMIL NADU",
    "latitude": "12.0500000",
    "longitude": "79.0800000"
  },
  {
    "circlename": "Tamilnadu Circle",
    "regionname": "Central Region Trichirapalli",
    "divisionname": "Vriddhachalam Division",
    "officename": "Aruthangudi B.O",
    "pincode": "605766",
    "officetype": "BO",
    "delivery": "Delivery",
    "district": "KALLAKURICHI",
    "statename": "TAMIL NADU",
    "latitude": "11.9600000",
    "longitude": "79.0900000"
  },
  {
    "circlename": "Tamilnadu Circle",
    "regionname": "Central Region Trichirapalli",
    "divisionname": "Vriddhachalam Division",
    "officename": "T Athipakkam B.O",
    "pincode": "605759",
    "officetype": "BO",
    "delivery": "Delivery",
    "district": "KALLAKURICHI",
    "statename": "TAMIL NADU",
    "latitude": "11.8400000",
    "longitude": "79.2200000"
  },
  {
    "circlename": "Tamilnadu Circle",
    "regionname": "Central Region Trichirapalli",
    "divisionname": "Vriddhachalam Division",
    "officename": "Sendamangalam B.O",
    "pincode": "607204",
    "officetype": "BO",
    "delivery": "Delivery",
    "district": "KALLAKURICHI",
    "statename": "TAMIL NADU",
    "latitude": "11.3500000",
    "longitude": "79.3800000"
  },
  {
    "circlename": "Tamilnadu Circle",
    "regionname": "Central Region Trichirapalli",
    "divisionname": "Vriddhachalam Division",
    "officename": "Sendanadu B.O",
    "pincode": "607204",
    "officetype": "BO",
    "delivery": "Delivery",
    "district": "KALLAKURICHI",
    "statename": "TAMIL NADU",
    "latitude": "11.7200000",
    "longitude": "79.4100000"
  },
  {
    "circlename": "Tamilnadu Circle",
    "regionname": "Central Region Trichirapalli",
    "divisionname": "Cuddalore Division",
    "officename": "Somasipalayam B.O",
    "pincode": "607101",
    "officetype": "BO",
    "delivery": "Delivery",
    "district": "KALLAKURICHI",
    "statename": "TAMIL NADU",
    "latitude": "11.7600000",
    "longitude": "79.4600000"
  },
  {
    "circlename": "Tamilnadu Circle",
    "regionname": "Central Region Trichirapalli",
    "divisionname": "Vriddhachalam Division",
    "officename": "Kallakurichi South S.O",
    "pincode": "606213",
    "officetype": "PO",
    "delivery": "Delivery",
    "district": "KALLAKURICHI",
    "statename": "TAMIL NADU",
    "latitude": "11.9453889",
    "longitude": "79.4952500"
  },
  {
    "circlename": "Tamilnadu Circle",
    "regionname": "Central Region Trichirapalli",
    "divisionname": "Vriddhachalam Division",
    "officename": "Pandalam S.O (Villupuram)",
    "pincode": "606402",
    "officetype": "PO",
    "delivery": "Delivery",
    "district": "KALLAKURICHI",
    "statename": "TAMIL NADU",
    "latitude": "11.9453889",
    "longitude": "79.4952500"
  },
  {
    "circlename": "Tamilnadu Circle",
    "regionname": "Central Region Trichirapalli",
    "divisionname": "Vriddhachalam Division",
    "officename": "Rishivandiyam S.O",
    "pincode": "606205",
    "officetype": "PO",
    "delivery": "Delivery",
    "district": "KALLAKURICHI",
    "statename": "TAMIL NADU",
    "latitude": "11.8151389",
    "longitude": "79.0967222"
  },
  {
    "circlename": "Tamilnadu Circle",
    "regionname": "Central Region Trichirapalli",
    "divisionname": "Vriddhachalam Division",
    "officename": "Manalurpet S.O",
    "pincode": "605754",
    "officetype": "PO",
    "delivery": "Delivery",
    "district": "KALLAKURICHI",
    "statename": "TAMIL NADU",
    "latitude": "12.0008056",
    "longitude": "79.0905278"
  }
]