[
  {
    "circlename": "Tamilnadu Circle",
    "regionname": "Southern Region Madurai",
    "divisionname": "Kanniyakumari Division",
    "officename": "Therku Thamaraikulam B.O",
    "pincode": "629701",
    "officetype": "BO",
    "delivery": "Delivery",
    "district": "KANNIYAKUMARI",
    "statename": "TAMIL NADU",
    "latitude": "8.1300000",
    "longitude": "77.4800000"
  },
  {
    "circlename": "Tamilnadu Circle",
    "regionname": "Southern Region Madurai",
    "divisionname": "Kanniyakumari Division",
    "officename": "Anandanadarkudy B.O",
    "pincode": "629201",
    "officetype": "BO",
    "delivery": "Delivery",
    "district": "KANNIYAKUMARI",
    "statename": "TAMIL NADU",
    "latitude": "8.1500000",
    "longitude": "77.3800000"
  },
  {
    "circlename": "Tamilnadu Circle",
    "regionname": "Southern Region Madurai",
    "divisionname": "Kanniyakumari Division",
    "officename": "Santhapuram B.O",
    "pincode": "629201",
    "officetype": "BO",
    "delivery": "Delivery",
    "district": "KANNIYAKUMARI",
    "statename": "TAMIL NADU",
    "latitude": "8.1600000",
    "longitude": "77.3600000"
  },
  {
    "circlename": "Tamilnadu Circle",
    "regionname": "Southern Region Madurai",
    "divisionname": "Kanniyakumari Division",
    "officename": "Variyoor B.O",
    "pincode": "629401",
    "officetype": "BO",
    "delivery": "Delivery",
    "district": "KANNIYAKUMARI",
    "statename": "TAMIL NADU",
    "latitude": "8.1400000",
    "longitude": "77.5600000"
  },
  {
    "circlename": "Tamilnadu Circle",
    "regionname": "Southern Region Madurai",
    "divisionname": "Kanniyakumari Division",
    "officename": "Derisanamcope B.O",
    "pincode": "629851",
    "officetype": "BO",
    "delivery": "Non Delivery",
    "district": "KANNIYAKUMARI",
    "statename": "TAMIL NADU",
    "latitude": "8.2900000",
    "longitude": "77.4400000"
  },
  {
    "circlename": "Tamilnadu Circle",
    "regionname": "Southern Region Madurai",
    "divisionname": "Kanniyakumari Division",
    "officename": "Mathiasnagar B.O",
    "pincode": "629852",
    "officetype": "BO",
    "delivery": "Delivery",
    "district": "KANNIYAKUMARI",
    "statename": "TAMIL NADU",
    "latitude": "8.2700000",
    "longitude": "77.4300000"
  },
  {
    "circlename": "Tamilnadu Circle",
    "regionname": "Southern Region Madurai",
    "divisionname": "Kanniyakumari Division",
    "officename": "Pozhikkarai B.O",
    "pincode": "629501",
    "officetype": "BO",
    "delivery": "Delivery",
    "district": "KANNIYAKUMARI",
    "statename": "TAMIL NADU",
    "latitude": "8.1100000",
    "longitude": "77.4000000"
  },
  {
    "circlename": "Tamilnadu Circle",
    "regionname": "Southern Region Madurai",
    "divisionname": "Kanniyakumari Division",
    "officename": "Vivekanandapuram B.O",
    "pincode": "629702",
    "officetype": "BO",
    "delivery": "Non Delivery",
    "district": "KANNIYAKUMARI",
    "statename": "TAMIL NADU",
    "latitude": "8.1000000",
    "longitude": "77.5300000"
  },
  {
    "circlename": "Tamilnadu Circle",
    "regionname": "Southern Region Madurai",
    "divisionname": "Kanniyakumari Division",
    "officename": "Edalakudy B.O",
    "pincode": "629002",
    "officetype": "BO",
    "delivery": "Non Delivery",
    "district": "KANNIYAKUMARI",
    "statename": "TAMIL NADU",
    "latitude": "8.1600000",
    "longitude": "77.4500000"
  },
  {
    "circlename": "Tamilnadu Circle",
    "regionname": "Southern Region Madurai",
    "divisionname": "Kanniyakumari Division",
    "officename": "Irulappapuram B.O",
    "pincode": "629002",
    "officetype": "BO",
    "delivery": "Non Delivery",
    "district": "KANNIYAKUMARI",
    "statename": "TAMIL NADU",
    "latitude": "8.1600000",
    "longitude": "77.4400000"
  },
  {
    "circlename": "Tamilnadu Circle",
    "regionname": "Southern Region Madurai",
    "divisionname": "Kanniyakumari Division",
    "officename": "Potraiyadi B.O",
    "pincode": "629703",
    "officetype": "BO",
    "delivery": "Delivery",
    "district": "KANNIYAKUMARI",
    "statename": "TAMIL NADU",
    "latitude": "8.1300000",
    "longitude": "77.5100000"
  },
  {
    "circlename": "Tamilnadu Circle",
    "regionname": "Southern Region Madurai",
    "divisionname": "Kanniyakumari Division",
    "officename": "Kadiyapattanam B.O",
    "pincode": "629252",
    "officetype": "BO",
    "delivery": "Delivery",
    "district": "KANNIYAKUMARI",
    "statename": "TAMIL NADU",
    "latitude": "8.1600000",
    "longitude": "77.3300000"
  },
  {
    "circlename": "Tamilnadu Circle",
    "regionname": "Southern Region Madurai",
    "divisionname": "Kanniyakumari Division",
    "officename": "Mondaikad B.O",
    "pincode": "629252",
    "officetype": "BO",
    "delivery": "Delivery",
    "district": "KANNIYAKUMARI",
    "statename": "TAMIL NADU",
    "latitude": "8.1300000",
    "longitude": "77.5300000"
  },
  {
    "circlename": "Tamilnadu Circle",
    "regionname": "Southern Region Madurai",
    "divisionname": "Kanniyakumari Division",
    "officename": "Eraviputhur B.O",
    "pincode": "629402",
    "officetype": "BO",
    "delivery": "Delivery",
    "district": "KANNIYAKUMARI",
    "statename": "TAMIL NADU",
    "latitude": "8.1700000",
    "longitude": "77.5000000"
  },
  {
    "circlename": "Tamilnadu Circle",
    "regionname": "Southern Region Madurai",
    "divisionname": "Kanniyakumari Division",
    "officename": "Azhikkal B.O",
    "pincode": "629202",
    "officetype": "BO",
    "delivery": "Delivery",
    "district": "KANNIYAKUMARI",
    "statename": "TAMIL NADU",
    "latitude": "8.1300000",
    "longitude": "77.3400000"
  },
  {
    "circlename": "Tamilnadu Circle",
    "regionname": "Southern Region Madurai",
    "divisionname": "Kanniyakumari Division",
    "officename": "Nesamony Nagar B.O",
    "pincode": "629001",
    "officetype": "BO",
    "delivery": "Non Delivery",
    "district": "KANNIYAKUMARI",
    "statename": "TAMIL NADU",
    "latitude": "8.1800000",
    "longitude": "77.4000000"
  },
  {
    "circlename": "Tamilnadu Circle",
    "regionname": "Southern Region Madurai",
    "divisionname": "Kanniyakumari Division",
    "officename": "Kallukoottam B.O",
    "pincode": "629802",
    "officetype": "BO",
    "delivery": "Delivery",
    "district": "KANNIYAKUMARI",
    "statename": "TAMIL NADU",
    "latitude": "8.1900000",
    "longitude": "77.2900000"
  },
  {
    "circlename": "Tamilnadu Circle",
    "regionname": "Southern Region Madurai",
    "divisionname": "Kanniyakumari Division",
    "officename": "Sahayanagar B.O",
    "pincode": "629159",
    "officetype": "BO",
    "delivery": "Delivery",
    "district": "KANNIYAKUMARI",
    "statename": "TAMIL NADU",
    "latitude": "8.2200000",
    "longitude": "77.2600000"
  },
  {
    "circlename": "Tamilnadu Circle",
    "regionname": "Southern Region Madurai",
    "divisionname": "Kanniyakumari Division",
    "officename": "Kumaracoil B.O",
    "pincode": "629180",
    "officetype": "BO",
    "delivery": "Delivery",
    "district": "KANNIYAKUMARI",
    "statename": "TAMIL NADU",
    "latitude": "8.1900000",
    "longitude": "77.4000000"
  },
  {
    "circlename": "Tamilnadu Circle",
    "regionname": "Southern Region Madurai",
    "divisionname": "Kanniyakumari Division",
    "officename": "Chitharal B.O",
    "pincode": "629151",
    "officetype": "BO",
    "delivery": "Delivery",
    "district": "KANNIYAKUMARI",
    "statename": "TAMIL NADU",
    "latitude": "8.3400000",
    "longitude": "77.2500000"
  },
  {
    "circlename": "Tamilnadu Circle",
    "regionname": "Southern Region Madurai",
    "divisionname": "Kanniyakumari Division",
    "officename": "Ilanchirai B.O",
    "pincode": "629152",
    "officetype": "BO",
    "delivery": "Delivery",
    "district": "KANNIYAKUMARI",
    "statename": "TAMIL NADU",
    "latitude": "8.1800000",
    "longitude": "77.3800000"
  },
  {
    "circlename": "Tamilnadu Circle",
    "regionname": "Southern Region Madurai",
    "divisionname": "Kanniyakumari Division",
    "officename": "Malamary B.O",
    "pincode": "629152",
    "officetype": "BO",
    "delivery": "Delivery",
    "district": "KANNIYAKUMARI",
    "statename": "TAMIL NADU",
    "latitude": "8.3700000",
    "longitude": "77.3200000"
  },
  {
    "circlename": "Tamilnadu Circle",
    "regionname": "Southern Region Madurai",
    "divisionname": "Kanniyakumari Division",
    "officename": "Malayadi B.O",
    "pincode": "629153",
    "officetype": "BO",
    "delivery": "Delivery",
    "district": "KANNIYAKUMARI",
    "statename": "TAMIL NADU",
    "latitude": "8.3600000",
    "longitude": "77.1800000"
  },
  {
    "circlename": "Tamilnadu Circle",
    "regionname": "Southern Region Madurai",
    "divisionname": "Kanniyakumari Division",
    "officename": "Mullanginavilai B.O",
    "pincode": "629157",
    "officetype": "BO",
    "delivery": "Delivery",
    "district": "KANNIYAKUMARI",
    "statename": "TAMIL NADU",
    "latitude": "8.2500000",
    "longitude": "77.1600000"
  },
  {
    "circlename": "Tamilnadu Circle",
    "regionname": "Southern Region Madurai",
    "divisionname": "Kanniyakumari Division",
    "officename": "Theruvukadai B.O",
    "pincode": "629157",
    "officetype": "BO",
    "delivery": "Delivery",
    "district": "KANNIYAKUMARI",
    "statename": "TAMIL NADU",
    "latitude": "8.2300000",
    "longitude": "77.1800000"
  },
  {
    "circlename": "Tamilnadu Circle",
    "regionname": "Southern Region Madurai",
    "divisionname": "Kanniyakumari Division",
    "officename": "Enayam B.O",
    "pincode": "629193",
    "officetype": "BO",
    "delivery": "Delivery",
    "district": "KANNIYAKUMARI",
    "statename": "TAMIL NADU",
    "latitude": "8.2220000",
    "longitude": "77.1800000"
  },
  {
    "circlename": "Tamilnadu Circle",
    "regionname": "Southern Region Madurai",
    "divisionname": "Kanniyakumari Division",
    "officename": "Kirathur B.O",
    "pincode": "629160",
    "officetype": "BO",
    "delivery": "Delivery",
    "district": "KANNIYAKUMARI",
    "statename": "TAMIL NADU",
    "latitude": "8.2800000",
    "longitude": "77.1400000"
  },
  {
    "circlename": "Tamilnadu Circle",
    "regionname": "Southern Region Madurai",
    "divisionname": "Kanniyakumari Division",
    "officename": "Chittardam Colony B.O",
    "pincode": "629161",
    "officetype": "BO",
    "delivery": "Delivery",
    "district": "KANNIYAKUMARI",
    "statename": "TAMIL NADU",
    "latitude": "8.4700000",
    "longitude": "77.2800000"
  },
  {
    "circlename": "Tamilnadu Circle",
    "regionname": "Southern Region Madurai",
    "divisionname": "Kanniyakumari Division",
    "officename": "Pechchipparai B.O",
    "pincode": "629161",
    "officetype": "BO",
    "delivery": "Delivery",
    "district": "KANNIYAKUMARI",
    "statename": "TAMIL NADU",
    "latitude": "8.4500000",
    "longitude": "77.3000000"
  },
  {
    "circlename": "Tamilnadu Circle",
    "regionname": "Southern Region Madurai",
    "divisionname": "Kanniyakumari Division",
    "officename": "Ponmanai B.O",
    "pincode": "629161",
    "officetype": "BO",
    "delivery": "Delivery",
    "district": "KANNIYAKUMARI",
    "statename": "TAMIL NADU",
    "latitude": "8.3600000",
    "longitude": "77.3300000"
  },
  {
    "circlename": "Tamilnadu Circle",
    "regionname": "Southern Region Madurai",
    "divisionname": "Kanniyakumari Division",
    "officename": "Vendalicode B.O",
    "pincode": "629161",
    "officetype": "BO",
    "delivery": "Delivery",
    "district": "KANNIYAKUMARI",
    "statename": "TAMIL NADU",
    "latitude": "8.3500000",
    "longitude": "77.3100000"
  },
  {
    "circlename": "Tamilnadu Circle",
    "regionname": "Southern Region Madurai",
    "divisionname": "Kanniyakumari Division",
    "officename": "Gnaramvilai B.O",
    "pincode": "629165",
    "officetype": "BO",
    "delivery": "Non Delivery",
    "district": "KANNIYAKUMARI",
    "statename": "TAMIL NADU",
    "latitude": "8.3100000",
    "longitude": "77.2200000"
  },
  {
    "circlename": "Tamilnadu Circle",
    "regionname": "Southern Region Madurai",
    "divisionname": "Kanniyakumari Division",
    "officename": "Viricode B.O",
    "pincode": "629165",
    "officetype": "BO",
    "delivery": "Delivery",
    "district": "KANNIYAKUMARI",
    "statename": "TAMIL NADU",
    "latitude": "8.2200000",
    "longitude": "77.3200000"
  },
  {
    "circlename": "Tamilnadu Circle",
    "regionname": "Southern Region Madurai",
    "divisionname": "Kanniyakumari Division",
    "officename": "Kannumamoodu B.O",
    "pincode": "629170",
    "officetype": "BO",
    "delivery": "Delivery",
    "district": "KANNIYAKUMARI",
    "statename": "TAMIL NADU",
    "latitude": "8.3800000",
    "longitude": "77.1700000"
  },
  {
    "circlename": "Tamilnadu Circle",
    "regionname": "Southern Region Madurai",
    "divisionname": "Kanniyakumari Division",
    "officename": "Manivilai B.O",
    "pincode": "629170",
    "officetype": "BO",
    "delivery": "Delivery",
    "district": "KANNIYAKUMARI",
    "statename": "TAMIL NADU",
    "latitude": "8.3900000",
    "longitude": "77.1500000"
  },
  {
    "circlename": "Tamilnadu Circle",
    "regionname": "Southern Region Madurai",
    "divisionname": "Kanniyakumari Division",
    "officename": "Elavuvilai B.O",
    "pincode": "629171",
    "officetype": "BO",
    "delivery": "Delivery",
    "district": "KANNIYAKUMARI",
    "statename": "TAMIL NADU",
    "latitude": "8.2800000",
    "longitude": "77.2200000"
  },
  {
    "circlename": "Tamilnadu Circle",
    "regionname": "Southern Region Madurai",
    "divisionname": "Kanniyakumari Division",
    "officename": "Vencode B.O",
    "pincode": "629171",
    "officetype": "BO",
    "delivery": "Delivery",
    "district": "KANNIYAKUMARI",
    "statename": "TAMIL NADU",
    "latitude": "8.2600000",
    "longitude": "77.1900000"
  },
  {
    "circlename": "Tamilnadu Circle",
    "regionname": "Southern Region Madurai",
    "divisionname": "Kanniyakumari Division",
    "officename": "Methukummal B.O",
    "pincode": "629172",
    "officetype": "BO",
    "delivery": "Delivery",
    "district": "KANNIYAKUMARI",
    "statename": "TAMIL NADU",
    "latitude": "8.3100000",
    "longitude": "77.1600000"
  },
  {
    "circlename": "Tamilnadu Circle",
    "regionname": "Southern Region Madurai",
    "divisionname": "Kanniyakumari Division",
    "officename": "Painkulam B.O",
    "pincode": "629173",
    "officetype": "BO",
    "delivery": "Delivery",
    "district": "KANNIYAKUMARI",
    "statename": "TAMIL NADU",
    "latitude": "8.2600000",
    "longitude": "77.1700000"
  },
  {
    "circlename": "Tamilnadu Circle",
    "regionname": "Southern Region Madurai",
    "divisionname": "Kanniyakumari Division",
    "officename": "Vizhunthaiyambalam B.O",
    "pincode": "629173",
    "officetype": "BO",
    "delivery": "Delivery",
    "district": "KANNIYAKUMARI",
    "statename": "TAMIL NADU",
    "latitude": "8.2400000",
    "longitude": "77.1900000"
  },
  {
    "circlename": "Tamilnadu Circle",
    "regionname": "Southern Region Madurai",
    "divisionname": "Kanniyakumari Division",
    "officename": "Attur B.O",
    "pincode": "629177",
    "officetype": "BO",
    "delivery": "Delivery",
    "district": "KANNIYAKUMARI",
    "statename": "TAMIL NADU",
    "latitude": "8.3200000",
    "longitude": "77.2600000"
  },
  {
    "circlename": "Tamilnadu Circle",
    "regionname": "Southern Region Madurai",
    "divisionname": "Kanniyakumari Division",
    "officename": "Nagercoil H.O",
    "pincode": "629001",
    "officetype": "HO",
    "delivery": "Delivery",
    "district": "KANNIYAKUMARI",
    "statename": "TAMIL NADU",
    "latitude": "8.1863889",
    "longitude": "77.4314444"
  },
  {
    "circlename": "Tamilnadu Circle",
    "regionname": "Southern Region Madurai",
    "divisionname": "Kanniyakumari Division",
    "officename": "Asaripallam S.O",
    "pincode": "629201",
    "officetype": "PO",
    "delivery": "Delivery",
    "district": "KANNIYAKUMARI",
    "statename": "TAMIL NADU",
    "latitude": "8.1746667",
    "longitude": "77.3883056"
  },
  {
    "circlename": "Tamilnadu Circle",
    "regionname": "Southern Region Madurai",
    "divisionname": "Kanniyakumari Division",
    "officename": "Karankad S.O",
    "pincode": "629809",
    "officetype": "PO",
    "delivery": "Delivery",
    "district": "KANNIYAKUMARI",
    "statename": "TAMIL NADU",
    "latitude": "8.2007222",
    "longitude": "77.3477222"
  },
  {
    "circlename": "Tamilnadu Circle",
    "regionname": "Southern Region Madurai",
    "divisionname": "Kanniyakumari Division",
    "officename": "Nagercoil Collectorate S.O",
    "pincode": "629001",
    "officetype": "PO",
    "delivery": "Non Delivery",
    "district": "KANNIYAKUMARI",
    "statename": "TAMIL NADU",
    "latitude": "8.1957222",
    "longitude": "77.4266389"
  },
  {
    "circlename": "Tamilnadu Circle",
    "regionname": "Southern Region Madurai",
    "divisionname": "Kanniyakumari Division",
    "officename": "Nagercoil Town S.O",
    "pincode": "629001",
    "officetype": "PO",
    "delivery": "Non Delivery",
    "district": "KANNIYAKUMARI",
    "statename": "TAMIL NADU",
    "latitude": "8.1836667",
    "longitude": "77.4315278"
  },
  {
    "circlename": "Tamilnadu Circle",
    "regionname": "Southern Region Madurai",
    "divisionname": "Kanniyakumari Division",
    "officename": "Neyyoor West S.O",
    "pincode": "629803",
    "officetype": "PO",
    "delivery": "Delivery",
    "district": "KANNIYAKUMARI",
    "statename": "TAMIL NADU",
    "latitude": "8.1932500",
    "longitude": "77.2828900"
  },
  {
    "circlename": "Tamilnadu Circle",
    "regionname": "Southern Region Madurai",
    "divisionname": "Kanniyakumari Division",
    "officename": "Palapalam S.O",
    "pincode": "629159",
    "officetype": "PO",
    "delivery": "Delivery",
    "district": "KANNIYAKUMARI",
    "statename": "TAMIL NADU",
    "latitude": "8.2095000",
    "longitude": "77.2476667"
  },
  {
    "circlename": "Tamilnadu Circle",
    "regionname": "Southern Region Madurai",
    "divisionname": "Kanniyakumari Division",
    "officename": "Thickanamcode S.O",
    "pincode": "629804",
    "officetype": "PO",
    "delivery": "Delivery",
    "district": "KANNIYAKUMARI",
    "statename": "TAMIL NADU",
    "latitude": "8.2245556",
    "longitude": "77.2731667"
  },
  {
    "circlename": "Tamilnadu Circle",
    "regionname": "Southern Region Madurai",
    "divisionname": "Kanniyakumari Division",
    "officename": "Vadiveeswaram S.O",
    "pincode": "629001",
    "officetype": "PO",
    "delivery": "Non Delivery",
    "district": "KANNIYAKUMARI",
    "statename": "TAMIL NADU",
    "latitude": "8.1816944",
    "longitude": "77.4343889"
  },
  {
    "circlename": "Tamilnadu Circle",
    "regionname": "Southern Region Madurai",
    "divisionname": "Kanniyakumari Division",
    "officename": "Kanjampuram S.O",
    "pincode": "629154",
    "officetype": "PO",
    "delivery": "Delivery",
    "district": "KANNIYAKUMARI",
    "statename": "TAMIL NADU",
    "latitude": "8.2539722",
    "longitude": "77.2362222"
  },
  {
    "circlename": "Tamilnadu Circle",
    "regionname": "Southern Region Madurai",
    "divisionname": "Kanniyakumari Division",
    "officename": "Keezhkulam S.O",
    "pincode": "629193",
    "officetype": "PO",
    "delivery": "Delivery",
    "district": "KANNIYAKUMARI",
    "statename": "TAMIL NADU",
    "latitude": "8.2310278",
    "longitude": "77.1864444"
  },
  {
    "circlename": "Tamilnadu Circle",
    "regionname": "Southern Region Madurai",
    "divisionname": "Kanniyakumari Division",
    "officename": "Kuzhithurai S.O",
    "pincode": "629163",
    "officetype": "PO",
    "delivery": "Delivery",
    "district": "KANNIYAKUMARI",
    "statename": "TAMIL NADU",
    "latitude": "8.3157778",
    "longitude": "77.2059722"
  },
  {
    "circlename": "Tamilnadu Circle",
    "regionname": "Southern Region Madurai",
    "divisionname": "Kanniyakumari Division",
    "officename": "Manalikarai S.O",
    "pincode": "629164",
    "officetype": "PO",
    "delivery": "Delivery",
    "district": "KANNIYAKUMARI",
    "statename": "TAMIL NADU",
    "latitude": "8.2992222",
    "longitude": "77.3075833"
  },
  {
    "circlename": "Tamilnadu Circle",
    "regionname": "Southern Region Madurai",
    "divisionname": "Kanniyakumari Division",
    "officename": "Marthandam S.O",
    "pincode": "629165",
    "officetype": "PO",
    "delivery": "Delivery",
    "district": "KANNIYAKUMARI",
    "statename": "TAMIL NADU",
    "latitude": "8.3063333",
    "longitude": "77.2223333"
  },
  {
    "circlename": "Tamilnadu Circle",
    "regionname": "Southern Region Madurai",
    "divisionname": "Kanniyakumari Division",
    "officename": "Mettukadai S.O",
    "pincode": "629175",
    "officetype": "PO",
    "delivery": "Non Delivery",
    "district": "KANNIYAKUMARI",
    "statename": "TAMIL NADU",
    "latitude": "8.2448333",
    "longitude": "77.3165000"
  },
  {
    "circlename": "Tamilnadu Circle",
    "regionname": "Southern Region Madurai",
    "divisionname": "Kanniyakumari Division",
    "officename": "Pacode S.O",
    "pincode": "629168",
    "officetype": "PO",
    "delivery": "Delivery",
    "district": "KANNIYAKUMARI",
    "statename": "TAMIL NADU",
    "latitude": "8.4266111",
    "longitude": "77.2166389"
  },
  {
    "circlename": "Tamilnadu Circle",
    "regionname": "Southern Region Madurai",
    "divisionname": "Kanniyakumari Division",
    "officename": "Thiruvithancode S.O",
    "pincode": "629174",
    "officetype": "PO",
    "delivery": "Delivery",
    "district": "KANNIYAKUMARI",
    "statename": "TAMIL NADU",
    "latitude": "8.2395278",
    "longitude": "77.3010278"
  },
  {
    "circlename": "Tamilnadu Circle",
    "regionname": "Southern Region Madurai",
    "divisionname": "Kanniyakumari Division",
    "officename": "Kalpadi B.O",
    "pincode": "629204",
    "officetype": "BO",
    "delivery": "Delivery",
    "district": "KANNIYAKUMARI",
    "statename": "TAMIL NADU",
    "latitude": "8.1700000",
    "longitude": "77.3200000"
  },
  {
    "circlename": "Tamilnadu Circle",
    "regionname": "Southern Region Madurai",
    "divisionname": "Kanniyakumari Division",
    "officename": "Chenbagaramanputhur B.O",
    "pincode": "629301",
    "officetype": "BO",
    "delivery": "Delivery",
    "district": "KANNIYAKUMARI",
    "statename": "TAMIL NADU",
    "latitude": "8.2400000",
    "longitude": "77.4900000"
  },
  {
    "circlename": "Tamilnadu Circle",
    "regionname": "Southern Region Madurai",
    "divisionname": "Kanniyakumari Division",
    "officename": "Maramalai B.O",
    "pincode": "629851",
    "officetype": "BO",
    "delivery": "Delivery",
    "district": "KANNIYAKUMARI",
    "statename": "TAMIL NADU",
    "latitude": "8.4400000",
    "longitude": "77.4100000"
  },
  {
    "circlename": "Tamilnadu Circle",
    "regionname": "Southern Region Madurai",
    "divisionname": "Kanniyakumari Division",
    "officename": "Thadikarankonam B.O",
    "pincode": "629851",
    "officetype": "BO",
    "delivery": "Delivery",
    "district": "KANNIYAKUMARI",
    "statename": "TAMIL NADU",
    "latitude": "8.3300000",
    "longitude": "77.4200000"
  },
  {
    "circlename": "Tamilnadu Circle",
    "regionname": "Southern Region Madurai",
    "divisionname": "Kanniyakumari Division",
    "officename": "Mangavilai B.O",
    "pincode": "629501",
    "officetype": "BO",
    "delivery": "Delivery",
    "district": "KANNIYAKUMARI",
    "statename": "TAMIL NADU",
    "latitude": "8.1200000",
    "longitude": "77.4000000"
  },
  {
    "circlename": "Tamilnadu Circle",
    "regionname": "Southern Region Madurai",
    "divisionname": "Kanniyakumari Division",
    "officename": "Rajakkamangalamthurai B.O",
    "pincode": "629501",
    "officetype": "BO",
    "delivery": "Delivery",
    "district": "KANNIYAKUMARI",
    "statename": "TAMIL NADU",
    "latitude": "8.1200000",
    "longitude": "77.3800000"
  },
  {
    "circlename": "Tamilnadu Circle",
    "regionname": "Southern Region Madurai",
    "divisionname": "Kanniyakumari Division",
    "officename": "South Soorankudy B.O",
    "pincode": "629501",
    "officetype": "BO",
    "delivery": "Delivery",
    "district": "KANNIYAKUMARI",
    "statename": "TAMIL NADU",
    "latitude": "8.1300000",
    "longitude": "77.4100000"
  },
  {
    "circlename": "Tamilnadu Circle",
    "regionname": "Southern Region Madurai",
    "divisionname": "Kanniyakumari Division",
    "officename": "Kovalam B.O",
    "pincode": "629702",
    "officetype": "BO",
    "delivery": "Delivery",
    "district": "KANNIYAKUMARI",
    "statename": "TAMIL NADU",
    "latitude": "8.0800000",
    "longitude": "77.5300000"
  },
  {
    "circlename": "Tamilnadu Circle",
    "regionname": "Southern Region Madurai",
    "divisionname": "Kanniyakumari Division",
    "officename": "Mahadanapuram B.O",
    "pincode": "629702",
    "officetype": "BO",
    "delivery": "Delivery",
    "district": "KANNIYAKUMARI",
    "statename": "TAMIL NADU",
    "latitude": "8.1100000",
    "longitude": "77.5400000"
  },
  {
    "circlename": "Tamilnadu Circle",
    "regionname": "Southern Region Madurai",
    "divisionname": "Kanniyakumari Division",
    "officename": "Azhakamparai B.O",
    "pincode": "629252",
    "officetype": "BO",
    "delivery": "Delivery",
    "district": "KANNIYAKUMARI",
    "statename": "TAMIL NADU",
    "latitude": "8.1000000",
    "longitude": "77.4000000"
  },
  {
    "circlename": "Tamilnadu Circle",
    "regionname": "Southern Region Madurai",
    "divisionname": "Kanniyakumari Division",
    "officename": "Thalakulam B.O",
    "pincode": "629802",
    "officetype": "BO",
    "delivery": "Delivery",
    "district": "KANNIYAKUMARI",
    "statename": "TAMIL NADU",
    "latitude": "8.1800000",
    "longitude": "77.3200000"
  },
  {
    "circlename": "Tamilnadu Circle",
    "regionname": "Southern Region Madurai",
    "divisionname": "Kanniyakumari Division",
    "officename": "Ritapuram B.O",
    "pincode": "629159",
    "officetype": "BO",
    "delivery": "Delivery",
    "district": "KANNIYAKUMARI",
    "statename": "TAMIL NADU",
    "latitude": "8.1900000",
    "longitude": "77.2500000"
  },
  {
    "circlename": "Tamilnadu Circle",
    "regionname": "Southern Region Madurai",
    "divisionname": "Kanniyakumari Division",
    "officename": "Sasthankcoilvilai B.O",
    "pincode": "629704",
    "officetype": "BO",
    "delivery": "Delivery",
    "district": "KANNIYAKUMARI",
    "statename": "TAMIL NADU",
    "latitude": "8.1200000",
    "longitude": "77.4900000"
  },
  {
    "circlename": "Tamilnadu Circle",
    "regionname": "Southern Region Madurai",
    "divisionname": "Kanniyakumari Division",
    "officename": "Chunkankadai B.O",
    "pincode": "629003",
    "officetype": "BO",
    "delivery": "Delivery",
    "district": "KANNIYAKUMARI",
    "statename": "TAMIL NADU",
    "latitude": "8.2000000",
    "longitude": "77.3800000"
  },
  {
    "circlename": "Tamilnadu Circle",
    "regionname": "Southern Region Madurai",
    "divisionname": "Kanniyakumari Division",
    "officename": "Cheruvallur B.O",
    "pincode": "629152",
    "officetype": "BO",
    "delivery": "Delivery",
    "district": "KANNIYAKUMARI",
    "statename": "TAMIL NADU",
    "latitude": "8.4000000",
    "longitude": "77.2000000"
  },
  {
    "circlename": "Tamilnadu Circle",
    "regionname": "Southern Region Madurai",
    "divisionname": "Kanniyakumari Division",
    "officename": "Mancode B.O",
    "pincode": "629152",
    "officetype": "BO",
    "delivery": "Delivery",
    "district": "KANNIYAKUMARI",
    "statename": "TAMIL NADU",
    "latitude": "8.2300000",
    "longitude": "77.2800000"
  },
  {
    "circlename": "Tamilnadu Circle",
    "regionname": "Southern Region Madurai",
    "divisionname": "Kanniyakumari Division",
    "officename": "Ramavarmanchirai B.O",
    "pincode": "629152",
    "officetype": "BO",
    "delivery": "Delivery",
    "district": "KANNIYAKUMARI",
    "statename": "TAMIL NADU",
    "latitude": "8.3900000",
    "longitude": "77.1700000"
  },
  {
    "circlename": "Tamilnadu Circle",
    "regionname": "Southern Region Madurai",
    "divisionname": "Kanniyakumari Division",
    "officename": "Adaikkakuzhi B.O",
    "pincode": "629153",
    "officetype": "BO",
    "delivery": "Delivery",
    "district": "KANNIYAKUMARI",
    "statename": "TAMIL NADU",
    "latitude": "8.3300000",
    "longitude": "77.1400000"
  },
  {
    "circlename": "Tamilnadu Circle",
    "regionname": "Southern Region Madurai",
    "divisionname": "Kanniyakumari Division",
    "officename": "Chathancode B.O",
    "pincode": "629153",
    "officetype": "BO",
    "delivery": "Delivery",
    "district": "KANNIYAKUMARI",
    "statename": "TAMIL NADU",
    "latitude": "8.3300000",
    "longitude": "77.1400000"
  },
  {
    "circlename": "Tamilnadu Circle",
    "regionname": "Southern Region Madurai",
    "divisionname": "Kanniyakumari Division",
    "officename": "Meenachel B.O",
    "pincode": "629153",
    "officetype": "BO",
    "delivery": "Delivery",
    "district": "KANNIYAKUMARI",
    "statename": "TAMIL NADU",
    "latitude": "8.3400000",
    "longitude": "77.1800000"
  },
  {
    "circlename": "Tamilnadu Circle",
    "regionname": "Southern Region Madurai",
    "divisionname": "Kanniyakumari Division",
    "officename": "Mulankuzhi B.O",
    "pincode": "629162",
    "officetype": "BO",
    "delivery": "Delivery",
    "district": "KANNIYAKUMARI",
    "statename": "TAMIL NADU",
    "latitude": "8.2900000",
    "longitude": "77.2100000"
  },
  {
    "circlename": "Tamilnadu Circle",
    "regionname": "Southern Region Madurai",
    "divisionname": "Kanniyakumari Division",
    "officename": "Maruthurkurichi B.O",
    "pincode": "629158",
    "officetype": "BO",
    "delivery": "Delivery",
    "district": "KANNIYAKUMARI",
    "statename": "TAMIL NADU",
    "latitude": "8.2700000",
    "longitude": "77.2600000"
  },
  {
    "circlename": "Tamilnadu Circle",
    "regionname": "Southern Region Madurai",
    "divisionname": "Kanniyakumari Division",
    "officename": "Manalodai B.O",
    "pincode": "629161",
    "officetype": "BO",
    "delivery": "Delivery",
    "district": "KANNIYAKUMARI",
    "statename": "TAMIL NADU",
    "latitude": "7.8000000",
    "longitude": "8.6600000"
  },
  {
    "circlename": "Tamilnadu Circle",
    "regionname": "Southern Region Madurai",
    "divisionname": "Kanniyakumari Division",
    "officename": "Maruthencode B.O",
    "pincode": "629163",
    "officetype": "BO",
    "delivery": "Delivery",
    "district": "KANNIYAKUMARI",
    "statename": "TAMIL NADU",
    "latitude": "8.3400000",
    "longitude": "77.2000000"
  },
  {
    "circlename": "Tamilnadu Circle",
    "regionname": "Southern Region Madurai",
    "divisionname": "Kanniyakumari Division",
    "officename": "Thiruthuvapuram B.O",
    "pincode": "629163",
    "officetype": "BO",
    "delivery": "Non Delivery",
    "district": "KANNIYAKUMARI",
    "statename": "TAMIL NADU",
    "latitude": "8.2400000",
    "longitude": "77.2500000"
  },
  {
    "circlename": "Tamilnadu Circle",
    "regionname": "Southern Region Madurai",
    "divisionname": "Kanniyakumari Division",
    "officename": "Chemparuthivilai B.O",
    "pincode": "629166",
    "officetype": "BO",
    "delivery": "Delivery",
    "district": "KANNIYAKUMARI",
    "statename": "TAMIL NADU",
    "latitude": "8.2900000",
    "longitude": "77.3100000"
  },
  {
    "circlename": "Tamilnadu Circle",
    "regionname": "Southern Region Madurai",
    "divisionname": "Kanniyakumari Division",
    "officename": "Kozhiporvilai B.O",
    "pincode": "629167",
    "officetype": "BO",
    "delivery": "Non Delivery",
    "district": "KANNIYAKUMARI",
    "statename": "TAMIL NADU",
    "latitude": "8.2500000",
    "longitude": "77.2900000"
  },
  {
    "circlename": "Tamilnadu Circle",
    "regionname": "Southern Region Madurai",
    "divisionname": "Kanniyakumari Division",
    "officename": "Anducode B.O",
    "pincode": "629168",
    "officetype": "BO",
    "delivery": "Delivery",
    "district": "KANNIYAKUMARI",
    "statename": "TAMIL NADU",
    "latitude": "8.3500000",
    "longitude": "77.2200000"
  },
  {
    "circlename": "Tamilnadu Circle",
    "regionname": "Southern Region Madurai",
    "divisionname": "Kanniyakumari Division",
    "officename": "Poothurai B.O",
    "pincode": "629176",
    "officetype": "BO",
    "delivery": "Delivery",
    "district": "KANNIYAKUMARI",
    "statename": "TAMIL NADU",
    "latitude": "8.2600000",
    "longitude": "77.1500000"
  },
  {
    "circlename": "Tamilnadu Circle",
    "regionname": "Southern Region Madurai",
    "divisionname": "Kanniyakumari Division",
    "officename": "Aloor S.O",
    "pincode": "629801",
    "officetype": "PO",
    "delivery": "Delivery",
    "district": "KANNIYAKUMARI",
    "statename": "TAMIL NADU",
    "latitude": "8.1945556",
    "longitude": "77.3630833"
  },
  {
    "circlename": "Tamilnadu Circle",
    "regionname": "Southern Region Madurai",
    "divisionname": "Kanniyakumari Division",
    "officename": "Azhakappapuram S.O",
    "pincode": "629401",
    "officetype": "PO",
    "delivery": "Delivery",
    "district": "KANNIYAKUMARI",
    "statename": "TAMIL NADU",
    "latitude": "8.1472778",
    "longitude": "77.5406667"
  },
  {
    "circlename": "Tamilnadu Circle",
    "regionname": "Southern Region Madurai",
    "divisionname": "Kanniyakumari Division",
    "officename": "Colachel S.O",
    "pincode": "629251",
    "officetype": "PO",
    "delivery": "Delivery",
    "district": "KANNIYAKUMARI",
    "statename": "TAMIL NADU",
    "latitude": "8.1803889",
    "longitude": "77.2615556"
  },
  {
    "circlename": "Tamilnadu Circle",
    "regionname": "Southern Region Madurai",
    "divisionname": "Kanniyakumari Division",
    "officename": "Eathamozhi S.O",
    "pincode": "629501",
    "officetype": "PO",
    "delivery": "Delivery",
    "district": "KANNIYAKUMARI",
    "statename": "TAMIL NADU",
    "latitude": "8.1213056",
    "longitude": "77.4746667"
  },
  {
    "circlename": "Tamilnadu Circle",
    "regionname": "Southern Region Madurai",
    "divisionname": "Kanniyakumari Division",
    "officename": "Friday Market S.O",
    "pincode": "629203",
    "officetype": "PO",
    "delivery": "Delivery",
    "district": "KANNIYAKUMARI",
    "statename": "TAMIL NADU",
    "latitude": "8.1516389",
    "longitude": "77.3367778"
  },
  {
    "circlename": "Tamilnadu Circle",
    "regionname": "Southern Region Madurai",
    "divisionname": "Kanniyakumari Division",
    "officename": "Ganapathipuram S.O",
    "pincode": "629502",
    "officetype": "PO",
    "delivery": "Delivery",
    "district": "KANNIYAKUMARI",
    "statename": "TAMIL NADU",
    "latitude": "8.1316700",
    "longitude": "77.3572800"
  },
  {
    "circlename": "Tamilnadu Circle",
    "regionname": "Southern Region Madurai",
    "divisionname": "Kanniyakumari Division",
    "officename": "Manavalakurichi S.O",
    "pincode": "629252",
    "officetype": "PO",
    "delivery": "Delivery",
    "district": "KANNIYAKUMARI",
    "statename": "TAMIL NADU",
    "latitude": "8.1463056",
    "longitude": "77.3044167"
  },
  {
    "circlename": "Tamilnadu Circle",
    "regionname": "Southern Region Madurai",
    "divisionname": "Kanniyakumari Division",
    "officename": "Muttom S.O",
    "pincode": "629202",
    "officetype": "PO",
    "delivery": "Delivery",
    "district": "KANNIYAKUMARI",
    "statename": "TAMIL NADU",
    "latitude": "8.1228056",
    "longitude": "77.3170000"
  },
  {
    "circlename": "Tamilnadu Circle",
    "regionname": "Southern Region Madurai",
    "divisionname": "Kanniyakumari Division",
    "officename": "Neyyoor S.O",
    "pincode": "629802",
    "officetype": "PO",
    "delivery": "Delivery",
    "district": "KANNIYAKUMARI",
    "statename": "TAMIL NADU",
    "latitude": "8.2030000",
    "longitude": "77.3055833"
  },
  {
    "circlename": "Tamilnadu Circle",
    "regionname": "Southern Region Madurai",
    "divisionname": "Kanniyakumari Division",
    "officename": "Oluganacheri S.O",
    "pincode": "629001",
    "officetype": "PO",
    "delivery": "Non Delivery",
    "district": "KANNIYAKUMARI",
    "statename": "TAMIL NADU",
    "latitude": "8.1901667",
    "longitude": "77.4380278"
  },
  {
    "circlename": "Tamilnadu Circle",
    "regionname": "Southern Region Madurai",
    "divisionname": "Kanniyakumari Division",
    "officename": "Thazhakudy S.O",
    "pincode": "629901",
    "officetype": "PO",
    "delivery": "Delivery",
    "district": "KANNIYAKUMARI",
    "statename": "TAMIL NADU",
    "latitude": "8.2436667",
    "longitude": "77.4525278"
  },
  {
    "circlename": "Tamilnadu Circle",
    "regionname": "Southern Region Madurai",
    "divisionname": "Kanniyakumari Division",
    "officename": "Vadasery S.O",
    "pincode": "629001",
    "officetype": "PO",
    "delivery": "Non Delivery",
    "district": "KANNIYAKUMARI",
    "statename": "TAMIL NADU",
    "latitude": "8.1938611",
    "longitude": "77.4333611"
  },
  {
    "circlename": "Tamilnadu Circle",
    "regionname": "Southern Region Madurai",
    "divisionname": "Kanniyakumari Division",
    "officename": "Villukuri S.O",
    "pincode": "629180",
    "officetype": "PO",
    "delivery": "Delivery",
    "district": "KANNIYAKUMARI",
    "statename": "TAMIL NADU",
    "latitude": "8.2246944",
    "longitude": "77.3510556"
  },
  {
    "circlename": "Tamilnadu Circle",
    "regionname": "Southern Region Madurai",
    "divisionname": "Kanniyakumari Division",
    "officename": "Kappukadu S.O",
    "pincode": "629162",
    "officetype": "PO",
    "delivery": "Delivery",
    "district": "KANNIYAKUMARI",
    "statename": "TAMIL NADU",
    "latitude": "8.2996944",
    "longitude": "77.2033333"
  },
  {
    "circlename": "Tamilnadu Circle",
    "regionname": "Southern Region Madurai",
    "divisionname": "Kanniyakumari Division",
    "officename": "Kollangodu S.O",
    "pincode": "629160",
    "officetype": "PO",
    "delivery": "Delivery",
    "district": "KANNIYAKUMARI",
    "statename": "TAMIL NADU",
    "latitude": "8.3023333",
    "longitude": "77.1217778"
  },
  {
    "circlename": "Tamilnadu Circle",
    "regionname": "Southern Region Madurai",
    "divisionname": "Kanniyakumari Division",
    "officename": "Mekkamandapam S.O",
    "pincode": "629166",
    "officetype": "PO",
    "delivery": "Delivery",
    "district": "KANNIYAKUMARI",
    "statename": "TAMIL NADU",
    "latitude": "8.2822222",
    "longitude": "77.2988889"
  },
  {
    "circlename": "Tamilnadu Circle",
    "regionname": "Southern Region Madurai",
    "divisionname": "Kanniyakumari Division",
    "officename": "Pudukadai S.O",
    "pincode": "629171",
    "officetype": "PO",
    "delivery": "Delivery",
    "district": "KANNIYAKUMARI",
    "statename": "TAMIL NADU",
    "latitude": "8.2801111",
    "longitude": "77.1789722"
  },
  {
    "circlename": "Tamilnadu Circle",
    "regionname": "Southern Region Madurai",
    "divisionname": "Kanniyakumari Division",
    "officename": "S.T.Mankad S.O",
    "pincode": "629172",
    "officetype": "PO",
    "delivery": "Delivery",
    "district": "KANNIYAKUMARI",
    "statename": "TAMIL NADU",
    "latitude": "8.2930556",
    "longitude": "77.1695556"
  },
  {
    "circlename": "Tamilnadu Circle",
    "regionname": "Southern Region Madurai",
    "divisionname": "Kanniyakumari Division",
    "officename": "Kumarapuram B.O",
    "pincode": "629301",
    "officetype": "BO",
    "delivery": "Delivery",
    "district": "KANNIYAKUMARI",
    "statename": "TAMIL NADU",
    "latitude": "8.2500000",
    "longitude": "77.5700000"
  },
  {
    "circlename": "Tamilnadu Circle",
    "regionname": "Southern Region Madurai",
    "divisionname": "Kanniyakumari Division",
    "officename": "Anjugramam B.O",
    "pincode": "629401",
    "officetype": "BO",
    "delivery": "Delivery",
    "district": "KANNIYAKUMARI",
    "statename": "TAMIL NADU",
    "latitude": "8.1500000",
    "longitude": "77.5700000"
  },
  {
    "circlename": "Tamilnadu Circle",
    "regionname": "Southern Region Madurai",
    "divisionname": "Kanniyakumari Division",
    "officename": "Andirapuram B.O",
    "pincode": "629851",
    "officetype": "BO",
    "delivery": "Delivery",
    "district": "KANNIYAKUMARI",
    "statename": "TAMIL NADU",
    "latitude": "8.3000000",
    "longitude": "77.4300000"
  },
  {
    "circlename": "Tamilnadu Circle",
    "regionname": "Southern Region Madurai",
    "divisionname": "Kanniyakumari Division",
    "officename": "Palkulam B.O",
    "pincode": "629851",
    "officetype": "BO",
    "delivery": "Delivery",
    "district": "KANNIYAKUMARI",
    "statename": "TAMIL NADU",
    "latitude": "8.3500000",
    "longitude": "77.4100000"
  },
  {
    "circlename": "Tamilnadu Circle",
    "regionname": "Southern Region Madurai",
    "divisionname": "Kanniyakumari Division",
    "officename": "Ratnapuram B.O",
    "pincode": "629851",
    "officetype": "BO",
    "delivery": "Delivery",
    "district": "KANNIYAKUMARI",
    "statename": "TAMIL NADU",
    "latitude": "8.3000000",
    "longitude": "77.4700000"
  },
  {
    "circlename": "Tamilnadu Circle",
    "regionname": "Southern Region Madurai",
    "divisionname": "Kanniyakumari Division",
    "officename": "Keeriparai B.O",
    "pincode": "629851",
    "officetype": "BO",
    "delivery": "Delivery",
    "district": "KANNIYAKUMARI",
    "statename": "TAMIL NADU",
    "latitude": "8.3900000",
    "longitude": "77.4100000"
  },
  {
    "circlename": "Tamilnadu Circle",
    "regionname": "Southern Region Madurai",
    "divisionname": "Kanniyakumari Division",
    "officename": "Tittivilai B.O",
    "pincode": "629852",
    "officetype": "BO",
    "delivery": "Non Delivery",
    "district": "KANNIYAKUMARI",
    "statename": "TAMIL NADU",
    "latitude": "8.2700000",
    "longitude": "77.4400000"
  },
  {
    "circlename": "Tamilnadu Circle",
    "regionname": "Southern Region Madurai",
    "divisionname": "Kanniyakumari Division",
    "officename": "Putheri B.O",
    "pincode": "629001",
    "officetype": "BO",
    "delivery": "Non Delivery",
    "district": "KANNIYAKUMARI",
    "statename": "TAMIL NADU",
    "latitude": "8.2100000",
    "longitude": "77.4300000"
  },
  {
    "circlename": "Tamilnadu Circle",
    "regionname": "Southern Region Madurai",
    "divisionname": "Kanniyakumari Division",
    "officename": "Kurumpanai B.O",
    "pincode": "629251",
    "officetype": "BO",
    "delivery": "Delivery",
    "district": "KANNIYAKUMARI",
    "statename": "TAMIL NADU",
    "latitude": "8.2300000",
    "longitude": "77.4300000"
  },
  {
    "circlename": "Tamilnadu Circle",
    "regionname": "Southern Region Madurai",
    "divisionname": "Kanniyakumari Division",
    "officename": "Vaniyakudi B.O",
    "pincode": "629251",
    "officetype": "BO",
    "delivery": "Delivery",
    "district": "KANNIYAKUMARI",
    "statename": "TAMIL NADU",
    "latitude": "8.1800000",
    "longitude": "77.2700000"
  },
  {
    "circlename": "Tamilnadu Circle",
    "regionname": "Southern Region Madurai",
    "divisionname": "Kanniyakumari Division",
    "officename": "Monikettipottal B.O",
    "pincode": "629501",
    "officetype": "BO",
    "delivery": "Delivery",
    "district": "KANNIYAKUMARI",
    "statename": "TAMIL NADU",
    "latitude": "8.1300000",
    "longitude": "77.4200000"
  },
  {
    "circlename": "Tamilnadu Circle",
    "regionname": "Southern Region Madurai",
    "divisionname": "Kanniyakumari Division",
    "officename": "Saral Agasteeswaram B.O",
    "pincode": "629203",
    "officetype": "BO",
    "delivery": "Delivery",
    "district": "KANNIYAKUMARI",
    "statename": "TAMIL NADU",
    "latitude": "8.1700000",
    "longitude": "77.3500000"
  },
  {
    "circlename": "Tamilnadu Circle",
    "regionname": "Southern Region Madurai",
    "divisionname": "Kanniyakumari Division",
    "officename": "Rajakkamangalam B.O",
    "pincode": "629502",
    "officetype": "BO",
    "delivery": "Delivery",
    "district": "KANNIYAKUMARI",
    "statename": "TAMIL NADU",
    "latitude": "8.1300000",
    "longitude": "77.3700000"
  },
  {
    "circlename": "Tamilnadu Circle",
    "regionname": "Southern Region Madurai",
    "divisionname": "Kanniyakumari Division",
    "officename": "Santhaiyadi B.O",
    "pincode": "629703",
    "officetype": "BO",
    "delivery": "Delivery",
    "district": "KANNIYAKUMARI",
    "statename": "TAMIL NADU",
    "latitude": "8.1100000",
    "longitude": "77.5100000"
  },
  {
    "circlename": "Tamilnadu Circle",
    "regionname": "Southern Region Madurai",
    "divisionname": "Kanniyakumari Division",
    "officename": "Kumarapuramthoppur B.O",
    "pincode": "629402",
    "officetype": "BO",
    "delivery": "Delivery",
    "district": "KANNIYAKUMARI",
    "statename": "TAMIL NADU",
    "latitude": "8.1800000",
    "longitude": "77.1500000"
  },
  {
    "circlename": "Tamilnadu Circle",
    "regionname": "Southern Region Madurai",
    "divisionname": "Kanniyakumari Division",
    "officename": "Kulasekharapuram B.O",
    "pincode": "629403",
    "officetype": "BO",
    "delivery": "Delivery",
    "district": "KANNIYAKUMARI",
    "statename": "TAMIL NADU",
    "latitude": "8.1500000",
    "longitude": "77.4900000"
  },
  {
    "circlename": "Tamilnadu Circle",
    "regionname": "Southern Region Madurai",
    "divisionname": "Kanniyakumari Division",
    "officename": "Erumbukadu B.O",
    "pincode": "629004",
    "officetype": "BO",
    "delivery": "Delivery",
    "district": "KANNIYAKUMARI",
    "statename": "TAMIL NADU",
    "latitude": "8.1500000",
    "longitude": "77.3900000"
  },
  {
    "circlename": "Tamilnadu Circle",
    "regionname": "Southern Region Madurai",
    "divisionname": "Kanniyakumari Division",
    "officename": "Alancode B.O",
    "pincode": "629802",
    "officetype": "BO",
    "delivery": "Delivery",
    "district": "KANNIYAKUMARI",
    "statename": "TAMIL NADU",
    "latitude": "8.2300000",
    "longitude": "77.3000000"
  },
  {
    "circlename": "Tamilnadu Circle",
    "regionname": "Southern Region Madurai",
    "divisionname": "Kanniyakumari Division",
    "officename": "Kurunthencode B.O",
    "pincode": "629802",
    "officetype": "BO",
    "delivery": "Delivery",
    "district": "KANNIYAKUMARI",
    "statename": "TAMIL NADU",
    "latitude": "8.1800000",
    "longitude": "77.3400000"
  },
  {
    "circlename": "Tamilnadu Circle",
    "regionname": "Southern Region Madurai",
    "divisionname": "Kanniyakumari Division",
    "officename": "Bethelpuram B.O",
    "pincode": "629803",
    "officetype": "BO",
    "delivery": "Delivery",
    "district": "KANNIYAKUMARI",
    "statename": "TAMIL NADU",
    "latitude": "8.2000000",
    "longitude": "77.2800000"
  },
  {
    "circlename": "Tamilnadu Circle",
    "regionname": "Southern Region Madurai",
    "divisionname": "Kanniyakumari Division",
    "officename": "Krishnancoil B.O",
    "pincode": "629001",
    "officetype": "BO",
    "delivery": "Non Delivery",
    "district": "KANNIYAKUMARI",
    "statename": "TAMIL NADU",
    "latitude": "8.2100000",
    "longitude": "77.4200000"
  },
  {
    "circlename": "Tamilnadu Circle",
    "regionname": "Southern Region Madurai",
    "divisionname": "Kanniyakumari Division",
    "officename": "Melakrishnanputhur B.O",
    "pincode": "629601",
    "officetype": "BO",
    "delivery": "Delivery",
    "district": "KANNIYAKUMARI",
    "statename": "TAMIL NADU",
    "latitude": "8.1100000",
    "longitude": "77.4300000"
  },
  {
    "circlename": "Tamilnadu Circle",
    "regionname": "Southern Region Madurai",
    "divisionname": "Kanniyakumari Division",
    "officename": "Thirupathisaram B.O",
    "pincode": "629901",
    "officetype": "BO",
    "delivery": "Delivery",
    "district": "KANNIYAKUMARI",
    "statename": "TAMIL NADU",
    "latitude": "8.2100000",
    "longitude": "77.4500000"
  },
  {
    "circlename": "Tamilnadu Circle",
    "regionname": "Southern Region Madurai",
    "divisionname": "Kanniyakumari Division",
    "officename": "Kaniyakulam B.O",
    "pincode": "629003",
    "officetype": "BO",
    "delivery": "Delivery",
    "district": "KANNIYAKUMARI",
    "statename": "TAMIL NADU",
    "latitude": "8.2000000",
    "longitude": "77.4000000"
  },
  {
    "circlename": "Tamilnadu Circle",
    "regionname": "Southern Region Madurai",
    "divisionname": "Kanniyakumari Division",
    "officename": "Manjalumoodu B.O",
    "pincode": "629151",
    "officetype": "BO",
    "delivery": "Delivery",
    "district": "KANNIYAKUMARI",
    "statename": "TAMIL NADU",
    "latitude": "8.3800000",
    "longitude": "77.2200000"
  },
  {
    "circlename": "Tamilnadu Circle",
    "regionname": "Southern Region Madurai",
    "divisionname": "Kanniyakumari Division",
    "officename": "Sooriacode B.O",
    "pincode": "629153",
    "officetype": "BO",
    "delivery": "Delivery",
    "district": "KANNIYAKUMARI",
    "statename": "TAMIL NADU",
    "latitude": "8.3100000",
    "longitude": "77.1600000"
  },
  {
    "circlename": "Tamilnadu Circle",
    "regionname": "Southern Region Madurai",
    "divisionname": "Kanniyakumari Division",
    "officename": "Pottetty B.O",
    "pincode": "629157",
    "officetype": "BO",
    "delivery": "Delivery",
    "district": "KANNIYAKUMARI",
    "statename": "TAMIL NADU",
    "latitude": "8.2300000",
    "longitude": "77.2100000"
  },
  {
    "circlename": "Tamilnadu Circle",
    "regionname": "Southern Region Madurai",
    "divisionname": "Kanniyakumari Division",
    "officename": "Eravipudurkadai B.O",
    "pincode": "629158",
    "officetype": "BO",
    "delivery": "Non Delivery",
    "district": "KANNIYAKUMARI",
    "statename": "TAMIL NADU",
    "latitude": "8.2900000",
    "longitude": "77.2600000"
  },
  {
    "circlename": "Tamilnadu Circle",
    "regionname": "Southern Region Madurai",
    "divisionname": "Kanniyakumari Division",
    "officename": "Kannanore B.O",
    "pincode": "629158",
    "officetype": "BO",
    "delivery": "Delivery",
    "district": "KANNIYAKUMARI",
    "statename": "TAMIL NADU",
    "latitude": "8.2900000",
    "longitude": "77.2900000"
  },
  {
    "circlename": "Tamilnadu Circle",
    "regionname": "Southern Region Madurai",
    "divisionname": "Kanniyakumari Division",
    "officename": "Marthandamthurai B.O",
    "pincode": "629160",
    "officetype": "BO",
    "delivery": "Non Delivery",
    "district": "KANNIYAKUMARI",
    "statename": "TAMIL NADU",
    "latitude": "8.2500000",
    "longitude": "77.2800000"
  },
  {
    "circlename": "Tamilnadu Circle",
    "regionname": "Southern Region Madurai",
    "divisionname": "Kanniyakumari Division",
    "officename": "Urambu B.O",
    "pincode": "629160",
    "officetype": "BO",
    "delivery": "Non Delivery",
    "district": "KANNIYAKUMARI",
    "statename": "TAMIL NADU",
    "latitude": "8.2300000",
    "longitude": "77.2600000"
  },
  {
    "circlename": "Tamilnadu Circle",
    "regionname": "Southern Region Madurai",
    "divisionname": "Kanniyakumari Division",
    "officename": "Cherupallur B.O",
    "pincode": "629161",
    "officetype": "BO",
    "delivery": "Delivery",
    "district": "KANNIYAKUMARI",
    "statename": "TAMIL NADU",
    "latitude": "8.3500000",
    "longitude": "77.2900000"
  },
  {
    "circlename": "Tamilnadu Circle",
    "regionname": "Southern Region Madurai",
    "divisionname": "Kanniyakumari Division",
    "officename": "Maniankuzhi B.O",
    "pincode": "629161",
    "officetype": "BO",
    "delivery": "Delivery",
    "district": "KANNIYAKUMARI",
    "statename": "TAMIL NADU",
    "latitude": "8.4300000",
    "longitude": "77.4100000"
  },
  {
    "circlename": "Tamilnadu Circle",
    "regionname": "Southern Region Madurai",
    "divisionname": "Kanniyakumari Division",
    "officename": "Thiruvarambu B.O",
    "pincode": "629161",
    "officetype": "BO",
    "delivery": "Delivery",
    "district": "KANNIYAKUMARI",
    "statename": "TAMIL NADU",
    "latitude": "8.3600000",
    "longitude": "77.2600000"
  },
  {
    "circlename": "Tamilnadu Circle",
    "regionname": "Southern Region Madurai",
    "divisionname": "Kanniyakumari Division",
    "officename": "Thumbode B.O",
    "pincode": "629161",
    "officetype": "BO",
    "delivery": "Non Delivery",
    "district": "KANNIYAKUMARI",
    "statename": "TAMIL NADU",
    "latitude": "8.3800000",
    "longitude": "77.3000000"
  },
  {
    "circlename": "Tamilnadu Circle",
    "regionname": "Southern Region Madurai",
    "divisionname": "Kanniyakumari Division",
    "officename": "Madichel B.O",
    "pincode": "629163",
    "officetype": "BO",
    "delivery": "Delivery",
    "district": "KANNIYAKUMARI",
    "statename": "TAMIL NADU",
    "latitude": "8.3200000",
    "longitude": "77.1900000"
  },
  {
    "circlename": "Tamilnadu Circle",
    "regionname": "Southern Region Madurai",
    "divisionname": "Kanniyakumari Division",
    "officename": "Mukkampala B.O",
    "pincode": "629164",
    "officetype": "BO",
    "delivery": "Delivery",
    "district": "KANNIYAKUMARI",
    "statename": "TAMIL NADU",
    "latitude": "8.2900000",
    "longitude": "77.3000000"
  },
  {
    "circlename": "Tamilnadu Circle",
    "regionname": "Southern Region Madurai",
    "divisionname": "Kanniyakumari Division",
    "officename": "Velimalai B.O",
    "pincode": "629164",
    "officetype": "BO",
    "delivery": "Delivery",
    "district": "KANNIYAKUMARI",
    "statename": "TAMIL NADU",
    "latitude": "8.3000000",
    "longitude": "77.3500000"
  },
  {
    "circlename": "Tamilnadu Circle",
    "regionname": "Southern Region Madurai",
    "divisionname": "Kanniyakumari Division",
    "officename": "Nallur marthandam B.O",
    "pincode": "629165",
    "officetype": "BO",
    "delivery": "Non Delivery",
    "district": "KANNIYAKUMARI",
    "statename": "TAMIL NADU",
    "latitude": "8.3000000",
    "longitude": "77.2200000"
  },
  {
    "circlename": "Tamilnadu Circle",
    "regionname": "Southern Region Madurai",
    "divisionname": "Kanniyakumari Division",
    "officename": "Kallankuzhi B.O",
    "pincode": "629166",
    "officetype": "BO",
    "delivery": "Delivery",
    "district": "KANNIYAKUMARI",
    "statename": "TAMIL NADU",
    "latitude": "8.3000000",
    "longitude": "77.3000000"
  },
  {
    "circlename": "Tamilnadu Circle",
    "regionname": "Southern Region Madurai",
    "divisionname": "Kanniyakumari Division",
    "officename": "Mulachel B.O",
    "pincode": "629175",
    "officetype": "BO",
    "delivery": "Non Delivery",
    "district": "KANNIYAKUMARI",
    "statename": "TAMIL NADU",
    "latitude": "8.2600000",
    "longitude": "77.3100000"
  },
  {
    "circlename": "Tamilnadu Circle",
    "regionname": "Southern Region Madurai",
    "divisionname": "Kanniyakumari Division",
    "officename": "Kuzhicode B.O",
    "pincode": "629167",
    "officetype": "BO",
    "delivery": "Delivery",
    "district": "KANNIYAKUMARI",
    "statename": "TAMIL NADU",
    "latitude": "8.2600000",
    "longitude": "77.2700000"
  },
  {
    "circlename": "Tamilnadu Circle",
    "regionname": "Southern Region Madurai",
    "divisionname": "Kanniyakumari Division",
    "officename": "Puliyurkurichi B.O",
    "pincode": "629175",
    "officetype": "BO",
    "delivery": "Non Delivery",
    "district": "KANNIYAKUMARI",
    "statename": "TAMIL NADU",
    "latitude": "8.2400000",
    "longitude": "77.3400000"
  },
  {
    "circlename": "Tamilnadu Circle",
    "regionname": "Southern Region Madurai",
    "divisionname": "Kanniyakumari Division",
    "officename": "Thuckalay H.O",
    "pincode": "629175",
    "officetype": "HO",
    "delivery": "Delivery",
    "district": "KANNIYAKUMARI",
    "statename": "TAMIL NADU",
    "latitude": "8.2415833",
    "longitude": "77.3220833"
  },
  {
    "circlename": "Tamilnadu Circle",
    "regionname": "Southern Region Madurai",
    "divisionname": "Kanniyakumari Division",
    "officename": "Agasteeswaram S.O",
    "pincode": "629701",
    "officetype": "PO",
    "delivery": "Delivery",
    "district": "KANNIYAKUMARI",
    "statename": "TAMIL NADU",
    "latitude": "8.0984400",
    "longitude": "77.5195000"
  },
  {
    "circlename": "Tamilnadu Circle",
    "regionname": "Southern Region Madurai",
    "divisionname": "Kanniyakumari Division",
    "officename": "Aralvaymoli S.O",
    "pincode": "629301",
    "officetype": "PO",
    "delivery": "Delivery",
    "district": "KANNIYAKUMARI",
    "statename": "TAMIL NADU",
    "latitude": "8.7988611",
    "longitude": "77.5214167"
  },
  {
    "circlename": "Tamilnadu Circle",
    "regionname": "Southern Region Madurai",
    "divisionname": "Kanniyakumari Division",
    "officename": "Azhakiapandipuram S.O",
    "pincode": "629851",
    "officetype": "PO",
    "delivery": "Delivery",
    "district": "KANNIYAKUMARI",
    "statename": "TAMIL NADU",
    "latitude": "8.3016944",
    "longitude": "77.4432500"
  },
  {
    "circlename": "Tamilnadu Circle",
    "regionname": "Southern Region Madurai",
    "divisionname": "Kanniyakumari Division",
    "officename": "Mayiladi S.O",
    "pincode": "629403",
    "officetype": "PO",
    "delivery": "Delivery",
    "district": "KANNIYAKUMARI",
    "statename": "TAMIL NADU",
    "latitude": "8.1537778",
    "longitude": "77.5068889"
  },
  {
    "circlename": "Tamilnadu Circle",
    "regionname": "Southern Region Madurai",
    "divisionname": "Kanniyakumari Division",
    "officename": "Nagercoil West S.O",
    "pincode": "629001",
    "officetype": "PO",
    "delivery": "Non Delivery",
    "district": "KANNIYAKUMARI",
    "statename": "TAMIL NADU",
    "latitude": "8.1815833",
    "longitude": "77.4168056"
  },
  {
    "circlename": "Tamilnadu Circle",
    "regionname": "Southern Region Madurai",
    "divisionname": "Kanniyakumari Division",
    "officename": "Puthalam S.O",
    "pincode": "629602",
    "officetype": "PO",
    "delivery": "Delivery",
    "district": "KANNIYAKUMARI",
    "statename": "TAMIL NADU",
    "latitude": "8.1076944",
    "longitude": "77.4650000"
  },
  {
    "circlename": "Tamilnadu Circle",
    "regionname": "Southern Region Madurai",
    "divisionname": "Kanniyakumari Division",
    "officename": "Idaikkode S.O",
    "pincode": "629152",
    "officetype": "PO",
    "delivery": "Delivery",
    "district": "KANNIYAKUMARI",
    "statename": "TAMIL NADU",
    "latitude": "8.3681667",
    "longitude": "77.1977778"
  },
  {
    "circlename": "Tamilnadu Circle",
    "regionname": "Southern Region Madurai",
    "divisionname": "Kanniyakumari Division",
    "officename": "Karinkal S.O",
    "pincode": "629157",
    "officetype": "PO",
    "delivery": "Delivery",
    "district": "KANNIYAKUMARI",
    "statename": "TAMIL NADU",
    "latitude": "8.2382778",
    "longitude": "77.2401111"
  },
  {
    "circlename": "Tamilnadu Circle",
    "regionname": "Southern Region Madurai",
    "divisionname": "Kanniyakumari Division",
    "officename": "Kattathurai S.O",
    "pincode": "629158",
    "officetype": "PO",
    "delivery": "Delivery",
    "district": "KANNIYAKUMARI",
    "statename": "TAMIL NADU",
    "latitude": "8.2814722",
    "longitude": "77.2745556"
  },
  {
    "circlename": "Tamilnadu Circle",
    "regionname": "Southern Region Madurai",
    "divisionname": "Kanniyakumari Division",
    "officename": "Kodayarkilthangal S.O",
    "pincode": "629102",
    "officetype": "PO",
    "delivery": "Delivery",
    "district": "KANNIYAKUMARI",
    "statename": "TAMIL NADU",
    "latitude": "8.5160556",
    "longitude": "77.3161111"
  },
  {
    "circlename": "Tamilnadu Circle",
    "regionname": "Southern Region Madurai",
    "divisionname": "Kanniyakumari Division",
    "officename": "Kulasekharam S.O",
    "pincode": "629161",
    "officetype": "PO",
    "delivery": "Delivery",
    "district": "KANNIYAKUMARI",
    "statename": "TAMIL NADU",
    "latitude": "8.3676111",
    "longitude": "77.2984167"
  },
  {
    "circlename": "Tamilnadu Circle",
    "regionname": "Southern Region Madurai",
    "divisionname": "Kanniyakumari Division",
    "officename": "Marthandam North S.O",
    "pincode": "629165",
    "officetype": "PO",
    "delivery": "Non Delivery",
    "district": "KANNIYAKUMARI",
    "statename": "TAMIL NADU",
    "latitude": "8.3132222",
    "longitude": "77.2246389"
  },
  {
    "circlename": "Tamilnadu Circle",
    "regionname": "Southern Region Madurai",
    "divisionname": "Kanniyakumari Division",
    "officename": "Mulagumoodu S.O",
    "pincode": "629167",
    "officetype": "PO",
    "delivery": "Delivery",
    "district": "KANNIYAKUMARI",
    "statename": "TAMIL NADU",
    "latitude": "8.2608056",
    "longitude": "77.2862778"
  },
  {
    "circlename": "Tamilnadu Circle",
    "regionname": "Southern Region Madurai",
    "divisionname": "Kanniyakumari Division",
    "officename": "Padmanabhapuram Fort S.O",
    "pincode": "629175",
    "officetype": "PO",
    "delivery": "Non Delivery",
    "district": "KANNIYAKUMARI",
    "statename": "TAMIL NADU",
    "latitude": "NA",
    "longitude": "NA"
  },
  {
    "circlename": "Tamilnadu Circle",
    "regionname": "Southern Region Madurai",
    "divisionname": "Kanniyakumari Division",
    "officename": "Palliyadi S.O",
    "pincode": "629169",
    "officetype": "PO",
    "delivery": "Delivery",
    "district": "KANNIYAKUMARI",
    "statename": "TAMIL NADU",
    "latitude": "8.2732778",
    "longitude": "77.2492778"
  },
  {
    "circlename": "Tamilnadu Circle",
    "regionname": "Southern Region Madurai",
    "divisionname": "Kanniyakumari Division",
    "officename": "Palukal S.O",
    "pincode": "629170",
    "officetype": "PO",
    "delivery": "Delivery",
    "district": "KANNIYAKUMARI",
    "statename": "TAMIL NADU",
    "latitude": "8.3688056",
    "longitude": "77.1661667"
  },
  {
    "circlename": "Tamilnadu Circle",
    "regionname": "Southern Region Madurai",
    "divisionname": "Kanniyakumari Division",
    "officename": "Thuthur S.O",
    "pincode": "629176",
    "officetype": "PO",
    "delivery": "Delivery",
    "district": "KANNIYAKUMARI",
    "statename": "TAMIL NADU",
    "latitude": "8.2605000",
    "longitude": "77.1431944"
  },
  {
    "circlename": "Tamilnadu Circle",
    "regionname": "Southern Region Madurai",
    "divisionname": "Kanniyakumari Division",
    "officename": "Udayamarthandam S.O",
    "pincode": "629178",
    "officetype": "PO",
    "delivery": "Delivery",
    "district": "KANNIYAKUMARI",
    "statename": "TAMIL NADU",
    "latitude": "8.2067500",
    "longitude": "77.2165278"
  },
  {
    "circlename": "Tamilnadu Circle",
    "regionname": "Southern Region Madurai",
    "divisionname": "Kanniyakumari Division",
    "officename": "Unnamalakada S.O",
    "pincode": "629179",
    "officetype": "PO",
    "delivery": "Delivery",
    "district": "KANNIYAKUMARI",
    "statename": "TAMIL NADU",
    "latitude": "8.3078889",
    "longitude": "77.2403889"
  },
  {
    "circlename": "Tamilnadu Circle",
    "regionname": "Southern Region Madurai",
    "divisionname": "Kanniyakumari Division",
    "officename": "Kattimancode B.O",
    "pincode": "629801",
    "officetype": "BO",
    "delivery": "Delivery",
    "district": "KANNIYAKUMARI",
    "statename": "TAMIL NADU",
    "latitude": "8.2000000",
    "longitude": "77.3600000"
  },
  {
    "circlename": "Tamilnadu Circle",
    "regionname": "Southern Region Madurai",
    "divisionname": "Kanniyakumari Division",
    "officename": "James Town B.O",
    "pincode": "629401",
    "officetype": "BO",
    "delivery": "Delivery",
    "district": "KANNIYAKUMARI",
    "statename": "TAMIL NADU",
    "latitude": "8.1500000",
    "longitude": "77.5600000"
  },
  {
    "circlename": "Tamilnadu Circle",
    "regionname": "Southern Region Madurai",
    "divisionname": "Kanniyakumari Division",
    "officename": "Pottakulam B.O",
    "pincode": "629401",
    "officetype": "BO",
    "delivery": "Delivery",
    "district": "KANNIYAKUMARI",
    "statename": "TAMIL NADU",
    "latitude": "8.1400000",
    "longitude": "77.5300000"
  },
  {
    "circlename": "Tamilnadu Circle",
    "regionname": "Southern Region Madurai",
    "divisionname": "Kanniyakumari Division",
    "officename": "Kannattuvilai B.O",
    "pincode": "629802",
    "officetype": "BO",
    "delivery": "Delivery",
    "district": "KANNIYAKUMARI",
    "statename": "TAMIL NADU",
    "latitude": "8.2200000",
    "longitude": "77.3200000"
  },
  {
    "circlename": "Tamilnadu Circle",
    "regionname": "Southern Region Madurai",
    "divisionname": "Kanniyakumari Division",
    "officename": "Lekshmipuram B.O",
    "pincode": "629802",
    "officetype": "BO",
    "delivery": "Delivery",
    "district": "KANNIYAKUMARI",
    "statename": "TAMIL NADU",
    "latitude": "8.1800000",
    "longitude": "77.2800000"
  },
  {
    "circlename": "Tamilnadu Circle",
    "regionname": "Southern Region Madurai",
    "divisionname": "Kanniyakumari Division",
    "officename": "Konamkadu B.O",
    "pincode": "629803",
    "officetype": "BO",
    "delivery": "Delivery",
    "district": "KANNIYAKUMARI",
    "statename": "TAMIL NADU",
    "latitude": "8.1900000",
    "longitude": "77.2700000"
  },
  {
    "circlename": "Tamilnadu Circle",
    "regionname": "Southern Region Madurai",
    "divisionname": "Kanniyakumari Division",
    "officename": "Asiramam B.O",
    "pincode": "629704",
    "officetype": "BO",
    "delivery": "Non Delivery",
    "district": "KANNIYAKUMARI",
    "statename": "TAMIL NADU",
    "latitude": "8.1700000",
    "longitude": "77.3100000"
  },
  {
    "circlename": "Tamilnadu Circle",
    "regionname": "Southern Region Madurai",
    "divisionname": "Kanniyakumari Division",
    "officename": "Terur B.O",
    "pincode": "629704",
    "officetype": "BO",
    "delivery": "Delivery",
    "district": "KANNIYAKUMARI",
    "statename": "TAMIL NADU",
    "latitude": "8.1700000",
    "longitude": "77.4700000"
  },
  {
    "circlename": "Tamilnadu Circle",
    "regionname": "Southern Region Madurai",
    "divisionname": "Kanniyakumari Division",
    "officename": "Thamaraikulam B.O",
    "pincode": "629704",
    "officetype": "BO",
    "delivery": "Delivery",
    "district": "KANNIYAKUMARI",
    "statename": "TAMIL NADU",
    "latitude": "8.1300000",
    "longitude": "77.4900000"
  },
  {
    "circlename": "Tamilnadu Circle",
    "regionname": "Southern Region Madurai",
    "divisionname": "Kanniyakumari Division",
    "officename": "Vazhukkamparai B.O",
    "pincode": "629704",
    "officetype": "BO",
    "delivery": "Non Delivery",
    "district": "KANNIYAKUMARI",
    "statename": "TAMIL NADU",
    "latitude": "8.1500000",
    "longitude": "77.4800000"
  },
  {
    "circlename": "Tamilnadu Circle",
    "regionname": "Southern Region Madurai",
    "divisionname": "Kanniyakumari Division",
    "officename": "Therekalpudur B.O",
    "pincode": "629901",
    "officetype": "BO",
    "delivery": "Delivery",
    "district": "KANNIYAKUMARI",
    "statename": "TAMIL NADU",
    "latitude": "8.2000000",
    "longitude": "77.4500000"
  },
  {
    "circlename": "Tamilnadu Circle",
    "regionname": "Southern Region Madurai",
    "divisionname": "Kanniyakumari Division",
    "officename": "Chemponvilai B.O",
    "pincode": "629804",
    "officetype": "BO",
    "delivery": "Delivery",
    "district": "KANNIYAKUMARI",
    "statename": "TAMIL NADU",
    "latitude": "8.2000000",
    "longitude": "77.2900000"
  },
  {
    "circlename": "Tamilnadu Circle",
    "regionname": "Southern Region Madurai",
    "divisionname": "Kanniyakumari Division",
    "officename": "Mekkode B.O",
    "pincode": "629804",
    "officetype": "BO",
    "delivery": "Delivery",
    "district": "KANNIYAKUMARI",
    "statename": "TAMIL NADU",
    "latitude": "8.2100000",
    "longitude": "77.2900000"
  },
  {
    "circlename": "Tamilnadu Circle",
    "regionname": "Southern Region Madurai",
    "divisionname": "Kanniyakumari Division",
    "officename": "Madavalayam B.O",
    "pincode": "629302",
    "officetype": "BO",
    "delivery": "Delivery",
    "district": "KANNIYAKUMARI",
    "statename": "TAMIL NADU",
    "latitude": "8.2300000",
    "longitude": "77.4800000"
  },
  {
    "circlename": "Tamilnadu Circle",
    "regionname": "Southern Region Madurai",
    "divisionname": "Kanniyakumari Division",
    "officename": "Ramapuram B.O",
    "pincode": "629302",
    "officetype": "BO",
    "delivery": "Delivery",
    "district": "KANNIYAKUMARI",
    "statename": "TAMIL NADU",
    "latitude": "8.2000000",
    "longitude": "77.4800000"
  },
  {
    "circlename": "Tamilnadu Circle",
    "regionname": "Southern Region Madurai",
    "divisionname": "Kanniyakumari Division",
    "officename": "Vellamadam B.O",
    "pincode": "629302",
    "officetype": "BO",
    "delivery": "Delivery",
    "district": "KANNIYAKUMARI",
    "statename": "TAMIL NADU",
    "latitude": "8.2100000",
    "longitude": "77.4700000"
  },
  {
    "circlename": "Tamilnadu Circle",
    "regionname": "Southern Region Madurai",
    "divisionname": "Kanniyakumari Division",
    "officename": "Peruvilai B.O",
    "pincode": "629003",
    "officetype": "BO",
    "delivery": "Delivery",
    "district": "KANNIYAKUMARI",
    "statename": "TAMIL NADU",
    "latitude": "8.1900000",
    "longitude": "77.4000000"
  },
  {
    "circlename": "Tamilnadu Circle",
    "regionname": "Southern Region Madurai",
    "divisionname": "Kanniyakumari Division",
    "officename": "Madathattuvilai B.O",
    "pincode": "629180",
    "officetype": "BO",
    "delivery": "Non Delivery",
    "district": "KANNIYAKUMARI",
    "statename": "TAMIL NADU",
    "latitude": "8.2200000",
    "longitude": "77.3500000"
  },
  {
    "circlename": "Tamilnadu Circle",
    "regionname": "Southern Region Madurai",
    "divisionname": "Kanniyakumari Division",
    "officename": "Manakarai B.O",
    "pincode": "629180",
    "officetype": "BO",
    "delivery": "Delivery",
    "district": "KANNIYAKUMARI",
    "statename": "TAMIL NADU",
    "latitude": "8.2200000",
    "longitude": "77.3300000"
  },
  {
    "circlename": "Tamilnadu Circle",
    "regionname": "Southern Region Madurai",
    "divisionname": "Kanniyakumari Division",
    "officename": "Kulapuram B.O",
    "pincode": "629153",
    "officetype": "BO",
    "delivery": "Delivery",
    "district": "KANNIYAKUMARI",
    "statename": "TAMIL NADU",
    "latitude": "8.2300000",
    "longitude": "77.4800000"
  },
  {
    "circlename": "Tamilnadu Circle",
    "regionname": "Southern Region Madurai",
    "divisionname": "Kanniyakumari Division",
    "officename": "Pathukani B.O",
    "pincode": "629101",
    "officetype": "BO",
    "delivery": "Delivery",
    "district": "KANNIYAKUMARI",
    "statename": "TAMIL NADU",
    "latitude": "8.4800000",
    "longitude": "77.2300000"
  },
  {
    "circlename": "Tamilnadu Circle",
    "regionname": "Southern Region Madurai",
    "divisionname": "Kanniyakumari Division",
    "officename": "Mangarai B.O",
    "pincode": "629157",
    "officetype": "BO",
    "delivery": "Delivery",
    "district": "KANNIYAKUMARI",
    "statename": "TAMIL NADU",
    "latitude": "8.2500000",
    "longitude": "77.2200000"
  },
  {
    "circlename": "Tamilnadu Circle",
    "regionname": "Southern Region Madurai",
    "divisionname": "Kanniyakumari Division",
    "officename": "Enayamputhenthurai B.O",
    "pincode": "629193",
    "officetype": "BO",
    "delivery": "Delivery",
    "district": "KANNIYAKUMARI",
    "statename": "TAMIL NADU",
    "latitude": "8.2200000",
    "longitude": "77.1800000"
  },
  {
    "circlename": "Tamilnadu Circle",
    "regionname": "Southern Region Madurai",
    "divisionname": "Kanniyakumari Division",
    "officename": "Ramanthurai B.O",
    "pincode": "629193",
    "officetype": "BO",
    "delivery": "Delivery",
    "district": "KANNIYAKUMARI",
    "statename": "TAMIL NADU",
    "latitude": "8.2300000",
    "longitude": "77.1800000"
  },
  {
    "circlename": "Tamilnadu Circle",
    "regionname": "Southern Region Madurai",
    "divisionname": "Kanniyakumari Division",
    "officename": "Fathima Nagar B.O",
    "pincode": "629160",
    "officetype": "BO",
    "delivery": "Delivery",
    "district": "KANNIYAKUMARI",
    "statename": "TAMIL NADU",
    "latitude": "8.3100000",
    "longitude": "77.1400000"
  },
  {
    "circlename": "Tamilnadu Circle",
    "regionname": "Southern Region Madurai",
    "divisionname": "Kanniyakumari Division",
    "officename": "Palavilai B.O",
    "pincode": "629160",
    "officetype": "BO",
    "delivery": "Delivery",
    "district": "KANNIYAKUMARI",
    "statename": "TAMIL NADU",
    "latitude": "8.3000000",
    "longitude": "77.1300000"
  },
  {
    "circlename": "Tamilnadu Circle",
    "regionname": "Southern Region Madurai",
    "divisionname": "Kanniyakumari Division",
    "officename": "Vallavilai B.O",
    "pincode": "629160",
    "officetype": "BO",
    "delivery": "Delivery",
    "district": "KANNIYAKUMARI",
    "statename": "TAMIL NADU",
    "latitude": "8.2800000",
    "longitude": "77.1100000"
  },
  {
    "circlename": "Tamilnadu Circle",
    "regionname": "Southern Region Madurai",
    "divisionname": "Kanniyakumari Division",
    "officename": "Padanthalumoodu B.O",
    "pincode": "629163",
    "officetype": "BO",
    "delivery": "Delivery",
    "district": "KANNIYAKUMARI",
    "statename": "TAMIL NADU",
    "latitude": "8.3200000",
    "longitude": "77.1800000"
  },
  {
    "circlename": "Tamilnadu Circle",
    "regionname": "Southern Region Madurai",
    "divisionname": "Kanniyakumari Division",
    "officename": "Vanniyur B.O",
    "pincode": "629163",
    "officetype": "BO",
    "delivery": "Delivery",
    "district": "KANNIYAKUMARI",
    "statename": "TAMIL NADU",
    "latitude": "8.1300000",
    "longitude": "77.3000000"
  },
  {
    "circlename": "Tamilnadu Circle",
    "regionname": "Southern Region Madurai",
    "divisionname": "Kanniyakumari Division",
    "officename": "Verkilambi B.O",
    "pincode": "629166",
    "officetype": "BO",
    "delivery": "Delivery",
    "district": "KANNIYAKUMARI",
    "statename": "TAMIL NADU",
    "latitude": "8.3000000",
    "longitude": "77.2900000"
  },
  {
    "circlename": "Tamilnadu Circle",
    "regionname": "Southern Region Madurai",
    "divisionname": "Kanniyakumari Division",
    "officename": "Alagiamandapam B.O",
    "pincode": "629167",
    "officetype": "BO",
    "delivery": "Non Delivery",
    "district": "KANNIYAKUMARI",
    "statename": "TAMIL NADU",
    "latitude": "8.2600000",
    "longitude": "77.3000000"
  },
  {
    "circlename": "Tamilnadu Circle",
    "regionname": "Southern Region Madurai",
    "divisionname": "Kanniyakumari Division",
    "officename": "Alampara B.O",
    "pincode": "629170",
    "officetype": "BO",
    "delivery": "Delivery",
    "district": "KANNIYAKUMARI",
    "statename": "TAMIL NADU",
    "latitude": "8.3600000",
    "longitude": "77.1500000"
  },
  {
    "circlename": "Tamilnadu Circle",
    "regionname": "Southern Region Madurai",
    "divisionname": "Kanniyakumari Division",
    "officename": "Killiyoor B.O",
    "pincode": "629171",
    "officetype": "BO",
    "delivery": "Delivery",
    "district": "KANNIYAKUMARI",
    "statename": "TAMIL NADU",
    "latitude": "8.2800000",
    "longitude": "77.2200000"
  },
  {
    "circlename": "Tamilnadu Circle",
    "regionname": "Southern Region Madurai",
    "divisionname": "Kanniyakumari Division",
    "officename": "Keralapuram B.O",
    "pincode": "629174",
    "officetype": "BO",
    "delivery": "Delivery",
    "district": "KANNIYAKUMARI",
    "statename": "TAMIL NADU",
    "latitude": "8.2500000",
    "longitude": "77.3100000"
  },
  {
    "circlename": "Tamilnadu Circle",
    "regionname": "Southern Region Madurai",
    "divisionname": "Kanniyakumari Division",
    "officename": "Aruvikkarai B.O",
    "pincode": "629177",
    "officetype": "BO",
    "delivery": "Delivery",
    "district": "KANNIYAKUMARI",
    "statename": "TAMIL NADU",
    "latitude": "8.3300000",
    "longitude": "77.2800000"
  },
  {
    "circlename": "Tamilnadu Circle",
    "regionname": "Southern Region Madurai",
    "divisionname": "Kanniyakumari Division",
    "officename": "Moovattumugham B.O",
    "pincode": "629177",
    "officetype": "BO",
    "delivery": "Delivery",
    "district": "KANNIYAKUMARI",
    "statename": "TAMIL NADU",
    "latitude": "8.3400000",
    "longitude": "77.2500000"
  },
  {
    "circlename": "Tamilnadu Circle",
    "regionname": "Southern Region Madurai",
    "divisionname": "Kanniyakumari Division",
    "officename": "Mangalakunnu B.O",
    "pincode": "629178",
    "officetype": "BO",
    "delivery": "Delivery",
    "district": "KANNIYAKUMARI",
    "statename": "TAMIL NADU",
    "latitude": "8.3100000",
    "longitude": "77.2400000"
  },
  {
    "circlename": "Tamilnadu Circle",
    "regionname": "Southern Region Madurai",
    "divisionname": "Kanniyakumari Division",
    "officename": "Ammandivilai S.O",
    "pincode": "629204",
    "officetype": "PO",
    "delivery": "Delivery",
    "district": "KANNIYAKUMARI",
    "statename": "TAMIL NADU",
    "latitude": "8.1438889",
    "longitude": "77.3201667"
  },
  {
    "circlename": "Tamilnadu Circle",
    "regionname": "Southern Region Madurai",
    "divisionname": "Kanniyakumari Division",
    "officename": "Kanniyakumari S.O",
    "pincode": "629702",
    "officetype": "PO",
    "delivery": "Delivery",
    "district": "KANNIYAKUMARI",
    "statename": "TAMIL NADU",
    "latitude": "8.0836667",
    "longitude": "77.5493056"
  },
  {
    "circlename": "Tamilnadu Circle",
    "regionname": "Southern Region Madurai",
    "divisionname": "Kanniyakumari Division",
    "officename": "Nagercoil Industrial Estate S.O",
    "pincode": "629004",
    "officetype": "PO",
    "delivery": "Delivery",
    "district": "KANNIYAKUMARI",
    "statename": "TAMIL NADU",
    "latitude": "8.1630278",
    "longitude": "77.4125278"
  },
  {
    "circlename": "Tamilnadu Circle",
    "regionname": "Southern Region Madurai",
    "divisionname": "Kanniyakumari Division",
    "officename": "Parakkai S.O",
    "pincode": "629601",
    "officetype": "PO",
    "delivery": "Delivery",
    "district": "KANNIYAKUMARI",
    "statename": "TAMIL NADU",
    "latitude": "8.1336400",
    "longitude": "77.4551700"
  },
  {
    "circlename": "Tamilnadu Circle",
    "regionname": "Southern Region Madurai",
    "divisionname": "Kanniyakumari Division",
    "officename": "Suchindrum S.O",
    "pincode": "629704",
    "officetype": "PO",
    "delivery": "Delivery",
    "district": "KANNIYAKUMARI",
    "statename": "TAMIL NADU",
    "latitude": "8.1570278",
    "longitude": "77.4662778"
  },
  {
    "circlename": "Tamilnadu Circle",
    "regionname": "Southern Region Madurai",
    "divisionname": "Kanniyakumari Division",
    "officename": "Thovalai S.O",
    "pincode": "629302",
    "officetype": "PO",
    "delivery": "Delivery",
    "district": "KANNIYAKUMARI",
    "statename": "TAMIL NADU",
    "latitude": "8.2310000",
    "longitude": "77.5042778"
  },
  {
    "circlename": "Tamilnadu Circle",
    "regionname": "Southern Region Madurai",
    "divisionname": "Kanniyakumari Division",
    "officename": "Vetturnimadam S.O",
    "pincode": "629003",
    "officetype": "PO",
    "delivery": "Delivery",
    "district": "KANNIYAKUMARI",
    "statename": "TAMIL NADU",
    "latitude": "8.1898889",
    "longitude": "77.4148056"
  },
  {
    "circlename": "Tamilnadu Circle",
    "regionname": "Southern Region Madurai",
    "divisionname": "Kanniyakumari Division",
    "officename": "Arumanai S.O",
    "pincode": "629151",
    "officetype": "PO",
    "delivery": "Delivery",
    "district": "KANNIYAKUMARI",
    "statename": "TAMIL NADU",
    "latitude": "8.3672778",
    "longitude": "77.2420278"
  },
  {
    "circlename": "Tamilnadu Circle",
    "regionname": "Southern Region Madurai",
    "divisionname": "Kanniyakumari Division",
    "officename": "Kaliyal S.O",
    "pincode": "629101",
    "officetype": "PO",
    "delivery": "Delivery",
    "district": "KANNIYAKUMARI",
    "statename": "TAMIL NADU",
    "latitude": "8.4067500",
    "longitude": "77.2658611"
  },
  {
    "circlename": "Tamilnadu Circle",
    "regionname": "Southern Region Madurai",
    "divisionname": "Kanniyakumari Division",
    "officename": "Kanjiracode S.O",
    "pincode": "629155",
    "officetype": "PO",
    "delivery": "Delivery",
    "district": "KANNIYAKUMARI",
    "statename": "TAMIL NADU",
    "latitude": "8.2947500",
    "longitude": "77.2472500"
  },
  {
    "circlename": "Tamilnadu Circle",
    "regionname": "Southern Region Madurai",
    "divisionname": "Kanniyakumari Division",
    "officename": "Marthandam Bridge S.O",
    "pincode": "629165",
    "officetype": "PO",
    "delivery": "Non Delivery",
    "district": "KANNIYAKUMARI",
    "statename": "TAMIL NADU",
    "latitude": "8.3083889",
    "longitude": "77.2165000"
  },
  {
    "circlename": "Tamilnadu Circle",
    "regionname": "Southern Region Madurai",
    "divisionname": "Kanniyakumari Division",
    "officename": "Tiruvattar S.O",
    "pincode": "629177",
    "officetype": "PO",
    "delivery": "Delivery",
    "district": "KANNIYAKUMARI",
    "statename": "TAMIL NADU",
    "latitude": "8.3325833",
    "longitude": "77.2793056"
  },
  {
    "circlename": "Tamilnadu Circle",
    "regionname": "Southern Region Madurai",
    "divisionname": "Kanniyakumari Division",
    "officename": "Vembanur B.O",
    "pincode": "629801",
    "officetype": "BO",
    "delivery": "Delivery",
    "district": "KANNIYAKUMARI",
    "statename": "TAMIL NADU",
    "latitude": "8.1800000",
    "longitude": "77.3600000"
  },
  {
    "circlename": "Tamilnadu Circle",
    "regionname": "Southern Region Madurai",
    "divisionname": "Kanniyakumari Division",
    "officename": "Arumanallur B.O",
    "pincode": "629851",
    "officetype": "BO",
    "delivery": "Delivery",
    "district": "KANNIYAKUMARI",
    "statename": "TAMIL NADU",
    "latitude": "8.3200000",
    "longitude": "77.4100000"
  },
  {
    "circlename": "Tamilnadu Circle",
    "regionname": "Southern Region Madurai",
    "divisionname": "Kanniyakumari Division",
    "officename": "Kadukkarai B.O",
    "pincode": "629851",
    "officetype": "BO",
    "delivery": "Delivery",
    "district": "KANNIYAKUMARI",
    "statename": "TAMIL NADU",
    "latitude": "8.3000000",
    "longitude": "77.4600000"
  },
  {
    "circlename": "Tamilnadu Circle",
    "regionname": "Southern Region Madurai",
    "divisionname": "Kanniyakumari Division",
    "officename": "Isanthimangalam B.O",
    "pincode": "629852",
    "officetype": "BO",
    "delivery": "Delivery",
    "district": "KANNIYAKUMARI",
    "statename": "TAMIL NADU",
    "latitude": "8.2500000",
    "longitude": "77.4600000"
  },
  {
    "circlename": "Tamilnadu Circle",
    "regionname": "Southern Region Madurai",
    "divisionname": "Kanniyakumari Division",
    "officename": "Kodimunai B.O",
    "pincode": "629251",
    "officetype": "BO",
    "delivery": "Delivery",
    "district": "KANNIYAKUMARI",
    "statename": "TAMIL NADU",
    "latitude": "8.1800000",
    "longitude": "77.2400000"
  },
  {
    "circlename": "Tamilnadu Circle",
    "regionname": "Southern Region Madurai",
    "divisionname": "Kanniyakumari Division",
    "officename": "Kesavanputhenthurai B.O",
    "pincode": "629501",
    "officetype": "BO",
    "delivery": "Delivery",
    "district": "KANNIYAKUMARI",
    "statename": "TAMIL NADU",
    "latitude": "8.1100000",
    "longitude": "77.4100000"
  },
  {
    "circlename": "Tamilnadu Circle",
    "regionname": "Southern Region Madurai",
    "divisionname": "Kanniyakumari Division",
    "officename": "North Soorankudy B.O",
    "pincode": "629501",
    "officetype": "BO",
    "delivery": "Delivery",
    "district": "KANNIYAKUMARI",
    "statename": "TAMIL NADU",
    "latitude": "8.1400000",
    "longitude": "77.4200000"
  },
  {
    "circlename": "Tamilnadu Circle",
    "regionname": "Southern Region Madurai",
    "divisionname": "Kanniyakumari Division",
    "officename": "Pazhavilai B.O",
    "pincode": "629501",
    "officetype": "BO",
    "delivery": "Delivery",
    "district": "KANNIYAKUMARI",
    "statename": "TAMIL NADU",
    "latitude": "8.1400000",
    "longitude": "77.4000000"
  },
  {
    "circlename": "Tamilnadu Circle",
    "regionname": "Southern Region Madurai",
    "divisionname": "Kanniyakumari Division",
    "officename": "Puthenthurai B.O",
    "pincode": "629501",
    "officetype": "BO",
    "delivery": "Delivery",
    "district": "KANNIYAKUMARI",
    "statename": "TAMIL NADU",
    "latitude": "8.1000000",
    "longitude": "77.4200000"
  },
  {
    "circlename": "Tamilnadu Circle",
    "regionname": "Southern Region Madurai",
    "divisionname": "Kanniyakumari Division",
    "officename": "Leepuram B.O",
    "pincode": "629702",
    "officetype": "BO",
    "delivery": "Delivery",
    "district": "KANNIYAKUMARI",
    "statename": "TAMIL NADU",
    "latitude": "8.1000000",
    "longitude": "77.5700000"
  },
  {
    "circlename": "Tamilnadu Circle",
    "regionname": "Southern Region Madurai",
    "divisionname": "Kanniyakumari Division",
    "officename": "Peyankuzhi B.O",
    "pincode": "629809",
    "officetype": "BO",
    "delivery": "Delivery",
    "district": "KANNIYAKUMARI",
    "statename": "TAMIL NADU",
    "latitude": "7.1000000",
    "longitude": "8.2000000"
  },
  {
    "circlename": "Tamilnadu Circle",
    "regionname": "Southern Region Madurai",
    "divisionname": "Kanniyakumari Division",
    "officename": "Alanchi B.O",
    "pincode": "629159",
    "officetype": "BO",
    "delivery": "Delivery",
    "district": "KANNIYAKUMARI",
    "statename": "TAMIL NADU",
    "latitude": "8.1900000",
    "longitude": "77.2500000"
  },
  {
    "circlename": "Tamilnadu Circle",
    "regionname": "Southern Region Madurai",
    "divisionname": "Kanniyakumari Division",
    "officename": "Pallam B.O",
    "pincode": "629601",
    "officetype": "BO",
    "delivery": "Delivery",
    "district": "KANNIYAKUMARI",
    "statename": "TAMIL NADU",
    "latitude": "8.1000000",
    "longitude": "77.4400000"
  },
  {
    "circlename": "Tamilnadu Circle",
    "regionname": "Southern Region Madurai",
    "divisionname": "Kanniyakumari Division",
    "officename": "Melamanakudy B.O",
    "pincode": "629602",
    "officetype": "BO",
    "delivery": "Delivery",
    "district": "KANNIYAKUMARI",
    "statename": "TAMIL NADU",
    "latitude": "8.0900000",
    "longitude": "77.4800000"
  },
  {
    "circlename": "Tamilnadu Circle",
    "regionname": "Southern Region Madurai",
    "divisionname": "Kanniyakumari Division",
    "officename": "Thengamputhur B.O",
    "pincode": "629602",
    "officetype": "BO",
    "delivery": "Delivery",
    "district": "KANNIYAKUMARI",
    "statename": "TAMIL NADU",
    "latitude": "8.1200000",
    "longitude": "77.4500000"
  },
  {
    "circlename": "Tamilnadu Circle",
    "regionname": "Southern Region Madurai",
    "divisionname": "Kanniyakumari Division",
    "officename": "Devakulam B.O",
    "pincode": "629704",
    "officetype": "BO",
    "delivery": "Delivery",
    "district": "KANNIYAKUMARI",
    "statename": "TAMIL NADU",
    "latitude": "8.1800000",
    "longitude": "77.4800000"
  },
  {
    "circlename": "Tamilnadu Circle",
    "regionname": "Southern Region Madurai",
    "divisionname": "Kanniyakumari Division",
    "officename": "Nallur B.O",
    "pincode": "629704",
    "officetype": "BO",
    "delivery": "Delivery",
    "district": "KANNIYAKUMARI",
    "statename": "TAMIL NADU",
    "latitude": "8.1700000",
    "longitude": "77.4700000"
  },
  {
    "circlename": "Tamilnadu Circle",
    "regionname": "Southern Region Madurai",
    "divisionname": "Kanniyakumari Division",
    "officename": "Erachakulam B.O",
    "pincode": "629901",
    "officetype": "BO",
    "delivery": "Delivery",
    "district": "KANNIYAKUMARI",
    "statename": "TAMIL NADU",
    "latitude": "8.2300000",
    "longitude": "77.4300000"
  },
  {
    "circlename": "Tamilnadu Circle",
    "regionname": "Southern Region Madurai",
    "divisionname": "Kanniyakumari Division",
    "officename": "Parvathipuram B.O",
    "pincode": "629003",
    "officetype": "BO",
    "delivery": "Non Delivery",
    "district": "KANNIYAKUMARI",
    "statename": "TAMIL NADU",
    "latitude": "8.1900000",
    "longitude": "77.4000000"
  },
  {
    "circlename": "Tamilnadu Circle",
    "regionname": "Southern Region Madurai",
    "divisionname": "Kanniyakumari Division",
    "officename": "Karod B.O",
    "pincode": "629151",
    "officetype": "BO",
    "delivery": "Delivery",
    "district": "KANNIYAKUMARI",
    "statename": "TAMIL NADU",
    "latitude": "8.4000000",
    "longitude": "77.2300000"
  },
  {
    "circlename": "Tamilnadu Circle",
    "regionname": "Southern Region Madurai",
    "divisionname": "Kanniyakumari Division",
    "officename": "Kuzhichal BO",
    "pincode": "629151",
    "officetype": "BO",
    "delivery": "Delivery",
    "district": "KANNIYAKUMARI",
    "statename": "TAMIL NADU",
    "latitude": "11.990427",
    "longitude": "75.387417999999997"
  },
  {
    "circlename": "Tamilnadu Circle",
    "regionname": "Southern Region Madurai",
    "divisionname": "Kanniyakumari Division",
    "officename": "Meppalai B.O",
    "pincode": "629152",
    "officetype": "BO",
    "delivery": "Delivery",
    "district": "KANNIYAKUMARI",
    "statename": "TAMIL NADU",
    "latitude": "8.3800000",
    "longitude": "77.2000000"
  },
  {
    "circlename": "Tamilnadu Circle",
    "regionname": "Southern Region Madurai",
    "divisionname": "Kanniyakumari Division",
    "officename": "Vellachiparai B.O",
    "pincode": "629152",
    "officetype": "BO",
    "delivery": "Delivery",
    "district": "KANNIYAKUMARI",
    "statename": "TAMIL NADU",
    "latitude": "8.4800000",
    "longitude": "77.2100000"
  },
  {
    "circlename": "Tamilnadu Circle",
    "regionname": "Southern Region Madurai",
    "divisionname": "Kanniyakumari Division",
    "officename": "Alancholai B.O",
    "pincode": "629101",
    "officetype": "BO",
    "delivery": "Delivery",
    "district": "KANNIYAKUMARI",
    "statename": "TAMIL NADU",
    "latitude": "8.4300000",
    "longitude": "77.2600000"
  },
  {
    "circlename": "Tamilnadu Circle",
    "regionname": "Southern Region Madurai",
    "divisionname": "Kanniyakumari Division",
    "officename": "Arukani B.O",
    "pincode": "629101",
    "officetype": "BO",
    "delivery": "Delivery",
    "district": "KANNIYAKUMARI",
    "statename": "TAMIL NADU",
    "latitude": "8.4800000",
    "longitude": "77.2100000"
  },
  {
    "circlename": "Tamilnadu Circle",
    "regionname": "Southern Region Madurai",
    "divisionname": "Kanniyakumari Division",
    "officename": "Maruthemparai B.O",
    "pincode": "629101",
    "officetype": "BO",
    "delivery": "Delivery",
    "district": "KANNIYAKUMARI",
    "statename": "TAMIL NADU",
    "latitude": "8.4600000",
    "longitude": "77.2500000"
  },
  {
    "circlename": "Tamilnadu Circle",
    "regionname": "Southern Region Madurai",
    "divisionname": "Kanniyakumari Division",
    "officename": "Netta B.O",
    "pincode": "629101",
    "officetype": "BO",
    "delivery": "Delivery",
    "district": "KANNIYAKUMARI",
    "statename": "TAMIL NADU",
    "latitude": "8.4500000",
    "longitude": "77.2300000"
  },
  {
    "circlename": "Tamilnadu Circle",
    "regionname": "Southern Region Madurai",
    "divisionname": "Kanniyakumari Division",
    "officename": "Nithiravilai B.O",
    "pincode": "629154",
    "officetype": "BO",
    "delivery": "Delivery",
    "district": "KANNIYAKUMARI",
    "statename": "TAMIL NADU",
    "latitude": "8.2700000",
    "longitude": "77.1400000"
  },
  {
    "circlename": "Tamilnadu Circle",
    "regionname": "Southern Region Madurai",
    "divisionname": "Kanniyakumari Division",
    "officename": "Irenipuram B.O",
    "pincode": "629162",
    "officetype": "BO",
    "delivery": "Delivery",
    "district": "KANNIYAKUMARI",
    "statename": "TAMIL NADU",
    "latitude": "8.2800000",
    "longitude": "77.2000000"
  },
  {
    "circlename": "Tamilnadu Circle",
    "regionname": "Southern Region Madurai",
    "divisionname": "Kanniyakumari Division",
    "officename": "Tholayavattai B.O",
    "pincode": "629157",
    "officetype": "BO",
    "delivery": "Delivery",
    "district": "KANNIYAKUMARI",
    "statename": "TAMIL NADU",
    "latitude": "8.2300000",
    "longitude": "77.2800000"
  },
  {
    "circlename": "Tamilnadu Circle",
    "regionname": "Southern Region Madurai",
    "divisionname": "Kanniyakumari Division",
    "officename": "Tiruparappu B.O",
    "pincode": "629161",
    "officetype": "BO",
    "delivery": "Delivery",
    "district": "KANNIYAKUMARI",
    "statename": "TAMIL NADU",
    "latitude": "8.1300000",
    "longitude": "77.2800000"
  },
  {
    "circlename": "Tamilnadu Circle",
    "regionname": "Southern Region Madurai",
    "divisionname": "Kanniyakumari Division",
    "officename": "Kumarapuram B.O",
    "pincode": "629164",
    "officetype": "BO",
    "delivery": "Delivery",
    "district": "KANNIYAKUMARI",
    "statename": "TAMIL NADU",
    "latitude": "8.2900000",
    "longitude": "77.2300000"
  },
  {
    "circlename": "Tamilnadu Circle",
    "regionname": "Southern Region Madurai",
    "divisionname": "Kanniyakumari Division",
    "officename": "Nattalam B.O",
    "pincode": "629165",
    "officetype": "BO",
    "delivery": "Delivery",
    "district": "KANNIYAKUMARI",
    "statename": "TAMIL NADU",
    "latitude": "8.2700000",
    "longitude": "77.2300000"
  },
  {
    "circlename": "Tamilnadu Circle",
    "regionname": "Southern Region Madurai",
    "divisionname": "Kanniyakumari Division",
    "officename": "Thickurichy B.O",
    "pincode": "629168",
    "officetype": "BO",
    "delivery": "Delivery",
    "district": "KANNIYAKUMARI",
    "statename": "TAMIL NADU",
    "latitude": "8.2300000",
    "longitude": "77.3200000"
  },
  {
    "circlename": "Tamilnadu Circle",
    "regionname": "Southern Region Madurai",
    "divisionname": "Kanniyakumari Division",
    "officename": "Kanjikuzhi B.O",
    "pincode": "629169",
    "officetype": "BO",
    "delivery": "Delivery",
    "district": "KANNIYAKUMARI",
    "statename": "TAMIL NADU",
    "latitude": "8.2600000",
    "longitude": "77.2600000"
  },
  {
    "circlename": "Tamilnadu Circle",
    "regionname": "Southern Region Madurai",
    "divisionname": "Kanniyakumari Division",
    "officename": "Munchirai B.O",
    "pincode": "629171",
    "officetype": "BO",
    "delivery": "Non Delivery",
    "district": "KANNIYAKUMARI",
    "statename": "TAMIL NADU",
    "latitude": "8.2900000",
    "longitude": "77.1700000"
  },
  {
    "circlename": "Tamilnadu Circle",
    "regionname": "Southern Region Madurai",
    "divisionname": "Kanniyakumari Division",
    "officename": "Chenkody B.O",
    "pincode": "629177",
    "officetype": "BO",
    "delivery": "Delivery",
    "district": "KANNIYAKUMARI",
    "statename": "TAMIL NADU",
    "latitude": "8.3200000",
    "longitude": "77.2900000"
  },
  {
    "circlename": "Tamilnadu Circle",
    "regionname": "Southern Region Madurai",
    "divisionname": "Kanniyakumari Division",
    "officename": "Veeyannur B.O",
    "pincode": "629177",
    "officetype": "BO",
    "delivery": "Delivery",
    "district": "KANNIYAKUMARI",
    "statename": "TAMIL NADU",
    "latitude": "8.3100000",
    "longitude": "77.2700000"
  },
  {
    "circlename": "Tamilnadu Circle",
    "regionname": "Southern Region Madurai",
    "divisionname": "Kanniyakumari Division",
    "officename": "Bhoothapandy S.O",
    "pincode": "629852",
    "officetype": "PO",
    "delivery": "Delivery",
    "district": "KANNIYAKUMARI",
    "statename": "TAMIL NADU",
    "latitude": "8.2500833",
    "longitude": "77.4453611"
  },
  {
    "circlename": "Tamilnadu Circle",
    "regionname": "Southern Region Madurai",
    "divisionname": "Kanniyakumari Division",
    "officename": "Catherin Booth Hospital S.O",
    "pincode": "629001",
    "officetype": "PO",
    "delivery": "Non Delivery",
    "district": "KANNIYAKUMARI",
    "statename": "TAMIL NADU",
    "latitude": "NA",
    "longitude": "NA"
  },
  {
    "circlename": "Tamilnadu Circle",
    "regionname": "Southern Region Madurai",
    "divisionname": "Kanniyakumari Division",
    "officename": "Colachel Port S.O",
    "pincode": "629251",
    "officetype": "PO",
    "delivery": "Non Delivery",
    "district": "KANNIYAKUMARI",
    "statename": "TAMIL NADU",
    "latitude": "NA",
    "longitude": "NA"
  },
  {
    "circlename": "Tamilnadu Circle",
    "regionname": "Southern Region Madurai",
    "divisionname": "Kanniyakumari Division",
    "officename": "Kandanvilai S.O",
    "pincode": "629810",
    "officetype": "PO",
    "delivery": "Delivery",
    "district": "KANNIYAKUMARI",
    "statename": "TAMIL NADU",
    "latitude": "8.2061111",
    "longitude": "77.3264444"
  },
  {
    "circlename": "Tamilnadu Circle",
    "regionname": "Southern Region Madurai",
    "divisionname": "Kanniyakumari Division",
    "officename": "Kottar S.O",
    "pincode": "629002",
    "officetype": "PO",
    "delivery": "Delivery",
    "district": "KANNIYAKUMARI",
    "statename": "TAMIL NADU",
    "latitude": "8.1735000",
    "longitude": "77.4396944"
  },
  {
    "circlename": "Tamilnadu Circle",
    "regionname": "Southern Region Madurai",
    "divisionname": "Kanniyakumari Division",
    "officename": "Kottaram S.O",
    "pincode": "629703",
    "officetype": "PO",
    "delivery": "Delivery",
    "district": "KANNIYAKUMARI",
    "statename": "TAMIL NADU",
    "latitude": "8.2823333",
    "longitude": "77.2989444"
  },
  {
    "circlename": "Tamilnadu Circle",
    "regionname": "Southern Region Madurai",
    "divisionname": "Kanniyakumari Division",
    "officename": "Maravankudiyiruppu S.O",
    "pincode": "629002",
    "officetype": "PO",
    "delivery": "Non Delivery",
    "district": "KANNIYAKUMARI",
    "statename": "TAMIL NADU",
    "latitude": "NA",
    "longitude": "NA"
  },
  {
    "circlename": "Tamilnadu Circle",
    "regionname": "Southern Region Madurai",
    "divisionname": "Kanniyakumari Division",
    "officename": "Marungoor S.O",
    "pincode": "629402",
    "officetype": "PO",
    "delivery": "Delivery",
    "district": "KANNIYAKUMARI",
    "statename": "TAMIL NADU",
    "latitude": "8.1731111",
    "longitude": "77.5038333"
  },
  {
    "circlename": "Tamilnadu Circle",
    "regionname": "Southern Region Madurai",
    "divisionname": "Kanniyakumari Division",
    "officename": "Nagercoil Bazaar S.O",
    "pincode": "629001",
    "officetype": "PO",
    "delivery": "Non Delivery",
    "district": "KANNIYAKUMARI",
    "statename": "TAMIL NADU",
    "latitude": "8.1902500",
    "longitude": "77.4376111"
  },
  {
    "circlename": "Tamilnadu Circle",
    "regionname": "Southern Region Madurai",
    "divisionname": "Kanniyakumari Division",
    "officename": "Kaliakkavilai S.O",
    "pincode": "629153",
    "officetype": "PO",
    "delivery": "Delivery",
    "district": "KANNIYAKUMARI",
    "statename": "TAMIL NADU",
    "latitude": "8.3502500",
    "longitude": "77.1705833"
  },
  {
    "circlename": "Tamilnadu Circle",
    "regionname": "Southern Region Madurai",
    "divisionname": "Kanniyakumari Division",
    "officename": "Kappiyarai S.O",
    "pincode": "629156",
    "officetype": "PO",
    "delivery": "Delivery",
    "district": "KANNIYAKUMARI",
    "statename": "TAMIL NADU",
    "latitude": "8.2376389",
    "longitude": "77.2571389"
  },