[
  {
    "circlename": "Tamilnadu Circle",
    "regionname": "Southern Region Madurai",
    "divisionname": "Madurai Division",
    "officename": "Ayyur BO",
    "pincode": "625501",
    "officetype": "BO",
    "delivery": "Delivery",
    "district": "MADURAI",
    "statename": "TAMIL NADU",
    "latitude": "10.0722120",
    "longitude": "78.0808820"
  },
  {
    "circlename": "Tamilnadu Circle",
    "regionname": "Southern Region Madurai",
    "divisionname": "Madurai Division",
    "officename": "Errampatti BO",
    "pincode": "625501",
    "officetype": "BO",
    "delivery": "Delivery",
    "district": "MADURAI",
    "statename": "TAMIL NADU",
    "latitude": "10.0849430",
    "longitude": "78.0908650"
  },
  {
    "circlename": "Tamilnadu Circle",
    "regionname": "Southern Region Madurai",
    "divisionname": "Madurai Division",
    "officename": "Mudalaikulam BO",
    "pincode": "625514",
    "officetype": "BO",
    "delivery": "Delivery",
    "district": "MADURAI",
    "statename": "TAMIL NADU",
    "latitude": "9.9776080",
    "longitude": "77.9338850"
  },
  {
    "circlename": "Tamilnadu Circle",
    "regionname": "Southern Region Madurai",
    "divisionname": "Madurai Division",
    "officename": "Irumbadi BO",
    "pincode": "625205",
    "officetype": "BO",
    "delivery": "Delivery",
    "district": "MADURAI",
    "statename": "TAMIL NADU",
    "latitude": "10.0456290",
    "longitude": "77.9360270"
  },
  {
    "circlename": "Tamilnadu Circle",
    "regionname": "Southern Region Madurai",
    "divisionname": "Madurai Division",
    "officename": "Sakkarappanaickanur BO",
    "pincode": "625214",
    "officetype": "BO",
    "delivery": "Delivery",
    "district": "MADURAI",
    "statename": "TAMIL NADU",
    "latitude": "9.6740220",
    "longitude": "78.1022730"
  },
  {
    "circlename": "Tamilnadu Circle",
    "regionname": "Southern Region Madurai",
    "divisionname": "Madurai Division",
    "officename": "Pulluthu BO",
    "pincode": "625019",
    "officetype": "BO",
    "delivery": "Non Delivery",
    "district": "MADURAI",
    "statename": "TAMIL NADU",
    "latitude": "9.9558690",
    "longitude": "78.0399370"
  },
  {
    "circlename": "Tamilnadu Circle",
    "regionname": "Southern Region Madurai",
    "divisionname": "Madurai Division",
    "officename": "Thuvariman BO",
    "pincode": "625019",
    "officetype": "BO",
    "delivery": "Non Delivery",
    "district": "MADURAI",
    "statename": "TAMIL NADU",
    "latitude": "9.9590880",
    "longitude": "78.0569910"
  },
  {
    "circlename": "Tamilnadu Circle",
    "regionname": "Southern Region Madurai",
    "divisionname": "Madurai Division",
    "officename": "Vadapalanji BO",
    "pincode": "625021",
    "officetype": "BO",
    "delivery": "Delivery",
    "district": "MADURAI",
    "statename": "TAMIL NADU",
    "latitude": "9.9271840",
    "longitude": "78.0091920"
  },
  {
    "circlename": "Tamilnadu Circle",
    "regionname": "Southern Region Madurai",
    "divisionname": "Madurai Division",
    "officename": "Ayyankottai BO",
    "pincode": "625221",
    "officetype": "BO",
    "delivery": "Delivery",
    "district": "MADURAI",
    "statename": "TAMIL NADU",
    "latitude": "10.0305960",
    "longitude": "78.0131170"
  },
  {
    "circlename": "Tamilnadu Circle",
    "regionname": "Southern Region Madurai",
    "divisionname": "Madurai Division",
    "officename": "Kondayampatti BO",
    "pincode": "625221",
    "officetype": "BO",
    "delivery": "Delivery",
    "district": "MADURAI",
    "statename": "TAMIL NADU",
    "latitude": "10.0645930",
    "longitude": "78.0254850"
  },
  {
    "circlename": "Tamilnadu Circle",
    "regionname": "Southern Region Madurai",
    "divisionname": "Madurai Division",
    "officename": "Mariammalkulam BO",
    "pincode": "625221",
    "officetype": "BO",
    "delivery": "Delivery",
    "district": "MADURAI",
    "statename": "TAMIL NADU",
    "latitude": "10.0476270",
    "longitude": "78.0518200"
  },
  {
    "circlename": "Tamilnadu Circle",
    "regionname": "Southern Region Madurai",
    "divisionname": "Madurai Division",
    "officename": "Kumaram BO",
    "pincode": "625018",
    "officetype": "BO",
    "delivery": "Delivery",
    "district": "MADURAI",
    "statename": "TAMIL NADU",
    "latitude": "10.0098180",
    "longitude": "78.0933610"
  },
  {
    "circlename": "Tamilnadu Circle",
    "regionname": "Southern Region Madurai",
    "divisionname": "Madurai Division",
    "officename": "Kachakatti BO",
    "pincode": "625218",
    "officetype": "BO",
    "delivery": "Delivery",
    "district": "MADURAI",
    "statename": "TAMIL NADU",
    "latitude": "10.0838000",
    "longitude": "77.9982970"
  },
  {
    "circlename": "Tamilnadu Circle",
    "regionname": "Southern Region Madurai",
    "divisionname": "Madurai Division",
    "officename": "Vilangudi BO",
    "pincode": "625018",
    "officetype": "BO",
    "delivery": "Non Delivery",
    "district": "MADURAI",
    "statename": "TAMIL NADU",
    "latitude": "9.9476140",
    "longitude": "78.9086500"
  },
  {
    "circlename": "Tamilnadu Circle",
    "regionname": "Southern Region Madurai",
    "divisionname": "Madurai Division",
    "officename": "Kappalur BO",
    "pincode": "625008",
    "officetype": "BO",
    "delivery": "Delivery",
    "district": "MADURAI",
    "statename": "TAMIL NADU",
    "latitude": "9.8358790",
    "longitude": "78.0338080"
  },
  {
    "circlename": "Tamilnadu Circle",
    "regionname": "Southern Region Madurai",
    "divisionname": "Madurai Division",
    "officename": "Thoppur BO",
    "pincode": "625008",
    "officetype": "BO",
    "delivery": "Delivery",
    "district": "MADURAI",
    "statename": "TAMIL NADU",
    "latitude": "9.8748340",
    "longitude": "78.0239580"
  },
  {
    "circlename": "Tamilnadu Circle",
    "regionname": "Southern Region Madurai",
    "divisionname": "Madurai Division",
    "officename": "Deivanayagapuram BO",
    "pincode": "625703",
    "officetype": "BO",
    "delivery": "Delivery",
    "district": "MADURAI",
    "statename": "TAMIL NADU",
    "latitude": "9.7059400",
    "longitude": "77.8332890"
  },
  {
    "circlename": "Tamilnadu Circle",
    "regionname": "Southern Region Madurai",
    "divisionname": "Madurai Division",
    "officename": "Koovalapuram BO",
    "pincode": "625703",
    "officetype": "BO",
    "delivery": "Delivery",
    "district": "MADURAI",
    "statename": "TAMIL NADU",
    "latitude": "9.6834640",
    "longitude": "77.7674960"
  },
  {
    "circlename": "Tamilnadu Circle",
    "regionname": "Southern Region Madurai",
    "divisionname": "Madurai Division",
    "officename": "Periyapoolampatti BO",
    "pincode": "625703",
    "officetype": "BO",
    "delivery": "Delivery",
    "district": "MADURAI",
    "statename": "TAMIL NADU",
    "latitude": "9.7639590",
    "longitude": "77.7964210"
  },
  {
    "circlename": "Tamilnadu Circle",
    "regionname": "Southern Region Madurai",
    "divisionname": "Madurai Division",
    "officename": "TKokkulam BO",
    "pincode": "625022",
    "officetype": "BO",
    "delivery": "Delivery",
    "district": "MADURAI",
    "statename": "TAMIL NADU",
    "latitude": "9.7388000",
    "longitude": "78.0559000"
  },
  {
    "circlename": "Tamilnadu Circle",
    "regionname": "Southern Region Madurai",
    "divisionname": "Madurai Division",
    "officename": "Jari Usilampatti BO",
    "pincode": "625702",
    "officetype": "BO",
    "delivery": "Delivery",
    "district": "MADURAI",
    "statename": "TAMIL NADU",
    "latitude": "9.6649350",
    "longitude": "77.8046180"
  },
  {
    "circlename": "Tamilnadu Circle",
    "regionname": "Southern Region Madurai",
    "divisionname": "Madurai Division",
    "officename": "Koppinaickanpatti BO",
    "pincode": "625702",
    "officetype": "BO",
    "delivery": "Delivery",
    "district": "MADURAI",
    "statename": "TAMIL NADU",
    "latitude": "9.6925600",
    "longitude": "77.8253400"
  },
  {
    "circlename": "Tamilnadu Circle",
    "regionname": "Southern Region Madurai",
    "divisionname": "Madurai Division",
    "officename": "Vannivelampatti BO",
    "pincode": "625702",
    "officetype": "BO",
    "delivery": "Delivery",
    "district": "MADURAI",
    "statename": "TAMIL NADU",
    "latitude": "9.7409080",
    "longitude": "77.8666730"
  },
  {
    "circlename": "Tamilnadu Circle",
    "regionname": "Southern Region Madurai",
    "divisionname": "Madurai Division",
    "officename": "Appakarai BO",
    "pincode": "625704",
    "officetype": "BO",
    "delivery": "Delivery",
    "district": "MADURAI",
    "statename": "TAMIL NADU",
    "latitude": "9.7811300",
    "longitude": "77.9009630"
  },
  {
    "circlename": "Tamilnadu Circle",
    "regionname": "Southern Region Madurai",
    "divisionname": "Madurai Division",
    "officename": "Nilaiyur BO",
    "pincode": "625005",
    "officetype": "BO",
    "delivery": "Delivery",
    "district": "MADURAI",
    "statename": "TAMIL NADU",
    "latitude": "9.8588230",
    "longitude": "78.0623400"
  },
  {
    "circlename": "Tamilnadu Circle",
    "regionname": "Southern Region Madurai",
    "divisionname": "Madurai Division",
    "officename": "Nedungulam BO",
    "pincode": "625706",
    "officetype": "BO",
    "delivery": "Delivery",
    "district": "MADURAI",
    "statename": "TAMIL NADU",
    "latitude": "9.8193960",
    "longitude": "77.9821830"
  },
  {
    "circlename": "Tamilnadu Circle",
    "regionname": "Southern Region Madurai",
    "divisionname": "Madurai Division",
    "officename": "SPNatham BO",
    "pincode": "625706",
    "officetype": "BO",
    "delivery": "Delivery",
    "district": "MADURAI",
    "statename": "TAMIL NADU",
    "latitude": "9.7195470",
    "longitude": "78.0049900"
  },
  {
    "circlename": "Tamilnadu Circle",
    "regionname": "Southern Region Madurai",
    "divisionname": "Madurai Division",
    "officename": "Thangalacheri BO",
    "pincode": "625706",
    "officetype": "BO",
    "delivery": "Delivery",
    "district": "MADURAI",
    "statename": "TAMIL NADU",
    "latitude": "9.8383030",
    "longitude": "77.8694630"
  },
  {
    "circlename": "Tamilnadu Circle",
    "regionname": "Southern Region Madurai",
    "divisionname": "Madurai Division",
    "officename": "Lalapuram BO",
    "pincode": "625707",
    "officetype": "BO",
    "delivery": "Delivery",
    "district": "MADURAI",
    "statename": "TAMIL NADU",
    "latitude": "9.6232120",
    "longitude": "77.9032840"
  },
  {
    "circlename": "Tamilnadu Circle",
    "regionname": "Southern Region Madurai",
    "divisionname": "Madurai Division",
    "officename": "AVellalapatti BO",
    "pincode": "625301",
    "officetype": "BO",
    "delivery": "Delivery",
    "district": "MADURAI",
    "statename": "TAMIL NADU",
    "latitude": "10.0589310",
    "longitude": "78.2846300"
  },
  {
    "circlename": "Tamilnadu Circle",
    "regionname": "Southern Region Madurai",
    "divisionname": "Madurai Division",
    "officename": "Kidaripatti BO",
    "pincode": "625301",
    "officetype": "BO",
    "delivery": "Delivery",
    "district": "MADURAI",
    "statename": "TAMIL NADU",
    "latitude": "10.0641770",
    "longitude": "78.2582940"
  },
  {
    "circlename": "Tamilnadu Circle",
    "regionname": "Southern Region Madurai",
    "divisionname": "Madurai Division",
    "officename": "Anaiyur HB Colony BO",
    "pincode": "625017",
    "officetype": "BO",
    "delivery": "Non Delivery",
    "district": "MADURAI",
    "statename": "TAMIL NADU",
    "latitude": "9.9662220",
    "longitude": "78.1122540"
  },
  {
    "circlename": "Tamilnadu Circle",
    "regionname": "Southern Region Madurai",
    "divisionname": "Madurai Division",
    "officename": "Varichiyur BO",
    "pincode": "625020",
    "officetype": "BO",
    "delivery": "Delivery",
    "district": "MADURAI",
    "statename": "TAMIL NADU",
    "latitude": "9.9100000",
    "longitude": "78.2675000"
  },
  {
    "circlename": "Tamilnadu Circle",
    "regionname": "Southern Region Madurai",
    "divisionname": "Madurai Division",
    "officename": "Kunnarampatti BO",
    "pincode": "625101",
    "officetype": "BO",
    "delivery": "Delivery",
    "district": "MADURAI",
    "statename": "TAMIL NADU",
    "latitude": "10.1637250",
    "longitude": "78.4143560"
  },
  {
    "circlename": "Tamilnadu Circle",
    "regionname": "Southern Region Madurai",
    "divisionname": "Madurai Division",
    "officename": "Mangalampatti BO",
    "pincode": "625101",
    "officetype": "BO",
    "delivery": "Delivery",
    "district": "MADURAI",
    "statename": "TAMIL NADU",
    "latitude": "10.1456000",
    "longitude": "78.3456000"
  },
  {
    "circlename": "Tamilnadu Circle",
    "regionname": "Southern Region Madurai",
    "divisionname": "Madurai Division",
    "officename": "Kongampatti BO",
    "pincode": "625102",
    "officetype": "BO",
    "delivery": "Delivery",
    "district": "MADURAI",
    "statename": "TAMIL NADU",
    "latitude": "10.0704150",
    "longitude": "78.4154730"
  },
  {
    "circlename": "Tamilnadu Circle",
    "regionname": "Southern Region Madurai",
    "divisionname": "Madurai Division",
    "officename": "Malampatti BO",
    "pincode": "625102",
    "officetype": "BO",
    "delivery": "Delivery",
    "district": "MADURAI",
    "statename": "TAMIL NADU",
    "latitude": "10.0686080",
    "longitude": "78.4382440"
  },
  {
    "circlename": "Tamilnadu Circle",
    "regionname": "Southern Region Madurai",
    "divisionname": "Madurai Division",
    "officename": "Muthusamypatti BO",
    "pincode": "625102",
    "officetype": "BO",
    "delivery": "Delivery",
    "district": "MADURAI",
    "statename": "TAMIL NADU",
    "latitude": "10.0739350",
    "longitude": "78.4231690"
  },
  {
    "circlename": "Tamilnadu Circle",
    "regionname": "Southern Region Madurai",
    "divisionname": "Madurai Division",
    "officename": "Chockalingapuram BO",
    "pincode": "625103",
    "officetype": "BO",
    "delivery": "Delivery",
    "district": "MADURAI",
    "statename": "TAMIL NADU",
    "latitude": "10.1950300",
    "longitude": "78.3954270"
  },
  {
    "circlename": "Tamilnadu Circle",
    "regionname": "Southern Region Madurai",
    "divisionname": "Madurai Division",
    "officename": "Manappachery BO",
    "pincode": "625103",
    "officetype": "BO",
    "delivery": "Delivery",
    "district": "MADURAI",
    "statename": "TAMIL NADU",
    "latitude": "10.2200000",
    "longitude": "78.3500000"
  },
  {
    "circlename": "Tamilnadu Circle",
    "regionname": "Southern Region Madurai",
    "divisionname": "Madurai Division",
    "officename": "Pottapatti BO",
    "pincode": "625103",
    "officetype": "BO",
    "delivery": "Delivery",
    "district": "MADURAI",
    "statename": "TAMIL NADU",
    "latitude": "10.2300000",
    "longitude": "78.3600000"
  },
  {
    "circlename": "Tamilnadu Circle",
    "regionname": "Southern Region Madurai",
    "divisionname": "Madurai Division",
    "officename": "Karuvanur BO",
    "pincode": "625014",
    "officetype": "BO",
    "delivery": "Delivery",
    "district": "MADURAI",
    "statename": "TAMIL NADU",
    "latitude": "10.0215600",
    "longitude": "78.1429030"
  },
  {
    "circlename": "Tamilnadu Circle",
    "regionname": "Southern Region Madurai",
    "divisionname": "Madurai Division",
    "officename": "Tirumalpuram BO",
    "pincode": "625014",
    "officetype": "BO",
    "delivery": "Delivery",
    "district": "MADURAI",
    "statename": "TAMIL NADU",
    "latitude": "9.9939690",
    "longitude": "78.1471140"
  },
  {
    "circlename": "Tamilnadu Circle",
    "regionname": "Southern Region Madurai",
    "divisionname": "Madurai Division",
    "officename": "Tiruppalai BO",
    "pincode": "625014",
    "officetype": "BO",
    "delivery": "Non Delivery",
    "district": "MADURAI",
    "statename": "TAMIL NADU",
    "latitude": "9.9769740",
    "longitude": "78.1381190"
  },
  {
    "circlename": "Tamilnadu Circle",
    "regionname": "Southern Region Madurai",
    "divisionname": "Madurai Division",
    "officename": "Arumbanur BO",
    "pincode": "625104",
    "officetype": "BO",
    "delivery": "Delivery",
    "district": "MADURAI",
    "statename": "TAMIL NADU",
    "latitude": "9.9945050",
    "longitude": "78.1927790"
  },
  {
    "circlename": "Tamilnadu Circle",
    "regionname": "Southern Region Madurai",
    "divisionname": "Madurai Division",
    "officename": "Pathinettangudi BO",
    "pincode": "625106",
    "officetype": "BO",
    "delivery": "Delivery",
    "district": "MADURAI",
    "statename": "TAMIL NADU",
    "latitude": "9.9989500",
    "longitude": "78.3372840"
  },
  {
    "circlename": "Tamilnadu Circle",
    "regionname": "Southern Region Madurai",
    "divisionname": "Madurai Division",
    "officename": "Tirumoghur BO",
    "pincode": "625107",
    "officetype": "BO",
    "delivery": "Delivery",
    "district": "MADURAI",
    "statename": "TAMIL NADU",
    "latitude": "9.9497030",
    "longitude": "78.2070250"
  },
  {
    "circlename": "Tamilnadu Circle",
    "regionname": "Southern Region Madurai",
    "divisionname": "Madurai Division",
    "officename": "Uthangudi BO",
    "pincode": "625107",
    "officetype": "BO",
    "delivery": "Delivery",
    "district": "MADURAI",
    "statename": "TAMIL NADU",
    "latitude": "9.9513560",
    "longitude": "78.1688000"
  },
  {
    "circlename": "Tamilnadu Circle",
    "regionname": "Southern Region Madurai",
    "divisionname": "Madurai Division",
    "officename": "Chittampatti BO",
    "pincode": "625122",
    "officetype": "BO",
    "delivery": "Delivery",
    "district": "MADURAI",
    "statename": "TAMIL NADU",
    "latitude": "9.9959860",
    "longitude": "78.2208400"
  },
  {
    "circlename": "Tamilnadu Circle",
    "regionname": "Southern Region Madurai",
    "divisionname": "Madurai Division",
    "officename": "Budamangalam BO",
    "pincode": "625108",
    "officetype": "BO",
    "delivery": "Delivery",
    "district": "MADURAI",
    "statename": "TAMIL NADU",
    "latitude": "10.1072740",
    "longitude": "78.3943030"
  },
  {
    "circlename": "Tamilnadu Circle",
    "regionname": "Southern Region Madurai",
    "divisionname": "Madurai Division",
    "officename": "Ambalakaranpatti BO",
    "pincode": "625109",
    "officetype": "BO",
    "delivery": "Delivery",
    "district": "MADURAI",
    "statename": "TAMIL NADU",
    "latitude": "9.9682330",
    "longitude": "78.3916880"
  },
  {
    "circlename": "Tamilnadu Circle",
    "regionname": "Southern Region Madurai",
    "divisionname": "Madurai Division",
    "officename": "Uranganpatti BO",
    "pincode": "625109",
    "officetype": "BO",
    "delivery": "Delivery",
    "district": "MADURAI",
    "statename": "TAMIL NADU",
    "latitude": "9.9995010",
    "longitude": "78.4311400"
  },
  {
    "circlename": "Tamilnadu Circle",
    "regionname": "Southern Region Madurai",
    "divisionname": "Theni Division",
    "officename": "Athipatti B.O",
    "pincode": "625705",
    "officetype": "BO",
    "delivery": "Delivery",
    "district": "MADURAI",
    "statename": "TAMIL NADU",
    "latitude": "9.4940660",
    "longitude": "78.1265740"
  },
  {
    "circlename": "Tamilnadu Circle",
    "regionname": "Southern Region Madurai",
    "divisionname": "Theni Division",
    "officename": "Kethuvarpatti B.O",
    "pincode": "625705",
    "officetype": "BO",
    "delivery": "Delivery",
    "district": "MADURAI",
    "statename": "TAMIL NADU",
    "latitude": "9.7686940",
    "longitude": "77.7373660"
  },
  {
    "circlename": "Tamilnadu Circle",
    "regionname": "Southern Region Madurai",
    "divisionname": "Theni Division",
    "officename": "T.Krishnapuram B.O",
    "pincode": "625705",
    "officetype": "BO",
    "delivery": "Delivery",
    "district": "MADURAI",
    "statename": "TAMIL NADU",
    "latitude": "9.8076320",
    "longitude": "77.6693610"
  },
  {
    "circlename": "Tamilnadu Circle",
    "regionname": "Southern Region Madurai",
    "divisionname": "Theni Division",
    "officename": "Vandari B.O",
    "pincode": "625705",
    "officetype": "BO",
    "delivery": "Delivery",
    "district": "MADURAI",
    "statename": "TAMIL NADU",
    "latitude": "9.7790750",
    "longitude": "77.7301860"
  },
  {
    "circlename": "Tamilnadu Circle",
    "regionname": "Southern Region Madurai",
    "divisionname": "Theni Division",
    "officename": "Veppampatti B.O",
    "pincode": "625705",
    "officetype": "BO",
    "delivery": "Delivery",
    "district": "MADURAI",
    "statename": "TAMIL NADU",
    "latitude": "9.8122860",
    "longitude": "77.7209840"
  },
  {
    "circlename": "Tamilnadu Circle",
    "regionname": "Southern Region Madurai",
    "divisionname": "Theni Division",
    "officename": "Allikundam B.O",
    "pincode": "625527",
    "officetype": "BO",
    "delivery": "Delivery",
    "district": "MADURAI",
    "statename": "TAMIL NADU",
    "latitude": "11.8393340",
    "longitude": "77.9455490"
  },
  {
    "circlename": "Tamilnadu Circle",
    "regionname": "Southern Region Madurai",
    "divisionname": "Theni Division",
    "officename": "Kattathevanpatti B.O",
    "pincode": "625529",
    "officetype": "BO",
    "delivery": "Delivery",
    "district": "MADURAI",
    "statename": "TAMIL NADU",
    "latitude": "9.9198660",
    "longitude": "77.8360130"
  },
  {
    "circlename": "Tamilnadu Circle",
    "regionname": "Southern Region Madurai",
    "divisionname": "Theni Division",
    "officename": "Poruppumettupatti B.O",
    "pincode": "625529",
    "officetype": "BO",
    "delivery": "Delivery",
    "district": "MADURAI",
    "statename": "TAMIL NADU",
    "latitude": "9.9050340",
    "longitude": "77.8803160"
  },
  {
    "circlename": "Tamilnadu Circle",
    "regionname": "Southern Region Madurai",
    "divisionname": "Theni Division",
    "officename": "T.Uchapatti B.O",
    "pincode": "625529",
    "officetype": "BO",
    "delivery": "Delivery",
    "district": "MADURAI",
    "statename": "TAMIL NADU",
    "latitude": "9.8251680",
    "longitude": "77.9857520"
  },
  {
    "circlename": "Tamilnadu Circle",
    "regionname": "Southern Region Madurai",
    "divisionname": "Theni Division",
    "officename": "Boothipuram B.O",
    "pincode": "625532",
    "officetype": "BO",
    "delivery": "Delivery",
    "district": "MADURAI",
    "statename": "TAMIL NADU",
    "latitude": "10.0051190",
    "longitude": "77.4465310"
  },
  {
    "circlename": "Tamilnadu Circle",
    "regionname": "Southern Region Madurai",
    "divisionname": "Theni Division",
    "officename": "Kuravagudi B.O",
    "pincode": "625537",
    "officetype": "BO",
    "delivery": "Delivery",
    "district": "MADURAI",
    "statename": "TAMIL NADU",
    "latitude": "9.9800000",
    "longitude": "77.8700000"
  },
  {
    "circlename": "Tamilnadu Circle",
    "regionname": "Southern Region Madurai",
    "divisionname": "Theni Division",
    "officename": "Pappapatti B.O",
    "pincode": "625537",
    "officetype": "BO",
    "delivery": "Delivery",
    "district": "MADURAI",
    "statename": "TAMIL NADU",
    "latitude": "9.9638000",
    "longitude": "77.8777400"
  },
  {
    "circlename": "Tamilnadu Circle",
    "regionname": "Southern Region Madurai",
    "divisionname": "Theni Division",
    "officename": "Jothilnayakanur B.O",
    "pincode": "625535",
    "officetype": "BO",
    "delivery": "Delivery",
    "district": "MADURAI",
    "statename": "TAMIL NADU",
    "latitude": "10.0086170",
    "longitude": "77.3526710"
  },
  {
    "circlename": "Tamilnadu Circle",
    "regionname": "Southern Region Madurai",
    "divisionname": "Theni Division",
    "officename": "Seelnayakanpatti B.O",
    "pincode": "625535",
    "officetype": "BO",
    "delivery": "Delivery",
    "district": "MADURAI",
    "statename": "TAMIL NADU",
    "latitude": "11.6203860",
    "longitude": "78.1468410"
  },
  {
    "circlename": "Tamilnadu Circle",
    "regionname": "Southern Region Madurai",
    "divisionname": "Theni Division",
    "officename": "Uthapuram B.O",
    "pincode": "625535",
    "officetype": "BO",
    "delivery": "Delivery",
    "district": "MADURAI",
    "statename": "TAMIL NADU",
    "latitude": "9.8790720",
    "longitude": "77.7137310"
  },
  {
    "circlename": "Tamilnadu Circle",
    "regionname": "Southern Region Madurai",
    "divisionname": "Madurai Division",
    "officename": "Tallakulam HO",
    "pincode": "625002",
    "officetype": "HO",
    "delivery": "Delivery",
    "district": "MADURAI",
    "statename": "TAMIL NADU",
    "latitude": "9.931492",
    "longitude": "78.132313"
  },
  {
    "circlename": "Tamilnadu Circle",
    "regionname": "Southern Region Madurai",
    "divisionname": "Madurai Division",
    "officename": "Alanganallur SO",
    "pincode": "625501",
    "officetype": "PO",
    "delivery": "Delivery",
    "district": "MADURAI",
    "statename": "TAMIL NADU",
    "latitude": "10.0456111",
    "longitude": "78.0854167"
  },
  {
    "circlename": "Tamilnadu Circle",
    "regionname": "Southern Region Madurai",
    "divisionname": "Madurai Division",
    "officename": "Karupatti SO",
    "pincode": "625205",
    "officetype": "PO",
    "delivery": "Delivery",
    "district": "MADURAI",
    "statename": "TAMIL NADU",
    "latitude": "10.0566200",
    "longitude": "77.9022200"
  },
  {
    "circlename": "Tamilnadu Circle",
    "regionname": "Southern Region Madurai",
    "divisionname": "Madurai Division",
    "officename": "Mullipallam SO",
    "pincode": "625207",
    "officetype": "PO",
    "delivery": "Delivery",
    "district": "MADURAI",
    "statename": "TAMIL NADU",
    "latitude": "10.0222500",
    "longitude": "77.9528889"
  },
  {
    "circlename": "Tamilnadu Circle",
    "regionname": "Southern Region Madurai",
    "divisionname": "Madurai Division",
    "officename": "Palamedu SO",
    "pincode": "625503",
    "officetype": "PO",
    "delivery": "Delivery",
    "district": "MADURAI",
    "statename": "TAMIL NADU",
    "latitude": "10.1033611",
    "longitude": "78.1106944"
  },
  {
    "circlename": "Tamilnadu Circle",
    "regionname": "Southern Region Madurai",
    "divisionname": "Madurai Division",
    "officename": "Sholavandan SO",
    "pincode": "625214",
    "officetype": "PO",
    "delivery": "Delivery",
    "district": "MADURAI",
    "statename": "TAMIL NADU",
    "latitude": "10.022204",
    "longitude": "77.961453"
  },
  {
    "circlename": "Tamilnadu Circle",
    "regionname": "Southern Region Madurai",
    "divisionname": "Madurai Division",
    "officename": "Vadipatti SO",
    "pincode": "625218",
    "officetype": "PO",
    "delivery": "Delivery",
    "district": "MADURAI",
    "statename": "TAMIL NADU",
    "latitude": "10.0816667",
    "longitude": "77.9669722"
  },
  {
    "circlename": "Tamilnadu Circle",
    "regionname": "Southern Region Madurai",
    "divisionname": "Madurai Division",
    "officename": "Thiagarajar Engg College SO",
    "pincode": "625015",
    "officetype": "PO",
    "delivery": "Delivery",
    "district": "MADURAI",
    "statename": "TAMIL NADU",
    "latitude": "9.8834167",
    "longitude": "78.0798889"
  },
  {
    "circlename": "Tamilnadu Circle",
    "regionname": "Southern Region Madurai",
    "divisionname": "Madurai Division",
    "officename": "Tirumangalam SO",
    "pincode": "625706",
    "officetype": "PO",
    "delivery": "Delivery",
    "district": "MADURAI",
    "statename": "TAMIL NADU",
    "latitude": "9.8248333",
    "longitude": "77.9856389"
  },
  {
    "circlename": "Tamilnadu Circle",
    "regionname": "Southern Region Madurai",
    "divisionname": "Madurai Division",
    "officename": "Karungalakudi SO",
    "pincode": "625101",
    "officetype": "PO",
    "delivery": "Delivery",
    "district": "MADURAI",
    "statename": "TAMIL NADU",
    "latitude": "10.1585556",
    "longitude": "78.3608889"
  },
  {
    "circlename": "Tamilnadu Circle",
    "regionname": "Southern Region Madurai",
    "divisionname": "Madurai Division",
    "officename": "Ma Race Course SO",
    "pincode": "625002",
    "officetype": "PO",
    "delivery": "Non Delivery",
    "district": "MADURAI",
    "statename": "TAMIL NADU",
    "latitude": "9.9433333",
    "longitude": "78.1358333"
  },
  {
    "circlename": "Tamilnadu Circle",
    "regionname": "Southern Region Madurai",
    "divisionname": "Madurai Division",
    "officename": "Ma Reserve Lines SO",
    "pincode": "625014",
    "officetype": "PO",
    "delivery": "Delivery",
    "district": "MADURAI",
    "statename": "TAMIL NADU",
    "latitude": "9.9522222",
    "longitude": "78.1333333"
  },
  {
    "circlename": "Tamilnadu Circle",
    "regionname": "Southern Region Madurai",
    "divisionname": "Madurai Division",
    "officename": "Madurai Courts SO",
    "pincode": "625020",
    "officetype": "PO",
    "delivery": "Non Delivery",
    "district": "MADURAI",
    "statename": "TAMIL NADU",
    "latitude": "9.9381389",
    "longitude": "78.1426944"
  },
  {
    "circlename": "Tamilnadu Circle",
    "regionname": "Southern Region Madurai",
    "divisionname": "Madurai Division",
    "officename": "Meenambalpuram SO",
    "pincode": "625002",
    "officetype": "PO",
    "delivery": "Non Delivery",
    "district": "MADURAI",
    "statename": "TAMIL NADU",
    "latitude": "9.9494000",
    "longitude": "78.1215000"
  },
  {
    "circlename": "Tamilnadu Circle",
    "regionname": "Southern Region Madurai",
    "divisionname": "Madurai Division",
    "officename": "Pudur Bazaar SO",
    "pincode": "625007",
    "officetype": "PO",
    "delivery": "Non Delivery",
    "district": "MADURAI",
    "statename": "TAMIL NADU",
    "latitude": "9.9433889",
    "longitude": "78.1465000"
  },
  {
    "circlename": "Tamilnadu Circle",
    "regionname": "Southern Region Madurai",
    "divisionname": "Madurai Division",
    "officename": "Sellur SO Madurai",
    "pincode": "625002",
    "officetype": "PO",
    "delivery": "Non Delivery",
    "district": "MADURAI",
    "statename": "TAMIL NADU",
    "latitude": "9.9363598",
    "longitude": "78.1208019"
  },
  {
    "circlename": "Tamilnadu Circle",
    "regionname": "Southern Region Madurai",
    "divisionname": "Theni Division",
    "officename": "Sindhupatti S.O",
    "pincode": "625529",
    "officetype": "PO",
    "delivery": "Delivery",
    "district": "MADURAI",
    "statename": "TAMIL NADU",
    "latitude": "9.8902500",
    "longitude": "77.8714167"
  },
  {
    "circlename": "Tamilnadu Circle",
    "regionname": "Southern Region Madurai",
    "divisionname": "Madurai Division",
    "officename": "Kallanai BO",
    "pincode": "625501",
    "officetype": "BO",
    "delivery": "Delivery",
    "district": "MADURAI",
    "statename": "TAMIL NADU",
    "latitude": "10.0375860",
    "longitude": "78.0826650"
  },
  {
    "circlename": "Tamilnadu Circle",
    "regionname": "Southern Region Madurai",
    "divisionname": "Madurai Division",
    "officename": "Kuttimeichanpatti BO",
    "pincode": "625501",
    "officetype": "BO",
    "delivery": "Delivery",
    "district": "MADURAI",
    "statename": "TAMIL NADU",
    "latitude": "10.1345000",
    "longitude": "78.1264840"
  },
  {
    "circlename": "Tamilnadu Circle",
    "regionname": "Southern Region Madurai",
    "divisionname": "Madurai Division",
    "officename": "Ayyankuruvithurai BO",
    "pincode": "625207",
    "officetype": "BO",
    "delivery": "Delivery",
    "district": "MADURAI",
    "statename": "TAMIL NADU",
    "latitude": "10.0575970",
    "longitude": "77.9067470"
  },
  {
    "circlename": "Tamilnadu Circle",
    "regionname": "Southern Region Madurai",
    "divisionname": "Madurai Division",
    "officename": "Vadivelkarai BO",
    "pincode": "625019",
    "officetype": "BO",
    "delivery": "Delivery",
    "district": "MADURAI",
    "statename": "TAMIL NADU",
    "latitude": "9.9178320",
    "longitude": "78.0637670"
  },
  {
    "circlename": "Tamilnadu Circle",
    "regionname": "Southern Region Madurai",
    "divisionname": "Madurai Division",
    "officename": "Chatravellalapatti BO",
    "pincode": "625503",
    "officetype": "BO",
    "delivery": "Delivery",
    "district": "MADURAI",
    "statename": "TAMIL NADU",
    "latitude": "10.1484650",
    "longitude": "78.1172440"
  },
  {
    "circlename": "Tamilnadu Circle",
    "regionname": "Southern Region Madurai",
    "divisionname": "Madurai Division",
    "officename": "Muduvarpatti BO",
    "pincode": "625503",
    "officetype": "BO",
    "delivery": "Delivery",
    "district": "MADURAI",
    "statename": "TAMIL NADU",
    "latitude": "10.0814010",
    "longitude": "78.1257980"
  },
  {
    "circlename": "Tamilnadu Circle",
    "regionname": "Southern Region Madurai",
    "divisionname": "Madurai Division",
    "officename": "Thodaneri BO",
    "pincode": "625402",
    "officetype": "BO",
    "delivery": "Delivery",
    "district": "MADURAI",
    "statename": "TAMIL NADU",
    "latitude": "9.9912540",
    "longitude": "78.0355910"
  },
  {
    "circlename": "Tamilnadu Circle",
    "regionname": "Southern Region Madurai",
    "divisionname": "Madurai Division",
    "officename": "Sithalangudi BO",
    "pincode": "625221",
    "officetype": "BO",
    "delivery": "Delivery",
    "district": "MADURAI",
    "statename": "TAMIL NADU",
    "latitude": "9.9476140",
    "longitude": "78.0908650"
  },
  {
    "circlename": "Tamilnadu Circle",
    "regionname": "Southern Region Madurai",
    "divisionname": "Madurai Division",
    "officename": "Melakkal BO",
    "pincode": "625234",
    "officetype": "BO",
    "delivery": "Delivery",
    "district": "MADURAI",
    "statename": "TAMIL NADU",
    "latitude": "9.9808000",
    "longitude": "77.9838580"
  },
  {
    "circlename": "Tamilnadu Circle",
    "regionname": "Southern Region Madurai",
    "divisionname": "Madurai Division",
    "officename": "Kulasekarankottai BO",
    "pincode": "625218",
    "officetype": "BO",
    "delivery": "Delivery",
    "district": "MADURAI",
    "statename": "TAMIL NADU",
    "latitude": "10.0909540",
    "longitude": "77.9614410"
  },
  {
    "circlename": "Tamilnadu Circle",
    "regionname": "Southern Region Madurai",
    "divisionname": "Madurai Division",
    "officename": "Avalsurampatti BO",
    "pincode": "625701",
    "officetype": "BO",
    "delivery": "Delivery",
    "district": "MADURAI",
    "statename": "TAMIL NADU",
    "latitude": "9.6410310",
    "longitude": "77.9758070"
  },
  {
    "circlename": "Tamilnadu Circle",
    "regionname": "Southern Region Madurai",
    "divisionname": "Madurai Division",
    "officename": "KSennampatti BO",
    "pincode": "625701",
    "officetype": "BO",
    "delivery": "Delivery",
    "district": "MADURAI",
    "statename": "TAMIL NADU",
    "latitude": "9.6821010",
    "longitude": "78.0457500"
  },
  {
    "circlename": "Tamilnadu Circle",
    "regionname": "Southern Region Madurai",
    "divisionname": "Madurai Division",
    "officename": "Odaipatti BO",
    "pincode": "625701",
    "officetype": "BO",
    "delivery": "Delivery",
    "district": "MADURAI",
    "statename": "TAMIL NADU",
    "latitude": "9.6957950",
    "longitude": "77.9740320"
  },
  {
    "circlename": "Tamilnadu Circle",
    "regionname": "Southern Region Madurai",
    "divisionname": "Madurai Division",
    "officename": "Koothiyargundu BO",
    "pincode": "625008",
    "officetype": "BO",
    "delivery": "Delivery",
    "district": "MADURAI",
    "statename": "TAMIL NADU",
    "latitude": "9.8496030",
    "longitude": "78.0292150"
  },
  {
    "circlename": "Tamilnadu Circle",
    "regionname": "Southern Region Madurai",
    "divisionname": "Madurai Division",
    "officename": "Mangalrevu BO",
    "pincode": "625703",
    "officetype": "BO",
    "delivery": "Delivery",
    "district": "MADURAI",
    "statename": "TAMIL NADU",
    "latitude": "9.7950860",
    "longitude": "77.8171060"
  },
  {
    "circlename": "Tamilnadu Circle",
    "regionname": "Southern Region Madurai",
    "divisionname": "Madurai Division",
    "officename": "Melauppiligundu BO",
    "pincode": "625022",
    "officetype": "BO",
    "delivery": "Delivery",
    "district": "MADURAI",
    "statename": "TAMIL NADU",
    "latitude": "9.9357000",
    "longitude": "78.1254000"
  },
  {
    "circlename": "Tamilnadu Circle",
    "regionname": "Southern Region Madurai",
    "divisionname": "Madurai Division",
    "officename": "Nallur BO",
    "pincode": "625022",
    "officetype": "BO",
    "delivery": "Delivery",
    "district": "MADURAI",
    "statename": "TAMIL NADU",
    "latitude": "9.7881000",
    "longitude": "78.1344000"
  },
  {
    "circlename": "Tamilnadu Circle",
    "regionname": "Southern Region Madurai",
    "divisionname": "Madurai Division",
    "officename": "Perungudi BO",
    "pincode": "625022",
    "officetype": "BO",
    "delivery": "Delivery",
    "district": "MADURAI",
    "statename": "TAMIL NADU",
    "latitude": "9.8532000",
    "longitude": "78.0980000"
  },
  {
    "circlename": "Tamilnadu Circle",
    "regionname": "Southern Region Madurai",
    "divisionname": "Madurai Division",
    "officename": "SNCollege BO",
    "pincode": "625022",
    "officetype": "BO",
    "delivery": "Delivery",
    "district": "MADURAI",
    "statename": "TAMIL NADU",
    "latitude": "9.9276587",
    "longitude": "78.1360000"
  },
  {
    "circlename": "Tamilnadu Circle",
    "regionname": "Southern Region Madurai",
    "divisionname": "Madurai Division",
    "officename": "Solanguruni BO",
    "pincode": "625022",
    "officetype": "BO",
    "delivery": "Delivery",
    "district": "MADURAI",
    "statename": "TAMIL NADU",
    "latitude": "9.8075000",
    "longitude": "78.1198000"
  },
  {
    "circlename": "Tamilnadu Circle",
    "regionname": "Southern Region Madurai",
    "divisionname": "Madurai Division",
    "officename": "Silarpatti BO",
    "pincode": "625702",
    "officetype": "BO",
    "delivery": "Delivery",
    "district": "MADURAI",
    "statename": "TAMIL NADU",
    "latitude": "9.6823960",
    "longitude": "77.8524920"
  },
  {
    "circlename": "Tamilnadu Circle",
    "regionname": "Southern Region Madurai",
    "divisionname": "Madurai Division",
    "officename": "Ganjampatti BO",
    "pincode": "625708",
    "officetype": "BO",
    "delivery": "Delivery",
    "district": "MADURAI",
    "statename": "TAMIL NADU",
    "latitude": "9.7302910",
    "longitude": "77.9132370"
  },
  {
    "circlename": "Tamilnadu Circle",
    "regionname": "Southern Region Madurai",
    "divisionname": "Madurai Division",
    "officename": "Sithireddipatti BO",
    "pincode": "625704",
    "officetype": "BO",
    "delivery": "Delivery",
    "district": "MADURAI",
    "statename": "TAMIL NADU",
    "latitude": "9.7918710",
    "longitude": "77.8766730"
  },
  {
    "circlename": "Tamilnadu Circle",
    "regionname": "Southern Region Madurai",
    "divisionname": "Madurai Division",
    "officename": "Harveypatti BO",
    "pincode": "625005",
    "officetype": "BO",
    "delivery": "Non Delivery",
    "district": "MADURAI",
    "statename": "TAMIL NADU",
    "latitude": "9.8774870",
    "longitude": "78.0167020"
  },
  {
    "circlename": "Tamilnadu Circle",
    "regionname": "Southern Region Madurai",
    "divisionname": "Madurai Division",
    "officename": "Arasapatti BO",
    "pincode": "625706",
    "officetype": "BO",
    "delivery": "Delivery",
    "district": "MADURAI",
    "statename": "TAMIL NADU",
    "latitude": "9.7500860",
    "longitude": "78.0083770"
  },
  {
    "circlename": "Tamilnadu Circle",
    "regionname": "Southern Region Madurai",
    "divisionname": "Madurai Division",
    "officename": "Kangeyanatham BO",
    "pincode": "625706",
    "officetype": "BO",
    "delivery": "Delivery",
    "district": "MADURAI",
    "statename": "TAMIL NADU",
    "latitude": "9.8767790",
    "longitude": "77.8992460"
  },
  {
    "circlename": "Tamilnadu Circle",
    "regionname": "Southern Region Madurai",
    "divisionname": "Madurai Division",
    "officename": "Sathangudi BO",
    "pincode": "625706",
    "officetype": "BO",
    "delivery": "Delivery",
    "district": "MADURAI",
    "statename": "TAMIL NADU",
    "latitude": "9.8414320",
    "longitude": "77.9354670"
  },
  {
    "circlename": "Tamilnadu Circle",
    "regionname": "Southern Region Madurai",
    "divisionname": "Madurai Division",
    "officename": "Veeraperumalpuram BO",
    "pincode": "625706",
    "officetype": "BO",
    "delivery": "Delivery",
    "district": "MADURAI",
    "statename": "TAMIL NADU",
    "latitude": "9.7363820",
    "longitude": "78.0145170"
  },
  {
    "circlename": "Tamilnadu Circle",
    "regionname": "Southern Region Madurai",
    "divisionname": "Madurai Division",
    "officename": "Vidathakulam BO",
    "pincode": "625706",
    "officetype": "BO",
    "delivery": "Delivery",
    "district": "MADURAI",
    "statename": "TAMIL NADU",
    "latitude": "9.8063340",
    "longitude": "78.0312540"
  },
  {
    "circlename": "Tamilnadu Circle",
    "regionname": "Southern Region Madurai",
    "divisionname": "Madurai Division",
    "officename": "Thanakkankulam BO",
    "pincode": "625006",
    "officetype": "BO",
    "delivery": "Delivery",
    "district": "MADURAI",
    "statename": "TAMIL NADU",
    "latitude": "9.8848120",
    "longitude": "78.0420680"
  },
  {
    "circlename": "Tamilnadu Circle",
    "regionname": "Southern Region Madurai",
    "divisionname": "Madurai Division",
    "officename": "Lakshmipuram BO",
    "pincode": "625301",
    "officetype": "BO",
    "delivery": "Delivery",
    "district": "MADURAI",
    "statename": "TAMIL NADU",
    "latitude": "10.0300000",
    "longitude": "78.2200000"
  },
  {
    "circlename": "Tamilnadu Circle",
    "regionname": "Southern Region Madurai",
    "divisionname": "Madurai Division",
    "officename": "Mathur BO",
    "pincode": "625301",
    "officetype": "BO",
    "delivery": "Delivery",
    "district": "MADURAI",
    "statename": "TAMIL NADU",
    "latitude": "10.0115730",
    "longitude": "78.1995460"
  },
  {
    "circlename": "Tamilnadu Circle",
    "regionname": "Southern Region Madurai",
    "divisionname": "Madurai Division",
    "officename": "Sakkudi BO",
    "pincode": "625020",
    "officetype": "BO",
    "delivery": "Delivery",
    "district": "MADURAI",
    "statename": "TAMIL NADU",
    "latitude": "9.8633000",
    "longitude": "78.2263000"
  },
  {
    "circlename": "Tamilnadu Circle",
    "regionname": "Southern Region Madurai",
    "divisionname": "Madurai Division",
    "officename": "Nattarmangalam BO",
    "pincode": "625101",
    "officetype": "BO",
    "delivery": "Delivery",
    "district": "MADURAI",
    "statename": "TAMIL NADU",
    "latitude": "10.0859800",
    "longitude": "78.3741860"
  },
  {
    "circlename": "Tamilnadu Circle",
    "regionname": "Southern Region Madurai",
    "divisionname": "Madurai Division",
    "officename": "Othakoilpatti BO",
    "pincode": "625101",
    "officetype": "BO",
    "delivery": "Delivery",
    "district": "MADURAI",
    "statename": "TAMIL NADU",
    "latitude": "10.1800000",
    "longitude": "78.3400000"
  },
  {
    "circlename": "Tamilnadu Circle",
    "regionname": "Southern Region Madurai",
    "divisionname": "Madurai Division",
    "officename": "Sokkampatti BO",
    "pincode": "625103",
    "officetype": "BO",
    "delivery": "Delivery",
    "district": "MADURAI",
    "statename": "TAMIL NADU",
    "latitude": "10.2230620",
    "longitude": "78.3714230"
  },
  {
    "circlename": "Tamilnadu Circle",
    "regionname": "Southern Region Madurai",
    "divisionname": "Madurai Division",
    "officename": "Thonthilingapuram BO",
    "pincode": "625103",
    "officetype": "BO",
    "delivery": "Delivery",
    "district": "MADURAI",
    "statename": "TAMIL NADU",
    "latitude": "10.2552480",
    "longitude": "78.3575560"
  },
  {
    "circlename": "Tamilnadu Circle",
    "regionname": "Southern Region Madurai",
    "divisionname": "Madurai Division",
    "officename": "Chintamani BO",
    "pincode": "625009",
    "officetype": "BO",
    "delivery": "Delivery",
    "district": "MADURAI",
    "statename": "TAMIL NADU",
    "latitude": "13.4020000",
    "longitude": "78.0551000"
  },
  {
    "circlename": "Tamilnadu Circle",
    "regionname": "Southern Region Madurai",
    "divisionname": "Madurai Division",
    "officename": "Chatrapatti BO",
    "pincode": "625014",
    "officetype": "BO",
    "delivery": "Delivery",
    "district": "MADURAI",
    "statename": "TAMIL NADU",
    "latitude": "9.4175680",
    "longitude": "77.6006240"
  },
  {
    "circlename": "Tamilnadu Circle",
    "regionname": "Southern Region Madurai",
    "divisionname": "Madurai Division",
    "officename": "Sennagarampatti BO",
    "pincode": "625105",
    "officetype": "BO",
    "delivery": "Delivery",
    "district": "MADURAI",
    "statename": "TAMIL NADU",
    "latitude": "10.0800000",
    "longitude": "78.3200000"
  },
  {
    "circlename": "Tamilnadu Circle",
    "regionname": "Southern Region Madurai",
    "divisionname": "Madurai Division",
    "officename": "Kottagudi BO",
    "pincode": "625106",
    "officetype": "BO",
    "delivery": "Delivery",
    "district": "MADURAI",
    "statename": "TAMIL NADU",
    "latitude": "9.9742950",
    "longitude": "78.3487230"
  },
  {
    "circlename": "Tamilnadu Circle",
    "regionname": "Southern Region Madurai",
    "divisionname": "Madurai Division",
    "officename": "Ilamanur BO",
    "pincode": "625201",
    "officetype": "BO",
    "delivery": "Delivery",
    "district": "MADURAI",
    "statename": "TAMIL NADU",
    "latitude": "9.9028860",
    "longitude": "78.2219800"
  },
  {
    "circlename": "Tamilnadu Circle",
    "regionname": "Southern Region Madurai",
    "divisionname": "Madurai Division",
    "officename": "Puliankulam BO",
    "pincode": "625201",
    "officetype": "BO",
    "delivery": "Delivery",
    "district": "MADURAI",
    "statename": "TAMIL NADU",
    "latitude": "9.6594980",
    "longitude": "77.9224600"
  },
  {
    "circlename": "Tamilnadu Circle",
    "regionname": "Southern Region Madurai",
    "divisionname": "Madurai Division",
    "officename": "TVellalapatti BO",
    "pincode": "625122",
    "officetype": "BO",
    "delivery": "Delivery",
    "district": "MADURAI",
    "statename": "TAMIL NADU",
    "latitude": "9.9792140",
    "longitude": "78.3230560"
  },
  {
    "circlename": "Tamilnadu Circle",
    "regionname": "Southern Region Madurai",
    "divisionname": "Madurai Division",
    "officename": "Attapatti BO",
    "pincode": "625108",
    "officetype": "BO",
    "delivery": "Delivery",
    "district": "MADURAI",
    "statename": "TAMIL NADU",
    "latitude": "10.0900000",
    "longitude": "78.3900000"
  },
  {
    "circlename": "Tamilnadu Circle",
    "regionname": "Southern Region Madurai",
    "divisionname": "Madurai Division",
    "officename": "Alagichipatti BO",
    "pincode": "625109",
    "officetype": "BO",
    "delivery": "Delivery",
    "district": "MADURAI",
    "statename": "TAMIL NADU",
    "latitude": "9.9961060",
    "longitude": "78.4421560"
  },
  {
    "circlename": "Tamilnadu Circle",
    "regionname": "Southern Region Madurai",
    "divisionname": "Theni Division",
    "officename": "Thullukuttinayakanur B.O",
    "pincode": "625705",
    "officetype": "BO",
    "delivery": "Delivery",
    "district": "MADURAI",
    "statename": "TAMIL NADU",
    "latitude": "9.8100000",
    "longitude": "77.6800000"
  },
  {
    "circlename": "Tamilnadu Circle",
    "regionname": "Southern Region Madurai",
    "divisionname": "Theni Division",
    "officename": "Erumarpatti B.O",
    "pincode": "625527",
    "officetype": "BO",
    "delivery": "Delivery",
    "district": "MADURAI",
    "statename": "TAMIL NADU",
    "latitude": "9.9000000",
    "longitude": "77.7700000"
  },
  {
    "circlename": "Tamilnadu Circle",
    "regionname": "Southern Region Madurai",
    "divisionname": "Theni Division",
    "officename": "Kalappanpatti B.O",
    "pincode": "625529",
    "officetype": "BO",
    "delivery": "Delivery",
    "district": "MADURAI",
    "statename": "TAMIL NADU",
    "latitude": "9.8600000",
    "longitude": "77.8400000"
  },
  {
    "circlename": "Tamilnadu Circle",
    "regionname": "Southern Region Madurai",
    "divisionname": "Theni Division",
    "officename": "Vadugapatti B.O",
    "pincode": "625532",
    "officetype": "BO",
    "delivery": "Delivery",
    "district": "MADURAI",
    "statename": "TAMIL NADU",
    "latitude": "10.0033410",
    "longitude": "78.1136790"
  },
  {
    "circlename": "Tamilnadu Circle",
    "regionname": "Southern Region Madurai",
    "divisionname": "Theni Division",
    "officename": "Vagurani B.O",
    "pincode": "625532",
    "officetype": "BO",
    "delivery": "Delivery",
    "district": "MADURAI",
    "statename": "TAMIL NADU",
    "latitude": "9.9637840",
    "longitude": "77.7877820"
  },
  {
    "circlename": "Tamilnadu Circle",
    "regionname": "Southern Region Madurai",
    "divisionname": "Theni Division",
    "officename": "Vellamalaipatti B.O",
    "pincode": "625537",
    "officetype": "BO",
    "delivery": "Delivery",
    "district": "MADURAI",
    "statename": "TAMIL NADU",
    "latitude": "10.0114830",
    "longitude": "77.7916930"
  },
  {
    "circlename": "Tamilnadu Circle",
    "regionname": "Southern Region Madurai",
    "divisionname": "Theni Division",
    "officename": "Mallapuram B.O",
    "pincode": "625535",
    "officetype": "BO",
    "delivery": "Delivery",
    "district": "MADURAI",
    "statename": "TAMIL NADU",
    "latitude": "9.8299060",
    "longitude": "77.6704350"
  },
  {
    "circlename": "Tamilnadu Circle",
    "regionname": "Southern Region Madurai",
    "divisionname": "Madurai Division",
    "officename": "Gnanaolivupuram SO",
    "pincode": "625016",
    "officetype": "PO",
    "delivery": "Non Delivery",
    "district": "MADURAI",
    "statename": "TAMIL NADU",
    "latitude": "9.9351944",
    "longitude": "78.1040000"
  },
  {
    "circlename": "Tamilnadu Circle",
    "regionname": "Southern Region Madurai",
    "divisionname": "Madurai Division",
    "officename": "Mudakkuchalai SO",
    "pincode": "625016",
    "officetype": "PO",
    "delivery": "Non Delivery",
    "district": "MADURAI",
    "statename": "TAMIL NADU",
    "latitude": "9.9353056",
    "longitude": "78.0904167"
  },
  {
    "circlename": "Tamilnadu Circle",
    "regionname": "Southern Region Madurai",
    "divisionname": "Madurai Division",
    "officename": "Jaihindpuram SO",
    "pincode": "625011",
    "officetype": "PO",
    "delivery": "Non Delivery",
    "district": "MADURAI",
    "statename": "TAMIL NADU",
    "latitude": "9.9670278",
    "longitude": "77.7841111"
  },
  {
    "circlename": "Tamilnadu Circle",
    "regionname": "Southern Region Madurai",
    "divisionname": "Madurai Division",
    "officename": "Madurai Bazaar SO",
    "pincode": "625001",
    "officetype": "PO",
    "delivery": "Non Delivery",
    "district": "MADURAI",
    "statename": "TAMIL NADU",
    "latitude": "9.9181111",
    "longitude": "78.1189722"
  },
  {
    "circlename": "Tamilnadu Circle",
    "regionname": "Southern Region Madurai",
    "divisionname": "Madurai Division",
    "officename": "Alagarkoil SO",
    "pincode": "625301",
    "officetype": "PO",
    "delivery": "Delivery",
    "district": "MADURAI",
    "statename": "TAMIL NADU",
    "latitude": "10.0726111",
    "longitude": "78.2150278"
  },
  {
    "circlename": "Tamilnadu Circle",
    "regionname": "Southern Region Madurai",
    "divisionname": "Madurai Division",
    "officename": "Gandhi Nagar MA SO",
    "pincode": "625020",
    "officetype": "PO",
    "delivery": "Delivery",
    "district": "MADURAI",
    "statename": "TAMIL NADU",
    "latitude": "9.7538056",
    "longitude": "78.5562222"
  },
  {
    "circlename": "Tamilnadu Circle",
    "regionname": "Southern Region Madurai",
    "divisionname": "Madurai Division",
    "officename": "KPudur SO",
    "pincode": "625007",
    "officetype": "PO",
    "delivery": "Delivery",
    "district": "MADURAI",
    "statename": "TAMIL NADU",
    "latitude": "9.943368",
    "longitude": "78.148401"
  },
  {
    "circlename": "Tamilnadu Circle",
    "regionname": "Southern Region Madurai",
    "divisionname": "Madurai Division",
    "officename": "Silaiman SO",
    "pincode": "625201",
    "officetype": "PO",
    "delivery": "Delivery",
    "district": "MADURAI",
    "statename": "TAMIL NADU",
    "latitude": "9.8741944",
    "longitude": "78.1893056"
  },
  {
    "circlename": "Tamilnadu Circle",
    "regionname": "Southern Region Madurai",
    "divisionname": "Madurai Division",
    "officename": "Surveyor Colony SO",
    "pincode": "625007",
    "officetype": "PO",
    "delivery": "Non Delivery",
    "district": "MADURAI",
    "statename": "TAMIL NADU",
    "latitude": "45.5535278",
    "longitude": "78.2571111"
  },
  {
    "circlename": "Tamilnadu Circle",
    "regionname": "Southern Region Madurai",
    "divisionname": "Theni Division",
    "officename": "Saptur S.O",
    "pincode": "625705",
    "officetype": "PO",
    "delivery": "Delivery",
    "district": "MADURAI",
    "statename": "TAMIL NADU",
    "latitude": "9.769247",
    "longitude": "77.73674"
  },
  {
    "circlename": "Tamilnadu Circle",
    "regionname": "Southern Region Madurai",
    "divisionname": "Theni Division",
    "officename": "Yelumalai S.O",
    "pincode": "625535",
    "officetype": "PO",
    "delivery": "Delivery",
    "district": "MADURAI",
    "statename": "TAMIL NADU",
    "latitude": "9.5200000",
    "longitude": "77.4200000"
  },
  {
    "circlename": "Tamilnadu Circle",
    "regionname": "Southern Region Madurai",
    "divisionname": "Madurai Division",
    "officename": "APudupatti BO",
    "pincode": "625501",
    "officetype": "BO",
    "delivery": "Delivery",
    "district": "MADURAI",
    "statename": "TAMIL NADU",
    "latitude": "10.0464060",
    "longitude": "78.0701850"
  },
  {
    "circlename": "Tamilnadu Circle",
    "regionname": "Southern Region Madurai",
    "divisionname": "Madurai Division",
    "officename": "Achampatti BO",
    "pincode": "625501",
    "officetype": "BO",
    "delivery": "Delivery",
    "district": "MADURAI",
    "statename": "TAMIL NADU",
    "latitude": "10.6730740",
    "longitude": "78.9615940"
  },
  {
    "circlename": "Tamilnadu Circle",
    "regionname": "Southern Region Madurai",
    "divisionname": "Madurai Division",
    "officename": "Mettupatti BO",
    "pincode": "625501",
    "officetype": "BO",
    "delivery": "Non Delivery",
    "district": "MADURAI",
    "statename": "TAMIL NADU",
    "latitude": "10.1250970",
    "longitude": "78.1364890"
  },
  {
    "circlename": "Tamilnadu Circle",
    "regionname": "Southern Region Madurai",
    "divisionname": "Madurai Division",
    "officename": "Valasai BO",
    "pincode": "625501",
    "officetype": "BO",
    "delivery": "Delivery",
    "district": "MADURAI",
    "statename": "TAMIL NADU",
    "latitude": "10.0323520",
    "longitude": "78.1001810"
  },
  {
    "circlename": "Tamilnadu Circle",
    "regionname": "Southern Region Madurai",
    "divisionname": "Madurai Division",
    "officename": "Vavidaimaruthur BO",
    "pincode": "625501",
    "officetype": "BO",
    "delivery": "Delivery",
    "district": "MADURAI",
    "statename": "TAMIL NADU",
    "latitude": "10.0391540",
    "longitude": "78.1165310"
  },
  {
    "circlename": "Tamilnadu Circle",
    "regionname": "Southern Region Madurai",
    "divisionname": "Madurai Division",
    "officename": "AKokkulam BO",
    "pincode": "625514",
    "officetype": "BO",
    "delivery": "Delivery",
    "district": "MADURAI",
    "statename": "TAMIL NADU",
    "latitude": "9.9434980",
    "longitude": "77.9767200"
  },
  {
    "circlename": "Tamilnadu Circle",
    "regionname": "Southern Region Madurai",
    "divisionname": "Madurai Division",
    "officename": "Chellampatti BO",
    "pincode": "625514",
    "officetype": "BO",
    "delivery": "Delivery",
    "district": "MADURAI",
    "statename": "TAMIL NADU",
    "latitude": "8.1582900",
    "longitude": "77.8988900"
  },
  {
    "circlename": "Tamilnadu Circle",
    "regionname": "Southern Region Madurai",
    "divisionname": "Madurai Division",
    "officename": "Kovilangulam BO",
    "pincode": "625514",
    "officetype": "BO",
    "delivery": "Delivery",
    "district": "MADURAI",
    "statename": "TAMIL NADU",
    "latitude": "9.6461740",
    "longitude": "78.2063120"
  },
  {
    "circlename": "Tamilnadu Circle",
    "regionname": "Southern Region Madurai",
    "divisionname": "Madurai Division",
    "officename": "Ponmeni BO",
    "pincode": "625016",
    "officetype": "BO",
    "delivery": "Non Delivery",
    "district": "MADURAI",
    "statename": "TAMIL NADU",
    "latitude": "9.9256610",
    "longitude": "78.0908650"
  },
  {
    "circlename": "Tamilnadu Circle",
    "regionname": "Southern Region Madurai",
    "divisionname": "Madurai Division",
    "officename": "Kadupatti BO",
    "pincode": "625207",
    "officetype": "BO",
    "delivery": "Delivery",
    "district": "MADURAI",
    "statename": "TAMIL NADU",
    "latitude": "10.0243750",
    "longitude": "77.9204040"
  },
  {
    "circlename": "Tamilnadu Circle",
    "regionname": "Southern Region Madurai",
    "divisionname": "Madurai Division",
    "officename": "Erkudi Achampathu BO",
    "pincode": "625019",
    "officetype": "BO",
    "delivery": "Delivery",
    "district": "MADURAI",
    "statename": "TAMIL NADU",
    "latitude": "9.9384930",
    "longitude": "78.0665570"
  },
  {
    "circlename": "Tamilnadu Circle",
    "regionname": "Southern Region Madurai",
    "divisionname": "Madurai Division",
    "officename": "Kodangipatti BO",
    "pincode": "625503",
    "officetype": "BO",
    "delivery": "Delivery",
    "district": "MADURAI",
    "statename": "TAMIL NADU",
    "latitude": "10.1166500",
    "longitude": "78.1500300"
  },
  {
    "circlename": "Tamilnadu Circle",
    "regionname": "Southern Region Madurai",
    "divisionname": "Madurai Division",
    "officename": "Thenpalanji BO",
    "pincode": "625021",
    "officetype": "BO",
    "delivery": "Delivery",
    "district": "MADURAI",
    "statename": "TAMIL NADU",
    "latitude": "9.9049340",
    "longitude": "78.0006290"
  },
  {
    "circlename": "Tamilnadu Circle",
    "regionname": "Southern Region Madurai",
    "divisionname": "Madurai Division",
    "officename": "Thenur BO",
    "pincode": "625402",
    "officetype": "BO",
    "delivery": "Delivery",
    "district": "MADURAI",
    "statename": "TAMIL NADU",
    "latitude": "9.9865100",
    "longitude": "78.0088360"
  },
  {
    "circlename": "Tamilnadu Circle",
    "regionname": "Southern Region Madurai",
    "divisionname": "Madurai Division",
    "officename": "Kalvelipatti BO",
    "pincode": "625221",
    "officetype": "BO",
    "delivery": "Delivery",
    "district": "MADURAI",
    "statename": "TAMIL NADU",
    "latitude": "10.0555930",
    "longitude": "78.0395150"
  },
  {
    "circlename": "Tamilnadu Circle",
    "regionname": "Southern Region Madurai",
    "divisionname": "Madurai Division",
    "officename": "Podumbu BO",
    "pincode": "625018",
    "officetype": "BO",
    "delivery": "Delivery",
    "district": "MADURAI",
    "statename": "TAMIL NADU",
    "latitude": "9.9851260",
    "longitude": "78.0844480"
  },
  {
    "circlename": "Tamilnadu Circle",
    "regionname": "Southern Region Madurai",
    "divisionname": "Madurai Division",
    "officename": "Royapuram BO",
    "pincode": "625234",
    "officetype": "BO",
    "delivery": "Delivery",
    "district": "MADURAI",
    "statename": "TAMIL NADU",
    "latitude": "13.1004670",
    "longitude": "80.2368980"
  },
  {
    "circlename": "Tamilnadu Circle",
    "regionname": "Southern Region Madurai",
    "divisionname": "Madurai Division",
    "officename": "Tiruvedagam West BO",
    "pincode": "625234",
    "officetype": "BO",
    "delivery": "Delivery",
    "district": "MADURAI",
    "statename": "TAMIL NADU",
    "latitude": "9.9092780",
    "longitude": "78.1537000"
  },
  {
    "circlename": "Tamilnadu Circle",
    "regionname": "Southern Region Madurai",
    "divisionname": "Madurai Division",
    "officename": "Pandiarajapuram BO",
    "pincode": "625218",
    "officetype": "BO",
    "delivery": "Delivery",
    "district": "MADURAI",
    "statename": "TAMIL NADU",
    "latitude": "10.1089210",
    "longitude": "77.9388830"
  },
  {
    "circlename": "Tamilnadu Circle",
    "regionname": "Southern Region Madurai",
    "divisionname": "Madurai Division",
    "officename": "Vellakulam BO",
    "pincode": "625701",
    "officetype": "BO",
    "delivery": "Delivery",
    "district": "MADURAI",
    "statename": "TAMIL NADU",
    "latitude": "9.6957960",
    "longitude": "77.9740330"
  },
  {
    "circlename": "Tamilnadu Circle",
    "regionname": "Southern Region Madurai",
    "divisionname": "Madurai Division",
    "officename": "Sivanandanagar BO",
    "pincode": "625008",
    "officetype": "BO",
    "delivery": "Delivery",
    "district": "MADURAI",
    "statename": "TAMIL NADU",
    "latitude": "9.8456700",
    "longitude": "78.0253800"
  },
  {
    "circlename": "Tamilnadu Circle",
    "regionname": "Southern Region Madurai",
    "divisionname": "Madurai Division",
    "officename": "PThottiapatti BO",
    "pincode": "625703",
    "officetype": "BO",
    "delivery": "Delivery",
    "district": "MADURAI",
    "statename": "TAMIL NADU",
    "latitude": "9.7489020",
    "longitude": "77.7962920"
  },
  {
    "circlename": "Tamilnadu Circle",
    "regionname": "Southern Region Madurai",
    "divisionname": "Madurai Division",
    "officename": "Valayankulam BO",
    "pincode": "625022",
    "officetype": "BO",
    "delivery": "Delivery",
    "district": "MADURAI",
    "statename": "TAMIL NADU",
    "latitude": "9.8107000",
    "longitude": "78.0966000"
  },
  {
    "circlename": "Tamilnadu Circle",
    "regionname": "Southern Region Madurai",
    "divisionname": "Madurai Division",
    "officename": "Valayapatti BO",
    "pincode": "625022",
    "officetype": "BO",
    "delivery": "Delivery",
    "district": "MADURAI",
    "statename": "TAMIL NADU",
    "latitude": "9.4557000",
    "longitude": "77.9793000"
  },
  {
    "circlename": "Tamilnadu Circle",
    "regionname": "Southern Region Madurai",
    "divisionname": "Madurai Division",
    "officename": "Kadaneri BO",
    "pincode": "625702",
    "officetype": "BO",
    "delivery": "Delivery",
    "district": "MADURAI",
    "statename": "TAMIL NADU",
    "latitude": "9.7001740",
    "longitude": "77.8359200"
  },
  {
    "circlename": "Tamilnadu Circle",
    "regionname": "Southern Region Madurai",
    "divisionname": "Madurai Division",
    "officename": "Nallamaram BO",
    "pincode": "625702",
    "officetype": "BO",
    "delivery": "Delivery",
    "district": "MADURAI",
    "statename": "TAMIL NADU",
    "latitude": "9.6823960",
    "longitude": "77.8524920"
  },
  {
    "circlename": "Tamilnadu Circle",
    "regionname": "Southern Region Madurai",
    "divisionname": "Madurai Division",
    "officename": "Velambur BO",
    "pincode": "625702",
    "officetype": "BO",
    "delivery": "Delivery",
    "district": "MADURAI",
    "statename": "TAMIL NADU",
    "latitude": "9.6518350",
    "longitude": "77.9104290"
  },
  {
    "circlename": "Tamilnadu Circle",
    "regionname": "Southern Region Madurai",
    "divisionname": "Madurai Division",
    "officename": "Solaipatti BO",
    "pincode": "625708",
    "officetype": "BO",
    "delivery": "Delivery",
    "district": "MADURAI",
    "statename": "TAMIL NADU",
    "latitude": "9.7508950",
    "longitude": "77.8890220"
  },
  {
    "circlename": "Tamilnadu Circle",
    "regionname": "Southern Region Madurai",
    "divisionname": "Madurai Division",
    "officename": "Alappalacheri BO",
    "pincode": "625704",
    "officetype": "BO",
    "delivery": "Delivery",
    "district": "MADURAI",
    "statename": "TAMIL NADU",
    "latitude": "9.7967770",
    "longitude": "77.8746130"
  },
  {
    "circlename": "Tamilnadu Circle",
    "regionname": "Southern Region Madurai",
    "divisionname": "Madurai Division",
    "officename": "Sengapadai BO",
    "pincode": "625704",
    "officetype": "BO",
    "delivery": "Delivery",
    "district": "MADURAI",
    "statename": "TAMIL NADU",
    "latitude": "9.7796070",
    "longitude": "77.9059410"
  },
  {
    "circlename": "Tamilnadu Circle",
    "regionname": "Southern Region Madurai",
    "divisionname": "Madurai Division",
    "officename": "Sowdarpatti BO",
    "pincode": "625704",
    "officetype": "BO",
    "delivery": "Delivery",
    "district": "MADURAI",
    "statename": "TAMIL NADU",
    "latitude": "9.8157220",
    "longitude": "77.8762870"
  },
  {
    "circlename": "Tamilnadu Circle",
    "regionname": "Southern Region Madurai",
    "divisionname": "Madurai Division",
    "officename": "Sithalai BO",
    "pincode": "625706",
    "officetype": "BO",
    "delivery": "Delivery",
    "district": "MADURAI",
    "statename": "TAMIL NADU",
    "latitude": "9.8656170",
    "longitude": "77.9596710"
  },
  {
    "circlename": "Tamilnadu Circle",
    "regionname": "Southern Region Madurai",
    "divisionname": "Madurai Division",
    "officename": "Vilacheri BO",
    "pincode": "625006",
    "officetype": "BO",
    "delivery": "Delivery",
    "district": "MADURAI",
    "statename": "TAMIL NADU",
    "latitude": "9.8949590",
    "longitude": "78.0618100"
  },
  {
    "circlename": "Tamilnadu Circle",
    "regionname": "Southern Region Madurai",
    "divisionname": "Madurai Division",
    "officename": "Pulipatti BO",
    "pincode": "625301",
    "officetype": "BO",
    "delivery": "Delivery",
    "district": "MADURAI",
    "statename": "TAMIL NADU",
    "latitude": "10.0737500",
    "longitude": "78.2869140"
  },
  {
    "circlename": "Tamilnadu Circle",
    "regionname": "Southern Region Madurai",
    "divisionname": "Madurai Division",
    "officename": "Buthagudi BO",
    "pincode": "625017",
    "officetype": "BO",
    "delivery": "Delivery",
    "district": "MADURAI",
    "statename": "TAMIL NADU",
    "latitude": "10.8137700",
    "longitude": "78.8121640"
  },
  {
    "circlename": "Tamilnadu Circle",
    "regionname": "Southern Region Madurai",
    "divisionname": "Madurai Division",
    "officename": "Kalimangalam BO",
    "pincode": "625020",
    "officetype": "BO",
    "delivery": "Delivery",
    "district": "MADURAI",
    "statename": "TAMIL NADU",
    "latitude": "9.8769000",
    "longitude": "78.2619000"
  },
  {
    "circlename": "Tamilnadu Circle",
    "regionname": "Southern Region Madurai",
    "divisionname": "Madurai Division",
    "officename": "Vandiyur BO",
    "pincode": "625020",
    "officetype": "BO",
    "delivery": "Delivery",
    "district": "MADURAI",
    "statename": "TAMIL NADU",
    "latitude": "9.9171000",
    "longitude": "78.1593000"
  },
  {
    "circlename": "Tamilnadu Circle",
    "regionname": "Southern Region Madurai",
    "divisionname": "Madurai Division",
    "officename": "Kachirayanpatti BO",
    "pincode": "625101",
    "officetype": "BO",
    "delivery": "Delivery",
    "district": "MADURAI",
    "statename": "TAMIL NADU",
    "latitude": "10.1194910",
    "longitude": "78.3436860"
  },
  {
    "circlename": "Tamilnadu Circle",
    "regionname": "Southern Region Madurai",
    "divisionname": "Madurai Division",
    "officename": "Kambur BO",
    "pincode": "625101",
    "officetype": "BO",
    "delivery": "Delivery",
    "district": "MADURAI",
    "statename": "TAMIL NADU",
    "latitude": "10.1386860",
    "longitude": "78.3523390"
  },
  {
    "circlename": "Tamilnadu Circle",
    "regionname": "Southern Region Madurai",
    "divisionname": "Madurai Division",
    "officename": "Ayyapatti BO",
    "pincode": "625103",
    "officetype": "BO",
    "delivery": "Delivery",
    "district": "MADURAI",
    "statename": "TAMIL NADU",
    "latitude": "10.2040180",
    "longitude": "78.3739920"
  },
  {
    "circlename": "Tamilnadu Circle",
    "regionname": "Southern Region Madurai",
    "divisionname": "Madurai Division",
    "officename": "Pallapatti BO",
    "pincode": "625103",
    "officetype": "BO",
    "delivery": "Delivery",
    "district": "MADURAI",
    "statename": "TAMIL NADU",
    "latitude": "10.2303970",
    "longitude": "78.3763790"
  },
  {
    "circlename": "Tamilnadu Circle",
    "regionname": "Southern Region Madurai",
    "divisionname": "Madurai Division",
    "officename": "Viradhanur BO",
    "pincode": "625009",
    "officetype": "BO",
    "delivery": "Delivery",
    "district": "MADURAI",
    "statename": "TAMIL NADU",
    "latitude": "9.8142300",
    "longitude": "78.1771000"
  },
  {
    "circlename": "Tamilnadu Circle",
    "regionname": "Southern Region Madurai",
    "divisionname": "Madurai Division",
    "officename": "Viraganur BO",
    "pincode": "625009",
    "officetype": "BO",
    "delivery": "Delivery",
    "district": "MADURAI",
    "statename": "TAMIL NADU",
    "latitude": "11.4803000",
    "longitude": "78.7349000"
  },
  {
    "circlename": "Tamilnadu Circle",
    "regionname": "Southern Region Madurai",
    "divisionname": "Madurai Division",
    "officename": "Ettimangalam BO",
    "pincode": "625105",
    "officetype": "BO",
    "delivery": "Delivery",
    "district": "MADURAI",
    "statename": "TAMIL NADU",
    "latitude": "10.0600000",
    "longitude": "78.3200000"
  },
  {
    "circlename": "Tamilnadu Circle",
    "regionname": "Southern Region Madurai",
    "divisionname": "Madurai Division",
    "officename": "Pattur BO",
    "pincode": "625105",
    "officetype": "BO",
    "delivery": "Delivery",
    "district": "MADURAI",
    "statename": "TAMIL NADU",
    "latitude": "10.1229450",
    "longitude": "78.3069880"
  },
  {
    "circlename": "Tamilnadu Circle",
    "regionname": "Southern Region Madurai",
    "divisionname": "Madurai Division",
    "officename": "Arittapatti BO",
    "pincode": "625106",
    "officetype": "BO",
    "delivery": "Delivery",
    "district": "MADURAI",
    "statename": "TAMIL NADU",
    "latitude": "10.0403680",
    "longitude": "78.2760450"
  },
  {
    "circlename": "Tamilnadu Circle",
    "regionname": "Southern Region Madurai",
    "divisionname": "Madurai Division",
    "officename": "Kallampatti BO",
    "pincode": "625106",
    "officetype": "BO",
    "delivery": "Delivery",
    "district": "MADURAI",
    "statename": "TAMIL NADU",
    "latitude": "10.0400960",
    "longitude": "78.3120760"
  },
  {
    "circlename": "Tamilnadu Circle",
    "regionname": "Southern Region Madurai",
    "divisionname": "Madurai Division",
    "officename": "Puduthamaraipatti BO",
    "pincode": "625107",
    "officetype": "BO",
    "delivery": "Delivery",
    "district": "MADURAI",
    "statename": "TAMIL NADU",
    "latitude": "9.0950259",
    "longitude": "78.2226930"
  },
  {
    "circlename": "Tamilnadu Circle",
    "regionname": "Southern Region Madurai",
    "divisionname": "Madurai Division",
    "officename": "Narsingampatti BO",
    "pincode": "625122",
    "officetype": "BO",
    "delivery": "Delivery",
    "district": "MADURAI",
    "statename": "TAMIL NADU",
    "latitude": "10.0040630",
    "longitude": "78.2682600"
  },
  {
    "circlename": "Tamilnadu Circle",
    "regionname": "Southern Region Madurai",
    "divisionname": "Madurai Division",
    "officename": "Kodukkampatti BO",
    "pincode": "625108",
    "officetype": "BO",
    "delivery": "Delivery",
    "district": "MADURAI",
    "statename": "TAMIL NADU",
    "latitude": "10.1146350",
    "longitude": "78.4005750"
  },
  {
    "circlename": "Tamilnadu Circle",
    "regionname": "Southern Region Madurai",
    "divisionname": "Madurai Division",
    "officename": "Saruguvalayapatti BO",
    "pincode": "625109",
    "officetype": "BO",
    "delivery": "Delivery",
    "district": "MADURAI",
    "statename": "TAMIL NADU",
    "latitude": "10.0402440",
    "longitude": "78.4169250"
  },
  {
    "circlename": "Tamilnadu Circle",
    "regionname": "Southern Region Madurai",
    "divisionname": "Theni Division",
    "officename": "Vandapuli B.O",
    "pincode": "625705",
    "officetype": "BO",
    "delivery": "Delivery",
    "district": "MADURAI",
    "statename": "TAMIL NADU",
    "latitude": "9.7686940",
    "longitude": "77.7373360"
  },
  {
    "circlename": "Tamilnadu Circle",
    "regionname": "Southern Region Madurai",
    "divisionname": "Theni Division",
    "officename": "Athikaripatti B.O",
    "pincode": "625527",
    "officetype": "BO",
    "delivery": "Delivery",
    "district": "MADURAI",
    "statename": "TAMIL NADU",
    "latitude": "9.8400000",
    "longitude": "77.7800000"
  },
  {
    "circlename": "Tamilnadu Circle",
    "regionname": "Southern Region Madurai",
    "divisionname": "Theni Division",
    "officename": "Manuthu B.O",
    "pincode": "625527",
    "officetype": "BO",
    "delivery": "Delivery",
    "district": "MADURAI",
    "statename": "TAMIL NADU",
    "latitude": "9.8870720",
    "longitude": "77.7823970"
  },
  {
    "circlename": "Tamilnadu Circle",
    "regionname": "Southern Region Madurai",
    "divisionname": "Theni Division",
    "officename": "Veppanuthu B.O",
    "pincode": "625529",
    "officetype": "BO",
    "delivery": "Delivery",
    "district": "MADURAI",
    "statename": "TAMIL NADU",
    "latitude": "9.8974870",
    "longitude": "77.8424460"
  },
  {
    "circlename": "Tamilnadu Circle",
    "regionname": "Southern Region Madurai",
    "divisionname": "Theni Division",
    "officename": "Nakkalapatti B.O",
    "pincode": "625532",
    "officetype": "BO",
    "delivery": "Delivery",
    "district": "MADURAI",
    "statename": "TAMIL NADU",
    "latitude": "9.9712600",
    "longitude": "77.7606510"
  },
  {
    "circlename": "Tamilnadu Circle",
    "regionname": "Southern Region Madurai",
    "divisionname": "Theni Division",
    "officename": "Ayyanarkulam B.O",
    "pincode": "625537",
    "officetype": "BO",
    "delivery": "Delivery",
    "district": "MADURAI",
    "statename": "TAMIL NADU",
    "latitude": "9.8200000",
    "longitude": "77.7800000"
  },
  {
    "circlename": "Tamilnadu Circle",
    "regionname": "Southern Region Madurai",
    "divisionname": "Theni Division",
    "officename": "Thimmanatham B.O",
    "pincode": "625537",
    "officetype": "BO",
    "delivery": "Delivery",
    "district": "MADURAI",
    "statename": "TAMIL NADU",
    "latitude": "10.0177400",
    "longitude": "77.8310100"
  },
  {
    "circlename": "Tamilnadu Circle",
    "regionname": "Southern Region Madurai",
    "divisionname": "Theni Division",
    "officename": "E.Kottapatty B.O",
    "pincode": "625535",
    "officetype": "BO",
    "delivery": "Delivery",
    "district": "MADURAI",
    "statename": "TAMIL NADU",
    "latitude": "9.9637840",
    "longitude": "77.7877820"
  },
  {
    "circlename": "Tamilnadu Circle",
    "regionname": "Southern Region Madurai",
    "divisionname": "Theni Division",
    "officename": "T.Ramanathapuram B.O",
    "pincode": "625535",
    "officetype": "BO",
    "delivery": "Delivery",
    "district": "MADURAI",
    "statename": "TAMIL NADU",
    "latitude": "9.9637840",
    "longitude": "77.7877820"
  },
  {
    "circlename": "Tamilnadu Circle",
    "regionname": "Southern Region Madurai",
    "divisionname": "Theni Division",
    "officename": "Thadayampatti B.O",
    "pincode": "625535",
    "officetype": "BO",
    "delivery": "Delivery",
    "district": "MADURAI",
    "statename": "TAMIL NADU",
    "latitude": "9.8694730",
    "longitude": "77.7484220"
  },
  {
    "circlename": "Tamilnadu Circle",
    "regionname": "Southern Region Madurai",
    "divisionname": "Madurai Division",
    "officename": "Madurai Railway Divl Office SO",
    "pincode": "625016",
    "officetype": "PO",
    "delivery": "Non Delivery",
    "district": "MADURAI",
    "statename": "TAMIL NADU",
    "latitude": "9.9210000",
    "longitude": "78.1080833"
  },
  {
    "circlename": "Tamilnadu Circle",
    "regionname": "Southern Region Madurai",
    "divisionname": "Madurai Division",
    "officename": "Palkalai Nagar SO",
    "pincode": "625021",
    "officetype": "PO",
    "delivery": "Delivery",
    "district": "MADURAI",
    "statename": "TAMIL NADU",
    "latitude": "9.938718",
    "longitude": "78.0136"
  },
  {
    "circlename": "Tamilnadu Circle",
    "regionname": "Southern Region Madurai",
    "divisionname": "Madurai Division",
    "officename": "Samayanallur SO",
    "pincode": "625402",
    "officetype": "PO",
    "delivery": "Delivery",
    "district": "MADURAI",
    "statename": "TAMIL NADU",
    "latitude": "9.9777778",
    "longitude": "78.0358333"
  },
  {
    "circlename": "Tamilnadu Circle",
    "regionname": "Southern Region Madurai",
    "divisionname": "Madurai Division",
    "officename": "Peraiyur SO Madurai",
    "pincode": "625703",
    "officetype": "PO",
    "delivery": "Delivery",
    "district": "MADURAI",
    "statename": "TAMIL NADU",
    "latitude": "9.735507",
    "longitude": "77.790213"
  },
  {
    "circlename": "Tamilnadu Circle",
    "regionname": "Southern Region Madurai",
    "divisionname": "Madurai Division",
    "officename": "Petchiamman Paditurai SO",
    "pincode": "625001",
    "officetype": "PO",
    "delivery": "Non Delivery",
    "district": "MADURAI",
    "statename": "TAMIL NADU",
    "latitude": "9.9260000",
    "longitude": "78.1201667"
  },
  {
    "circlename": "Tamilnadu Circle",
    "regionname": "Southern Region Madurai",
    "divisionname": "Madurai Division",
    "officename": "Postal Training Centre SO",
    "pincode": "625022",
    "officetype": "PO",
    "delivery": "Delivery",
    "district": "MADURAI",
    "statename": "TAMIL NADU",
    "latitude": "9.8496111",
    "longitude": "78.0978056"
  },
  {
    "circlename": "Tamilnadu Circle",
    "regionname": "Southern Region Madurai",
    "divisionname": "Madurai Division",
    "officename": "Subramaniapuram SO Madurai",
    "pincode": "625011",
    "officetype": "PO",
    "delivery": "Delivery",
    "district": "MADURAI",
    "statename": "TAMIL NADU",
    "latitude": "9.9079479",
    "longitude": "78.1129516"
  },
  {
    "circlename": "Tamilnadu Circle",
    "regionname": "Southern Region Madurai",
    "divisionname": "Madurai Division",
    "officename": "TKallupatti SO",
    "pincode": "625702",
    "officetype": "PO",
    "delivery": "Delivery",
    "district": "MADURAI",
    "statename": "TAMIL NADU",
    "latitude": "9.7233611",
    "longitude": "77.8553889"
  },
  {
    "circlename": "Tamilnadu Circle",
    "regionname": "Southern Region Madurai",
    "divisionname": "Madurai Division",
    "officename": "TPudupatti SO",
    "pincode": "625704",
    "officetype": "PO",
    "delivery": "Delivery",
    "district": "MADURAI",
    "statename": "TAMIL NADU",
    "latitude": "9.7768889",
    "longitude": "77.9213611"
  },
  {
    "circlename": "Tamilnadu Circle",
    "regionname": "Southern Region Madurai",
    "divisionname": "Madurai Division",
    "officename": "Tvs Nagar SO",
    "pincode": "625003",
    "officetype": "PO",
    "delivery": "Non Delivery",
    "district": "MADURAI",
    "statename": "TAMIL NADU",
    "latitude": "9.9507500",
    "longitude": "78.0965000"
  },
  {
    "circlename": "Tamilnadu Circle",
    "regionname": "Southern Region Madurai",
    "divisionname": "Madurai Division",
    "officename": "Villapuram SO",
    "pincode": "625012",
    "officetype": "PO",
    "delivery": "Non Delivery",
    "district": "MADURAI",
    "statename": "TAMIL NADU",
    "latitude": "9.9010000",
    "longitude": "78.1232778"
  },
  {
    "circlename": "Tamilnadu Circle",
    "regionname": "Southern Region Madurai",
    "divisionname": "Madurai Division",
    "officename": "Villur SO",
    "pincode": "625707",
    "officetype": "PO",
    "delivery": "Delivery",
    "district": "MADURAI",
    "statename": "TAMIL NADU",
    "latitude": "9.9511944",
    "longitude": "78.0798889"
  },
  {
    "circlename": "Tamilnadu Circle",
    "regionname": "Southern Region Madurai",
    "divisionname": "Madurai Division",
    "officename": "Kottampatti SO",
    "pincode": "625103",
    "officetype": "PO",
    "delivery": "Delivery",
    "district": "MADURAI",
    "statename": "TAMIL NADU",
    "latitude": "10.2213056",
    "longitude": "78.3738333"
  },
  {
    "circlename": "Tamilnadu Circle",
    "regionname": "Southern Region Madurai",
    "divisionname": "Madurai Division",
    "officename": "Madurai Bibikulam SO",
    "pincode": "625002",
    "officetype": "PO",
    "delivery": "Non Delivery",
    "district": "MADURAI",
    "statename": "TAMIL NADU",
    "latitude": "9.7538056",
    "longitude": "78.2112500"
  },
  {
    "circlename": "Tamilnadu Circle",
    "regionname": "Southern Region Madurai",
    "divisionname": "Madurai Division",
    "officename": "Narimedu SO",
    "pincode": "625002",
    "officetype": "PO",
    "delivery": "Non Delivery",
    "district": "MADURAI",
    "statename": "TAMIL NADU",
    "latitude": "9.9394722",
    "longitude": "78.1271944"
  },
  {
    "circlename": "Tamilnadu Circle",
    "regionname": "Southern Region Madurai",
    "divisionname": "Madurai Division",
    "officename": "Othakadai SO",
    "pincode": "625107",
    "officetype": "PO",
    "delivery": "Delivery",
    "district": "MADURAI",
    "statename": "TAMIL NADU",
    "latitude": "9.943568",
    "longitude": "78.155196"
  },
  {
    "circlename": "Tamilnadu Circle",
    "regionname": "Southern Region Madurai",
    "divisionname": "Madurai Division",
    "officename": "Therkutheru SO",
    "pincode": "625122",
    "officetype": "PO",
    "delivery": "Delivery",
    "district": "MADURAI",
    "statename": "TAMIL NADU",
    "latitude": "10.0087500",
    "longitude": "78.0213611"
  },
  {
    "circlename": "Tamilnadu Circle",
    "regionname": "Southern Region Madurai",
    "divisionname": "Madurai Division",
    "officename": "Tiruvadur SO",
    "pincode": "625110",
    "officetype": "PO",
    "delivery": "Delivery",
    "district": "MADURAI",
    "statename": "TAMIL NADU",
    "latitude": "9.948465",
    "longitude": "78.29842"
  },
  {
    "circlename": "Tamilnadu Circle",
    "regionname": "Southern Region Madurai",
    "divisionname": "Theni Division",
    "officename": "Sedapatti S.O",
    "pincode": "625527",
    "officetype": "PO",
    "delivery": "Delivery",
    "district": "MADURAI",
    "statename": "TAMIL NADU",
    "latitude": "9.82621160",
    "longitude": "77.79866360"
  },
  {
    "circlename": "Tamilnadu Circle",
    "regionname": "Southern Region Madurai",
    "divisionname": "Theni Division",
    "officename": "Uthappanayakanur S.O",
    "pincode": "625537",
    "officetype": "PO",
    "delivery": "Delivery",
    "district": "MADURAI",
    "statename": "TAMIL NADU",
    "latitude": "10.0360833",
    "longitude": "77.7964444"
  },
  {
    "circlename": "Tamilnadu Circle",
    "regionname": "Southern Region Madurai",
    "divisionname": "Madurai Division",
    "officename": "Chettikulam BO",
    "pincode": "625514",
    "officetype": "BO",
    "delivery": "Delivery",
    "district": "MADURAI",
    "statename": "TAMIL NADU",
    "latitude": "8.1582900",
    "longitude": "77.6163800"
  },
  {
    "circlename": "Tamilnadu Circle",
    "regionname": "Southern Region Madurai",
    "divisionname": "Madurai Division",
    "officename": "Kodikulam BO",
    "pincode": "625514",
    "officetype": "BO",
    "delivery": "Delivery",
    "district": "MADURAI",
    "statename": "TAMIL NADU",
    "latitude": "9.9991700",
    "longitude": "79.1943530"
  },
  {
    "circlename": "Tamilnadu Circle",
    "regionname": "Southern Region Madurai",
    "divisionname": "Madurai Division",
    "officename": "Melanachikulam BO",
    "pincode": "625205",
    "officetype": "BO",
    "delivery": "Delivery",
    "district": "MADURAI",
    "statename": "TAMIL NADU",
    "latitude": "10.0809690",
    "longitude": "77.9260300"
  },
  {
    "circlename": "Tamilnadu Circle",
    "regionname": "Southern Region Madurai",
    "divisionname": "Madurai Division",
    "officename": "Nachikulam BO",
    "pincode": "625205",
    "officetype": "BO",
    "delivery": "Delivery",
    "district": "MADURAI",
    "statename": "TAMIL NADU",
    "latitude": "10.4410430",
    "longitude": "79.5540120"
  },
  {
    "circlename": "Tamilnadu Circle",
    "regionname": "Southern Region Madurai",
    "divisionname": "Madurai Division",
    "officename": "Kochadai BO",
    "pincode": "625016",
    "officetype": "BO",
    "delivery": "Non Delivery",
    "district": "MADURAI",
    "statename": "TAMIL NADU",
    "latitude": "9.9354300",
    "longitude": "78.0918410"
  },
  {
    "circlename": "Tamilnadu Circle",
    "regionname": "Southern Region Madurai",
    "divisionname": "Madurai Division",
    "officename": "Virattipathu BO",
    "pincode": "625016",
    "officetype": "BO",
    "delivery": "Non Delivery",
    "district": "MADURAI",
    "statename": "TAMIL NADU",
    "latitude": "9.9346463",
    "longitude": "78.0809640"
  },
  {
    "circlename": "Tamilnadu Circle",
    "regionname": "Southern Region Madurai",
    "divisionname": "Madurai Division",
    "officename": "Nariampatti BO",
    "pincode": "625214",
    "officetype": "BO",
    "delivery": "Delivery",
    "district": "MADURAI",
    "statename": "TAMIL NADU",
    "latitude": "9.6740220",
    "longitude": "78.1022730"
  },
  {
    "circlename": "Tamilnadu Circle",
    "regionname": "Southern Region Madurai",
    "divisionname": "Madurai Division",
    "officename": "Thenkarai BO",
    "pincode": "625214",
    "officetype": "BO",
    "delivery": "Delivery",
    "district": "MADURAI",
    "statename": "TAMIL NADU",
    "latitude": "10.0201390",
    "longitude": "77.9571360"
  },
  {
    "circlename": "Tamilnadu Circle",
    "regionname": "Southern Region Madurai",
    "divisionname": "Madurai Division",
    "officename": "Vikramangalam BO",
    "pincode": "625214",
    "officetype": "BO",
    "delivery": "Delivery",
    "district": "MADURAI",
    "statename": "TAMIL NADU",
    "latitude": "10.0095170",
    "longitude": "77.9246010"
  },
  {
    "circlename": "Tamilnadu Circle",
    "regionname": "Southern Region Madurai",
    "divisionname": "Madurai Division",
    "officename": "Kilakuyilkudi BO",
    "pincode": "625019",
    "officetype": "BO",
    "delivery": "Delivery",
    "district": "MADURAI",
    "statename": "TAMIL NADU",
    "latitude": "9.9091930",
    "longitude": "78.0523550"
  },
  {
    "circlename": "Tamilnadu Circle",
    "regionname": "Southern Region Madurai",
    "divisionname": "Madurai Division",
    "officename": "Vellayampatti BO",
    "pincode": "625503",
    "officetype": "BO",
    "delivery": "Delivery",
    "district": "MADURAI",
    "statename": "TAMIL NADU",
    "latitude": "10.1601320",
    "longitude": "78.1165310"
  },
  {
    "circlename": "Tamilnadu Circle",
    "regionname": "Southern Region Madurai",
    "divisionname": "Madurai Division",
    "officename": "Paravai BO",
    "pincode": "625402",
    "officetype": "BO",
    "delivery": "Delivery",
    "district": "MADURAI",
    "statename": "TAMIL NADU",
    "latitude": "9.9645810",
    "longitude": "78.0666200"
  },
  {
    "circlename": "Tamilnadu Circle",
    "regionname": "Southern Region Madurai",
    "divisionname": "Madurai Division",
    "officename": "Siruvalai BO",
    "pincode": "625402",
    "officetype": "BO",
    "delivery": "Delivery",
    "district": "MADURAI",
    "statename": "TAMIL NADU",
    "latitude": "10.0265610",
    "longitude": "78.0626970"
  },
  {
    "circlename": "Tamilnadu Circle",
    "regionname": "Southern Region Madurai",
    "divisionname": "Madurai Division",
    "officename": "Kachirayiruppu BO",
    "pincode": "625234",
    "officetype": "BO",
    "delivery": "Delivery",
    "district": "MADURAI",
    "statename": "TAMIL NADU",
    "latitude": "9.6357070",
    "longitude": "77.6392940"
  },
  {
    "circlename": "Tamilnadu Circle",
    "regionname": "Southern Region Madurai",
    "divisionname": "Madurai Division",
    "officename": "Keelamathur BO",
    "pincode": "625234",
    "officetype": "BO",
    "delivery": "Delivery",
    "district": "MADURAI",
    "statename": "TAMIL NADU",
    "latitude": "9.6357070",
    "longitude": "77.6392940"
  },
  {
    "circlename": "Tamilnadu Circle",
    "regionname": "Southern Region Madurai",
    "divisionname": "Madurai Division",
    "officename": "Vadakkampatti BO",
    "pincode": "625701",
    "officetype": "BO",
    "delivery": "Delivery",
    "district": "MADURAI",
    "statename": "TAMIL NADU",
    "latitude": "9.7058460",
    "longitude": "77.9456430"
  },
  {
    "circlename": "Tamilnadu Circle",
    "regionname": "Southern Region Madurai",
    "divisionname": "Madurai Division",
    "officename": "Madakkulam BO",
    "pincode": "625003",
    "officetype": "BO",
    "delivery": "Delivery",
    "district": "MADURAI",
    "statename": "TAMIL NADU",
    "latitude": "9.9181350",
    "longitude": "78.0805360"
  },
  {
    "circlename": "Tamilnadu Circle",
    "regionname": "Southern Region Madurai",
    "divisionname": "Madurai Division",
    "officename": "Sandaiyur BO",
    "pincode": "625703",
    "officetype": "BO",
    "delivery": "Delivery",
    "district": "MADURAI",
    "statename": "TAMIL NADU",
    "latitude": "9.7024580",
    "longitude": "77.5024400"
  },
  {
    "circlename": "Tamilnadu Circle",
    "regionname": "Southern Region Madurai",
    "divisionname": "Madurai Division",
    "officename": "Silamalaipatti BO",
    "pincode": "625703",
    "officetype": "BO",
    "delivery": "Delivery",
    "district": "MADURAI",
    "statename": "TAMIL NADU",
    "latitude": "9.7170940",
    "longitude": "77.8526300"
  },
  {
    "circlename": "Tamilnadu Circle",
    "regionname": "Southern Region Madurai",
    "divisionname": "Madurai Division",
    "officename": "Tirumal BO",
    "pincode": "625022",
    "officetype": "BO",
    "delivery": "Delivery",
    "district": "MADURAI",
    "statename": "TAMIL NADU",
    "latitude": "9.9157870",
    "longitude": "78.1254400"
  },
  {
    "circlename": "Tamilnadu Circle",
    "regionname": "Southern Region Madurai",
    "divisionname": "Madurai Division",
    "officename": "Karaikeni BO",
    "pincode": "625702",
    "officetype": "BO",
    "delivery": "Delivery",
    "district": "MADURAI",
    "statename": "TAMIL NADU",
    "latitude": "9.7072380",
    "longitude": "77.8654290"
  },
  {
    "circlename": "Tamilnadu Circle",
    "regionname": "Southern Region Madurai",
    "divisionname": "Madurai Division",
    "officename": "MPudupatti BO",
    "pincode": "625702",
    "officetype": "BO",
    "delivery": "Delivery",
    "district": "MADURAI",
    "statename": "TAMIL NADU",
    "latitude": "9.5444990",
    "longitude": "77.7781450"
  },
  {
    "circlename": "Tamilnadu Circle",
    "regionname": "Southern Region Madurai",
    "divisionname": "Madurai Division",
    "officename": "MSubbulapuram BO",
    "pincode": "625702",
    "officetype": "BO",
    "delivery": "Delivery",
    "district": "MADURAI",
    "statename": "TAMIL NADU",
    "latitude": "9.6750510",
    "longitude": "77.8098780"
  },
  {
    "circlename": "Tamilnadu Circle",
    "regionname": "Southern Region Madurai",
    "divisionname": "Madurai Division",
    "officename": "AThottiapatti BO",
    "pincode": "625704",
    "officetype": "BO",
    "delivery": "Delivery",
    "district": "MADURAI",
    "statename": "TAMIL NADU",
    "latitude": "9.7869660",
    "longitude": "77.8933880"
  },
  {
    "circlename": "Tamilnadu Circle",
    "regionname": "Southern Region Madurai",
    "divisionname": "Madurai Division",
    "officename": "Madipanur BO",
    "pincode": "625704",
    "officetype": "BO",
    "delivery": "Delivery",
    "district": "MADURAI",
    "statename": "TAMIL NADU",
    "latitude": "9.8007520",
    "longitude": "77.9286860"
  },
  {
    "circlename": "Tamilnadu Circle",
    "regionname": "Southern Region Madurai",
    "divisionname": "Madurai Division",
    "officename": "AAmmapatti BO",
    "pincode": "625706",
    "officetype": "BO",
    "delivery": "Delivery",
    "district": "MADURAI",
    "statename": "TAMIL NADU",
    "latitude": "9.8366960",
    "longitude": "77.9144380"
  },
  {
    "circlename": "Tamilnadu Circle",
    "regionname": "Southern Region Madurai",
    "divisionname": "Madurai Division",
    "officename": "Achampatti BO",
    "pincode": "625706",
    "officetype": "BO",
    "delivery": "Delivery",
    "district": "MADURAI",
    "statename": "TAMIL NADU",
    "latitude": "9.8013440",
    "longitude": "77.9279900"
  },
  {
    "circlename": "Tamilnadu Circle",
    "regionname": "Southern Region Madurai",
    "divisionname": "Madurai Division",
    "officename": "Karadikal BO",
    "pincode": "625706",
    "officetype": "BO",
    "delivery": "Delivery",
    "district": "MADURAI",
    "statename": "TAMIL NADU",
    "latitude": "9.8846430",
    "longitude": "77.9797500"
  },
  {
    "circlename": "Tamilnadu Circle",
    "regionname": "Southern Region Madurai",
    "divisionname": "Madurai Division",
    "officename": "Tirali BO",
    "pincode": "625706",
    "officetype": "BO",
    "delivery": "Delivery",
    "district": "MADURAI",
    "statename": "TAMIL NADU",
    "latitude": "9.8032910",
    "longitude": "77.9424190"
  },
  {
    "circlename": "Tamilnadu Circle",
    "regionname": "Southern Region Madurai",
    "divisionname": "Madurai Division",
    "officename": "Karuppayurani BO",
    "pincode": "625020",
    "officetype": "BO",
    "delivery": "Delivery",
    "district": "MADURAI",
    "statename": "TAMIL NADU",
    "latitude": "9.9329000",
    "longitude": "78.1778000"
  },
  {
    "circlename": "Tamilnadu Circle",
    "regionname": "Southern Region Madurai",
    "divisionname": "Madurai Division",
    "officename": "Sekkipatti BO",
    "pincode": "625101",
    "officetype": "BO",
    "delivery": "Delivery",
    "district": "MADURAI",
    "statename": "TAMIL NADU",
    "latitude": "10.1895370",
    "longitude": "78.3009980"
  },
  {
    "circlename": "Tamilnadu Circle",
    "regionname": "Southern Region Madurai",
    "divisionname": "Madurai Division",
    "officename": "Pandangudi BO",
    "pincode": "625103",
    "officetype": "BO",
    "delivery": "Delivery",
    "district": "MADURAI",
    "statename": "TAMIL NADU",
    "latitude": "10.2040820",
    "longitude": "78.3799560"
  },
  {
    "circlename": "Tamilnadu Circle",
    "regionname": "Southern Region Madurai",
    "divisionname": "Madurai Division",
    "officename": "Surapatti BO",
    "pincode": "625103",
    "officetype": "BO",
    "delivery": "Delivery",
    "district": "MADURAI",
    "statename": "TAMIL NADU",
    "latitude": "10.3000000",
    "longitude": "78.3800000"
  },
  {
    "circlename": "Tamilnadu Circle",
    "regionname": "Southern Region Madurai",
    "divisionname": "Madurai Division",
    "officename": "Valaicheripatti BO",
    "pincode": "625103",
    "officetype": "BO",
    "delivery": "Delivery",
    "district": "MADURAI",
    "statename": "TAMIL NADU",
    "latitude": "10.2845000",
    "longitude": "78.3645000"
  },
  {
    "circlename": "Tamilnadu Circle",
    "regionname": "Southern Region Madurai",
    "divisionname": "Madurai Division",
    "officename": "Samanatham BO",
    "pincode": "625009",
    "officetype": "BO",
    "delivery": "Delivery",
    "district": "MADURAI",
    "statename": "TAMIL NADU",
    "latitude": "9.8666000",
    "longitude": "78.1472000"
  },
  {
    "circlename": "Tamilnadu Circle",
    "regionname": "Southern Region Madurai",
    "divisionname": "Madurai Division",
    "officename": "Kancharampettai BO",
    "pincode": "625014",
    "officetype": "BO",
    "delivery": "Delivery",
    "district": "MADURAI",
    "statename": "TAMIL NADU",
    "latitude": "10.0215600",
    "longitude": "78.1429030"
  },
  {
    "circlename": "Tamilnadu Circle",
    "regionname": "Southern Region Madurai",
    "divisionname": "Madurai Division",
    "officename": "Kodikulam BO",
    "pincode": "625104",
    "officetype": "BO",
    "delivery": "Delivery",
    "district": "MADURAI",
    "statename": "TAMIL NADU",
    "latitude": "9.9569760",
    "longitude": "78.1607190"
  },
  {
    "circlename": "Tamilnadu Circle",
    "regionname": "Southern Region Madurai",
    "divisionname": "Madurai Division",
    "officename": "Arukkampatti BO",
    "pincode": "625105",
    "officetype": "BO",
    "delivery": "Delivery",
    "district": "MADURAI",
    "statename": "TAMIL NADU",
    "latitude": "10.1700000",
    "longitude": "78.2900000"
  },
  {
    "circlename": "Tamilnadu Circle",
    "regionname": "Southern Region Madurai",
    "divisionname": "Madurai Division",
    "officename": "Rajakkur BO",
    "pincode": "625107",
    "officetype": "BO",
    "delivery": "Delivery",
    "district": "MADURAI",
    "statename": "TAMIL NADU",
    "latitude": "9.9270830",
    "longitude": "78.2390370"
  },
  {
    "circlename": "Tamilnadu Circle",
    "regionname": "Southern Region Madurai",
    "divisionname": "Madurai Division",
    "officename": "Sakkimangalam BO",
    "pincode": "625201",
    "officetype": "BO",
    "delivery": "Delivery",
    "district": "MADURAI",
    "statename": "TAMIL NADU",
    "latitude": "9.8841970",
    "longitude": "78.1977700"
  },
  {
    "circlename": "Tamilnadu Circle",
    "regionname": "Southern Region Madurai",
    "divisionname": "Madurai Division",
    "officename": "Therkilamur BO",
    "pincode": "625110",
    "officetype": "BO",
    "delivery": "Delivery",
    "district": "MADURAI",
    "statename": "TAMIL NADU",
    "latitude": "9.9000000",
    "longitude": "78.0000000"
  },
  {
    "circlename": "Tamilnadu Circle",
    "regionname": "Southern Region Madurai",
    "divisionname": "Madurai Division",
    "officename": "Kottanathampatti BO",
    "pincode": "625109",
    "officetype": "BO",
    "delivery": "Delivery",
    "district": "MADURAI",
    "statename": "TAMIL NADU",
    "latitude": "9.9881650",
    "longitude": "78.3964440"
  },
  {
    "circlename": "Tamilnadu Circle",
    "regionname": "Southern Region Madurai",
    "divisionname": "Madurai Division",
    "officename": "Thaniyamangalam BO",
    "pincode": "625109",
    "officetype": "BO",
    "delivery": "Delivery",
    "district": "MADURAI",
    "statename": "TAMIL NADU",
    "latitude": "10.0281190",
    "longitude": "78.4240330"
  },
  {
    "circlename": "Tamilnadu Circle",
    "regionname": "Southern Region Madurai",
    "divisionname": "Theni Division",
    "officename": "Kuduseri B.O",
    "pincode": "625705",
    "officetype": "BO",
    "delivery": "Delivery",
    "district": "MADURAI",
    "statename": "TAMIL NADU",
    "latitude": "9.7060350",
    "longitude": "77.9145590"
  },
  {
    "circlename": "Tamilnadu Circle",
    "regionname": "Southern Region Madurai",
    "divisionname": "Theni Division",
    "officename": "Chinnakattalai B.O",
    "pincode": "625527",
    "officetype": "BO",
    "delivery": "Delivery",
    "district": "MADURAI",
    "statename": "TAMIL NADU",
    "latitude": "9.9637840",
    "longitude": "77.7877820"
  },
  {
    "circlename": "Tamilnadu Circle",
    "regionname": "Southern Region Madurai",
    "divisionname": "Theni Division",
    "officename": "Kuppalnatham B.O",
    "pincode": "625527",
    "officetype": "BO",
    "delivery": "Delivery",
    "district": "MADURAI",
    "statename": "TAMIL NADU",
    "latitude": "9.8261940",
    "longitude": "77.8154190"
  },