[
  {
    "circlename": "Tamilnadu Circle",
    "regionname": "Central Region Trichirapalli",
    "divisionname": "Kumbakonam Division",
    "officename": "Namasivayapuram B.O",
    "pincode": "609811",
    "officetype": "BO",
    "delivery": "Delivery",
    "district": "MAYILADUTHURAI",
    "statename": "TAMIL NADU",
    "latitude": "11.1600000",
    "longitude": "79.5800000"
  },
  {
    "circlename": "Tamilnadu Circle",
    "regionname": "Central Region Trichirapalli",
    "divisionname": "Kumbakonam Division",
    "officename": "Tirumangalam B.O",
    "pincode": "609811",
    "officetype": "BO",
    "delivery": "Delivery",
    "district": "MAYILADUTHURAI",
    "statename": "TAMIL NADU",
    "latitude": "10.9800000",
    "longitude": "79.6000000"
  },
  {
    "circlename": "Tamilnadu Circle",
    "regionname": "Central Region Trichirapalli",
    "divisionname": "Kumbakonam Division",
    "officename": "Alangudi B.O",
    "pincode": "609801",
    "officetype": "BO",
    "delivery": "Delivery",
    "district": "MAYILADUTHURAI",
    "statename": "TAMIL NADU",
    "latitude": "11.1100000",
    "longitude": "79.5400000"
  },
  {
    "circlename": "Tamilnadu Circle",
    "regionname": "Central Region Trichirapalli",
    "divisionname": "Kumbakonam Division",
    "officename": "Tiruchitrambalam B.O",
    "pincode": "609204",
    "officetype": "BO",
    "delivery": "Delivery",
    "district": "MAYILADUTHURAI",
    "statename": "TAMIL NADU",
    "latitude": "11.1600000",
    "longitude": "79.5400000"
  },
  {
    "circlename": "Tamilnadu Circle",
    "regionname": "Central Region Trichirapalli",
    "divisionname": "Mayiladuthurai Division",
    "officename": "Mamakudi B.O",
    "pincode": "609301",
    "officetype": "BO",
    "delivery": "Delivery",
    "district": "MAYILADUTHURAI",
    "statename": "TAMIL NADU",
    "latitude": "11.1100000",
    "longitude": "79.8100000"
  },
  {
    "circlename": "Tamilnadu Circle",
    "regionname": "Central Region Trichirapalli",
    "divisionname": "Mayiladuthurai Division",
    "officename": "Kattuchery B.O",
    "pincode": "609303",
    "officetype": "BO",
    "delivery": "Delivery",
    "district": "MAYILADUTHURAI",
    "statename": "TAMIL NADU",
    "latitude": "11.0100000",
    "longitude": "79.8200000"
  },
  {
    "circlename": "Tamilnadu Circle",
    "regionname": "Central Region Trichirapalli",
    "divisionname": "Mayiladuthurai Division",
    "officename": "Mudikondanallur B.O",
    "pincode": "609202",
    "officetype": "BO",
    "delivery": "Delivery",
    "district": "MAYILADUTHURAI",
    "statename": "TAMIL NADU",
    "latitude": "11.2100000",
    "longitude": "79.5700000"
  },
  {
    "circlename": "Tamilnadu Circle",
    "regionname": "Central Region Trichirapalli",
    "divisionname": "Mayiladuthurai Division",
    "officename": "Mayiladuthurai West B.O",
    "pincode": "609003",
    "officetype": "BO",
    "delivery": "Non Delivery",
    "district": "MAYILADUTHURAI",
    "statename": "TAMIL NADU",
    "latitude": "11.1000000",
    "longitude": "79.6400000"
  },
  {
    "circlename": "Tamilnadu Circle",
    "regionname": "Central Region Trichirapalli",
    "divisionname": "Mayiladuthurai Division",
    "officename": "Sholampettai B.O",
    "pincode": "609003",
    "officetype": "BO",
    "delivery": "Delivery",
    "district": "MAYILADUTHURAI",
    "statename": "TAMIL NADU",
    "latitude": "11.1000000",
    "longitude": "79.6100000"
  },
  {
    "circlename": "Tamilnadu Circle",
    "regionname": "Central Region Trichirapalli",
    "divisionname": "Mayiladuthurai Division",
    "officename": "Pattamangalam B.O",
    "pincode": "609001",
    "officetype": "BO",
    "delivery": "Non Delivery",
    "district": "MAYILADUTHURAI",
    "statename": "TAMIL NADU",
    "latitude": "11.0800000",
    "longitude": "79.6500000"
  },
  {
    "circlename": "Tamilnadu Circle",
    "regionname": "Central Region Trichirapalli",
    "divisionname": "Mayiladuthurai Division",
    "officename": "Tiruvilayattam B.O",
    "pincode": "609306",
    "officetype": "BO",
    "delivery": "Delivery",
    "district": "MAYILADUTHURAI",
    "statename": "TAMIL NADU",
    "latitude": "11.0300000",
    "longitude": "79.7400000"
  },
  {
    "circlename": "Tamilnadu Circle",
    "regionname": "Central Region Trichirapalli",
    "divisionname": "Mayiladuthurai Division",
    "officename": "Villiyanallur B.O",
    "pincode": "609203",
    "officetype": "BO",
    "delivery": "Delivery",
    "district": "MAYILADUTHURAI",
    "statename": "TAMIL NADU",
    "latitude": "11.1700000",
    "longitude": "79.6300000"
  },
  {
    "circlename": "Tamilnadu Circle",
    "regionname": "Central Region Trichirapalli",
    "divisionname": "Mayiladuthurai Division",
    "officename": "Tiruchempalli B.O",
    "pincode": "609309",
    "officetype": "BO",
    "delivery": "Delivery",
    "district": "MAYILADUTHURAI",
    "statename": "TAMIL NADU",
    "latitude": "11.1100000",
    "longitude": "79.7400000"
  },
  {
    "circlename": "Tamilnadu Circle",
    "regionname": "Central Region Trichirapalli",
    "divisionname": "Mayiladuthurai Division",
    "officename": "Manakudi B.O",
    "pincode": "609118",
    "officetype": "BO",
    "delivery": "Delivery",
    "district": "MAYILADUTHURAI",
    "statename": "TAMIL NADU",
    "latitude": "11.1100000",
    "longitude": "79.6800000"
  },
  {
    "circlename": "Tamilnadu Circle",
    "regionname": "Central Region Trichirapalli",
    "divisionname": "Mayiladuthurai Division",
    "officename": "Eduthukatti B.O",
    "pincode": "609312",
    "officetype": "BO",
    "delivery": "Delivery",
    "district": "MAYILADUTHURAI",
    "statename": "TAMIL NADU",
    "latitude": "11.0000000",
    "longitude": "79.7900000"
  },
  {
    "circlename": "Tamilnadu Circle",
    "regionname": "Central Region Trichirapalli",
    "divisionname": "Mayiladuthurai Division",
    "officename": "Madervelur B.O",
    "pincode": "609102",
    "officetype": "BO",
    "delivery": "Delivery",
    "district": "MAYILADUTHURAI",
    "statename": "TAMIL NADU",
    "latitude": "11.3000000",
    "longitude": "79.6700000"
  },
  {
    "circlename": "Tamilnadu Circle",
    "regionname": "Central Region Trichirapalli",
    "divisionname": "Mayiladuthurai Division",
    "officename": "Talanayar Vsk B.O",
    "pincode": "609201",
    "officetype": "BO",
    "delivery": "Delivery",
    "district": "MAYILADUTHURAI",
    "statename": "TAMIL NADU",
    "latitude": "11.2100000",
    "longitude": "79.6600000"
  },
  {
    "circlename": "Tamilnadu Circle",
    "regionname": "Central Region Trichirapalli",
    "divisionname": "Mayiladuthurai Division",
    "officename": "Thennampattinam B.O",
    "pincode": "609106",
    "officetype": "BO",
    "delivery": "Delivery",
    "district": "MAYILADUTHURAI",
    "statename": "TAMIL NADU",
    "latitude": "11.2100000",
    "longitude": "79.8300000"
  },
  {
    "circlename": "Tamilnadu Circle",
    "regionname": "Central Region Trichirapalli",
    "divisionname": "Mayiladuthurai Division",
    "officename": "Kilaperumpallam B.O",
    "pincode": "609107",
    "officetype": "BO",
    "delivery": "Delivery",
    "district": "MAYILADUTHURAI",
    "statename": "TAMIL NADU",
    "latitude": "11.1400000",
    "longitude": "79.8200000"
  },
  {
    "circlename": "Tamilnadu Circle",
    "regionname": "Central Region Trichirapalli",
    "divisionname": "Mayiladuthurai Division",
    "officename": "Annamperumalkoil B.O",
    "pincode": "609109",
    "officetype": "BO",
    "delivery": "Delivery",
    "district": "MAYILADUTHURAI",
    "statename": "TAMIL NADU",
    "latitude": "11.1900000",
    "longitude": "79.7700000"
  },
  {
    "circlename": "Tamilnadu Circle",
    "regionname": "Central Region Trichirapalli",
    "divisionname": "Mayiladuthurai Division",
    "officename": "Karaimedu B.O",
    "pincode": "609109",
    "officetype": "BO",
    "delivery": "Delivery",
    "district": "MAYILADUTHURAI",
    "statename": "TAMIL NADU",
    "latitude": "11.2100000",
    "longitude": "79.7600000"
  },
  {
    "circlename": "Tamilnadu Circle",
    "regionname": "Central Region Trichirapalli",
    "divisionname": "Mayiladuthurai Division",
    "officename": "Kattiyaniruppu B.O",
    "pincode": "609109",
    "officetype": "BO",
    "delivery": "Delivery",
    "district": "MAYILADUTHURAI",
    "statename": "TAMIL NADU",
    "latitude": "11.1700000",
    "longitude": "79.7600000"
  },
  {
    "circlename": "Tamilnadu Circle",
    "regionname": "Central Region Trichirapalli",
    "divisionname": "Mayiladuthurai Division",
    "officename": "Koolaiyar B.O",
    "pincode": "609113",
    "officetype": "BO",
    "delivery": "Delivery",
    "district": "MAYILADUTHURAI",
    "statename": "TAMIL NADU",
    "latitude": "11.2900000",
    "longitude": "79.8300000"
  },
  {
    "circlename": "Tamilnadu Circle",
    "regionname": "Central Region Trichirapalli",
    "divisionname": "Mayiladuthurai Division",
    "officename": "Karkoil B.O",
    "pincode": "609112",
    "officetype": "BO",
    "delivery": "Delivery",
    "district": "MAYILADUTHURAI",
    "statename": "TAMIL NADU",
    "latitude": "11.1900000",
    "longitude": "79.6900000"
  },
  {
    "circlename": "Tamilnadu Circle",
    "regionname": "Central Region Trichirapalli",
    "divisionname": "Mayiladuthurai Division",
    "officename": "Seithur Srk B.O",
    "pincode": "609112",
    "officetype": "BO",
    "delivery": "Delivery",
    "district": "MAYILADUTHURAI",
    "statename": "TAMIL NADU",
    "latitude": "11.1800000",
    "longitude": "79.6700000"
  },
  {
    "circlename": "Tamilnadu Circle",
    "regionname": "Central Region Trichirapalli",
    "divisionname": "Mayiladuthurai Division",
    "officename": "Athukudi B.O",
    "pincode": "609117",
    "officetype": "BO",
    "delivery": "Delivery",
    "district": "MAYILADUTHURAI",
    "statename": "TAMIL NADU",
    "latitude": "11.1700000",
    "longitude": "79.7100000"
  },
  {
    "circlename": "Tamilnadu Circle",
    "regionname": "Central Region Trichirapalli",
    "divisionname": "Mayiladuthurai Division",
    "officename": "Vaithiswarankoil West B.O",
    "pincode": "609117",
    "officetype": "BO",
    "delivery": "Non Delivery",
    "district": "MAYILADUTHURAI",
    "statename": "TAMIL NADU",
    "latitude": "11.2000000",
    "longitude": "79.7100000"
  },
  {
    "circlename": "Tamilnadu Circle",
    "regionname": "Central Region Trichirapalli",
    "divisionname": "Mayiladuthurai Division",
    "officename": "Kilmathur B.O",
    "pincode": "609116",
    "officetype": "BO",
    "delivery": "Delivery",
    "district": "MAYILADUTHURAI",
    "statename": "TAMIL NADU",
    "latitude": "11.2500000",
    "longitude": "79.7000000"
  },
  {
    "circlename": "Tamilnadu Circle",
    "regionname": "Central Region Trichirapalli",
    "divisionname": "Mayiladuthurai Division",
    "officename": "Pattavilagam B.O",
    "pincode": "609116",
    "officetype": "BO",
    "delivery": "Delivery",
    "district": "MAYILADUTHURAI",
    "statename": "TAMIL NADU",
    "latitude": "11.2600000",
    "longitude": "79.7000000"
  },
  {
    "circlename": "Tamilnadu Circle",
    "regionname": "Central Region Trichirapalli",
    "divisionname": "Mayiladuthurai Division",
    "officename": "Edamanal B.O",
    "pincode": "609115",
    "officetype": "BO",
    "delivery": "Delivery",
    "district": "MAYILADUTHURAI",
    "statename": "TAMIL NADU",
    "latitude": "11.2500000",
    "longitude": "79.8000000"
  },
  {
    "circlename": "Tamilnadu Circle",
    "regionname": "Central Region Trichirapalli",
    "divisionname": "Mayiladuthurai Division",
    "officename": "Mayiladuthurai H.O",
    "pincode": "609001",
    "officetype": "HO",
    "delivery": "Delivery",
    "district": "MAYILADUTHURAI",
    "statename": "TAMIL NADU",
    "latitude": "11.1009444",
    "longitude": "79.6499722"
  },
  {
    "circlename": "Tamilnadu Circle",
    "regionname": "Central Region Trichirapalli",
    "divisionname": "Kumbakonam Division",
    "officename": "Palaiyur S.O",
    "pincode": "612203",
    "officetype": "PO",
    "delivery": "Delivery",
    "district": "MAYILADUTHURAI",
    "statename": "TAMIL NADU",
    "latitude": "10.9900000",
    "longitude": "78.5600000"
  },
  {
    "circlename": "Tamilnadu Circle",
    "regionname": "Central Region Trichirapalli",
    "divisionname": "Kumbakonam Division",
    "officename": "Kuttalam East S.O",
    "pincode": "609801",
    "officetype": "PO",
    "delivery": "Non Delivery",
    "district": "MAYILADUTHURAI",
    "statename": "TAMIL NADU",
    "latitude": "11.0762670",
    "longitude": "79.5584970"
  },
  {
    "circlename": "Tamilnadu Circle",
    "regionname": "Central Region Trichirapalli",
    "divisionname": "Kumbakonam Division",
    "officename": "Malliyam S.O",
    "pincode": "609806",
    "officetype": "PO",
    "delivery": "Delivery",
    "district": "MAYILADUTHURAI",
    "statename": "TAMIL NADU",
    "latitude": "11.0809650",
    "longitude": "79.5971980"
  },
  {
    "circlename": "Tamilnadu Circle",
    "regionname": "Central Region Trichirapalli",
    "divisionname": "Kumbakonam Division",
    "officename": "Tiruvalangadu S.O",
    "pincode": "609810",
    "officetype": "PO",
    "delivery": "Delivery",
    "district": "MAYILADUTHURAI",
    "statename": "TAMIL NADU",
    "latitude": "11.0466930",
    "longitude": "79.5272360"
  },
  {
    "circlename": "Tamilnadu Circle",
    "regionname": "Central Region Trichirapalli",
    "divisionname": "Mayiladuthurai Division",
    "officename": "Ayappadi S.O",
    "pincode": "609303",
    "officetype": "PO",
    "delivery": "Delivery",
    "district": "MAYILADUTHURAI",
    "statename": "TAMIL NADU",
    "latitude": "10.7603056",
    "longitude": "79.8465278"
  },
  {
    "circlename": "Tamilnadu Circle",
    "regionname": "Central Region Trichirapalli",
    "divisionname": "Mayiladuthurai Division",
    "officename": "Elandangudi S.O",
    "pincode": "609401",
    "officetype": "PO",
    "delivery": "Delivery",
    "district": "MAYILADUTHURAI",
    "statename": "TAMIL NADU",
    "latitude": "10.7603056",
    "longitude": "79.8465278"
  },
  {
    "circlename": "Tamilnadu Circle",
    "regionname": "Central Region Trichirapalli",
    "divisionname": "Mayiladuthurai Division",
    "officename": "Mannampandal S.O",
    "pincode": "609305",
    "officetype": "PO",
    "delivery": "Delivery",
    "district": "MAYILADUTHURAI",
    "statename": "TAMIL NADU",
    "latitude": "11.1026667",
    "longitude": "79.6899444"
  },
  {
    "circlename": "Tamilnadu Circle",
    "regionname": "Central Region Trichirapalli",
    "divisionname": "Mayiladuthurai Division",
    "officename": "Mayiladuthurai Cutchery S.O",
    "pincode": "609001",
    "officetype": "PO",
    "delivery": "Non Delivery",
    "district": "MAYILADUTHURAI",
    "statename": "TAMIL NADU",
    "latitude": "11.1009390",
    "longitude": "79.6499770"
  },
  {
    "circlename": "Tamilnadu Circle",
    "regionname": "Central Region Trichirapalli",
    "divisionname": "Mayiladuthurai Division",
    "officename": "Solasakkaranallur S.O",
    "pincode": "609118",
    "officetype": "PO",
    "delivery": "Delivery",
    "district": "MAYILADUTHURAI",
    "statename": "TAMIL NADU",
    "latitude": "10.7603056",
    "longitude": "79.8465278"
  },
  {
    "circlename": "Tamilnadu Circle",
    "regionname": "Central Region Trichirapalli",
    "divisionname": "Mayiladuthurai Division",
    "officename": "Achalpuram S.O",
    "pincode": "609101",
    "officetype": "PO",
    "delivery": "Delivery",
    "district": "MAYILADUTHURAI",
    "statename": "TAMIL NADU",
    "latitude": "11.1900000",
    "longitude": "79.4500000"
  },
  {
    "circlename": "Tamilnadu Circle",
    "regionname": "Central Region Trichirapalli",
    "divisionname": "Mayiladuthurai Division",
    "officename": "Ilanthope S.O",
    "pincode": "609201",
    "officetype": "PO",
    "delivery": "Delivery",
    "district": "MAYILADUTHURAI",
    "statename": "TAMIL NADU",
    "latitude": "10.7603056",
    "longitude": "79.8465278"
  },
  {
    "circlename": "Tamilnadu Circle",
    "regionname": "Central Region Trichirapalli",
    "divisionname": "Mayiladuthurai Division",
    "officename": "Puthur (SRK) S.O",
    "pincode": "609108",
    "officetype": "PO",
    "delivery": "Delivery",
    "district": "MAYILADUTHURAI",
    "statename": "TAMIL NADU",
    "latitude": "10.7603056",
    "longitude": "79.8465278"
  },
  {
    "circlename": "Tamilnadu Circle",
    "regionname": "Central Region Trichirapalli",
    "divisionname": "Mayiladuthurai Division",
    "officename": "Tirupungur S.O",
    "pincode": "609112",
    "officetype": "PO",
    "delivery": "Delivery",
    "district": "MAYILADUTHURAI",
    "statename": "TAMIL NADU",
    "latitude": "10.7603056",
    "longitude": "79.8465278"
  },
  {
    "circlename": "Tamilnadu Circle",
    "regionname": "Central Region Trichirapalli",
    "divisionname": "Mayiladuthurai Division",
    "officename": "Vaithiswarankoil S.O",
    "pincode": "609117",
    "officetype": "PO",
    "delivery": "Delivery",
    "district": "MAYILADUTHURAI",
    "statename": "TAMIL NADU",
    "latitude": "10.7603056",
    "longitude": "79.8465278"
  },
  {
    "circlename": "Tamilnadu Circle",
    "regionname": "Central Region Trichirapalli",
    "divisionname": "Kumbakonam Division",
    "officename": "Vadamattam B.O",
    "pincode": "612201",
    "officetype": "BO",
    "delivery": "Non Delivery",
    "district": "MAYILADUTHURAI",
    "statename": "TAMIL NADU",
    "latitude": "10.9700000",
    "longitude": "79.5300000"
  },
  {
    "circlename": "Tamilnadu Circle",
    "regionname": "Central Region Trichirapalli",
    "divisionname": "Kumbakonam Division",
    "officename": "Nakkampadi B.O",
    "pincode": "612203",
    "officetype": "BO",
    "delivery": "Delivery",
    "district": "MAYILADUTHURAI",
    "statename": "TAMIL NADU",
    "latitude": "10.9900000",
    "longitude": "79.5800000"
  },
  {
    "circlename": "Tamilnadu Circle",
    "regionname": "Central Region Trichirapalli",
    "divisionname": "Kumbakonam Division",
    "officename": "Maraiyur B.O",
    "pincode": "609806",
    "officetype": "BO",
    "delivery": "Delivery",
    "district": "MAYILADUTHURAI",
    "statename": "TAMIL NADU",
    "latitude": "11.0700000",
    "longitude": "79.6200000"
  },
  {
    "circlename": "Tamilnadu Circle",
    "regionname": "Central Region Trichirapalli",
    "divisionname": "Mayiladuthurai Division",
    "officename": "Valuvur B.O",
    "pincode": "609401",
    "officetype": "BO",
    "delivery": "Delivery",
    "district": "MAYILADUTHURAI",
    "statename": "TAMIL NADU",
    "latitude": "11.0500000",
    "longitude": "79.6400000"
  },
  {
    "circlename": "Tamilnadu Circle",
    "regionname": "Central Region Trichirapalli",
    "divisionname": "Mayiladuthurai Division",
    "officename": "Kanjanagaram B.O",
    "pincode": "609304",
    "officetype": "BO",
    "delivery": "Delivery",
    "district": "MAYILADUTHURAI",
    "statename": "TAMIL NADU",
    "latitude": "11.1200000",
    "longitude": "79.7100000"
  },
  {
    "circlename": "Tamilnadu Circle",
    "regionname": "Central Region Trichirapalli",
    "divisionname": "Mayiladuthurai Division",
    "officename": "Kidarankondan B.O",
    "pincode": "609304",
    "officetype": "BO",
    "delivery": "Delivery",
    "district": "MAYILADUTHURAI",
    "statename": "TAMIL NADU",
    "latitude": "11.1400000",
    "longitude": "79.7600000"
  },
  {
    "circlename": "Tamilnadu Circle",
    "regionname": "Central Region Trichirapalli",
    "divisionname": "Mayiladuthurai Division",
    "officename": "Manalmedu East B.O",
    "pincode": "609202",
    "officetype": "BO",
    "delivery": "Non Delivery",
    "district": "MAYILADUTHURAI",
    "statename": "TAMIL NADU",
    "latitude": "11.2000000",
    "longitude": "79.6000000"
  },
  {
    "circlename": "Tamilnadu Circle",
    "regionname": "Central Region Trichirapalli",
    "divisionname": "Mayiladuthurai Division",
    "officename": "Peruncheri B.O",
    "pincode": "609404",
    "officetype": "BO",
    "delivery": "Delivery",
    "district": "MAYILADUTHURAI",
    "statename": "TAMIL NADU",
    "latitude": "11.0400000",
    "longitude": "79.6600000"
  },
  {
    "circlename": "Tamilnadu Circle",
    "regionname": "Central Region Trichirapalli",
    "divisionname": "Mayiladuthurai Division",
    "officename": "Koranad South B.O",
    "pincode": "609003",
    "officetype": "BO",
    "delivery": "Non Delivery",
    "district": "MAYILADUTHURAI",
    "statename": "TAMIL NADU",
    "latitude": "11.0900000",
    "longitude": "79.6400000"
  },
  {
    "circlename": "Tamilnadu Circle",
    "regionname": "Central Region Trichirapalli",
    "divisionname": "Mayiladuthurai Division",
    "officename": "Porayar R.S. B.O",
    "pincode": "609307",
    "officetype": "BO",
    "delivery": "Non Delivery",
    "district": "MAYILADUTHURAI",
    "statename": "TAMIL NADU",
    "latitude": "11.0200000",
    "longitude": "79.8400000"
  },
  {
    "circlename": "Tamilnadu Circle",
    "regionname": "Central Region Trichirapalli",
    "divisionname": "Mayiladuthurai Division",
    "officename": "Kalahasthinapuram B.O",
    "pincode": "609309",
    "officetype": "BO",
    "delivery": "Delivery",
    "district": "MAYILADUTHURAI",
    "statename": "TAMIL NADU",
    "latitude": "11.1100000",
    "longitude": "79.7600000"
  },
  {
    "circlename": "Tamilnadu Circle",
    "regionname": "Central Region Trichirapalli",
    "divisionname": "Mayiladuthurai Division",
    "officename": "Tirunandriyur B.O",
    "pincode": "609118",
    "officetype": "BO",
    "delivery": "Delivery",
    "district": "MAYILADUTHURAI",
    "statename": "TAMIL NADU",
    "latitude": "11.1500000",
    "longitude": "79.7000000"
  },
  {
    "circlename": "Tamilnadu Circle",
    "regionname": "Central Region Trichirapalli",
    "divisionname": "Mayiladuthurai Division",
    "officename": "Buthanur B.O",
    "pincode": "609312",
    "officetype": "BO",
    "delivery": "Delivery",
    "district": "MAYILADUTHURAI",
    "statename": "TAMIL NADU",
    "latitude": "11.0100000",
    "longitude": "79.7900000"
  },
  {
    "circlename": "Tamilnadu Circle",
    "regionname": "Central Region Trichirapalli",
    "divisionname": "Mayiladuthurai Division",
    "officename": "Arapallam B.O",
    "pincode": "609101",
    "officetype": "BO",
    "delivery": "Delivery",
    "district": "MAYILADUTHURAI",
    "statename": "TAMIL NADU",
    "latitude": "11.3300000",
    "longitude": "79.7700000"
  },
  {
    "circlename": "Tamilnadu Circle",
    "regionname": "Central Region Trichirapalli",
    "divisionname": "Mayiladuthurai Division",
    "officename": "Palayar B.O",
    "pincode": "609101",
    "officetype": "BO",
    "delivery": "Delivery",
    "district": "MAYILADUTHURAI",
    "statename": "TAMIL NADU",
    "latitude": "11.3500000",
    "longitude": "79.8300000"
  },
  {
    "circlename": "Tamilnadu Circle",
    "regionname": "Central Region Trichirapalli",
    "divisionname": "Mayiladuthurai Division",
    "officename": "Anaikaranchatram South B.O",
    "pincode": "609102",
    "officetype": "BO",
    "delivery": "Non Delivery",
    "district": "MAYILADUTHURAI",
    "statename": "TAMIL NADU",
    "latitude": "11.3100000",
    "longitude": "79.7100000"
  },
  {
    "circlename": "Tamilnadu Circle",
    "regionname": "Central Region Trichirapalli",
    "divisionname": "Mayiladuthurai Division",
    "officename": "Nallanayagapuram B.O",
    "pincode": "609102",
    "officetype": "BO",
    "delivery": "Delivery",
    "district": "MAYILADUTHURAI",
    "statename": "TAMIL NADU",
    "latitude": "11.3200000",
    "longitude": "79.7400000"
  },
  {
    "circlename": "Tamilnadu Circle",
    "regionname": "Central Region Trichirapalli",
    "divisionname": "Mayiladuthurai Division",
    "officename": "Madanam B.O",
    "pincode": "609104",
    "officetype": "BO",
    "delivery": "Delivery",
    "district": "MAYILADUTHURAI",
    "statename": "TAMIL NADU",
    "latitude": "11.3000000",
    "longitude": "79.7700000"
  },
  {
    "circlename": "Tamilnadu Circle",
    "regionname": "Central Region Trichirapalli",
    "divisionname": "Mayiladuthurai Division",
    "officename": "Kaveripattinam Beach B.O",
    "pincode": "609105",
    "officetype": "BO",
    "delivery": "Delivery",
    "district": "MAYILADUTHURAI",
    "statename": "TAMIL NADU",
    "latitude": "11.1500000",
    "longitude": "79.8500000"
  },
  {
    "circlename": "Tamilnadu Circle",
    "regionname": "Central Region Trichirapalli",
    "divisionname": "Mayiladuthurai Division",
    "officename": "Kilasattanathapuram B.O",
    "pincode": "609106",
    "officetype": "BO",
    "delivery": "Delivery",
    "district": "MAYILADUTHURAI",
    "statename": "TAMIL NADU",
    "latitude": "11.18",
    "longitude": "79.799999999999997"
  },
  {
    "circlename": "Tamilnadu Circle",
    "regionname": "Central Region Trichirapalli",
    "divisionname": "Mayiladuthurai Division",
    "officename": "Perunthottam B.O",
    "pincode": "609106",
    "officetype": "BO",
    "delivery": "Delivery",
    "district": "MAYILADUTHURAI",
    "statename": "TAMIL NADU",
    "latitude": "11.2000000",
    "longitude": "79.8300000"
  },
  {
    "circlename": "Tamilnadu Circle",
    "regionname": "Central Region Trichirapalli",
    "divisionname": "Mayiladuthurai Division",
    "officename": "Tirunagari B.O",
    "pincode": "609106",
    "officetype": "BO",
    "delivery": "Delivery",
    "district": "MAYILADUTHURAI",
    "statename": "TAMIL NADU",
    "latitude": "11.2300000",
    "longitude": "79.8000000"
  },
  {
    "circlename": "Tamilnadu Circle",
    "regionname": "Central Region Trichirapalli",
    "divisionname": "Mayiladuthurai Division",
    "officename": "Gopalasamudram B.O",
    "pincode": "609108",
    "officetype": "BO",
    "delivery": "Delivery",
    "district": "MAYILADUTHURAI",
    "statename": "TAMIL NADU",
    "latitude": "11.2900000",
    "longitude": "79.7100000"
  },
  {
    "circlename": "Tamilnadu Circle",
    "regionname": "Central Region Trichirapalli",
    "divisionname": "Mayiladuthurai Division",
    "officename": "Sembadaniruppu B.O",
    "pincode": "609109",
    "officetype": "BO",
    "delivery": "Delivery",
    "district": "MAYILADUTHURAI",
    "statename": "TAMIL NADU",
    "latitude": "11.1600000",
    "longitude": "79.7600000"
  },
  {
    "circlename": "Tamilnadu Circle",
    "regionname": "Central Region Trichirapalli",
    "divisionname": "Mayiladuthurai Division",
    "officename": "Tiruvali B.O",
    "pincode": "609109",
    "officetype": "BO",
    "delivery": "Delivery",
    "district": "MAYILADUTHURAI",
    "statename": "TAMIL NADU",
    "latitude": "11.2100000",
    "longitude": "79.7800000"
  },
  {
    "circlename": "Tamilnadu Circle",
    "regionname": "Central Region Trichirapalli",
    "divisionname": "Mayiladuthurai Division",
    "officename": "Sirkali West B.O",
    "pincode": "609111",
    "officetype": "BO",
    "delivery": "Non Delivery",
    "district": "MAYILADUTHURAI",
    "statename": "TAMIL NADU",
    "latitude": "11.2400000",
    "longitude": "79.7300000"
  },
  {
    "circlename": "Tamilnadu Circle",
    "regionname": "Central Region Trichirapalli",
    "divisionname": "Mayiladuthurai Division",
    "officename": "Tiruvidaikali B.O",
    "pincode": "609310",
    "officetype": "BO",
    "delivery": "Delivery",
    "district": "MAYILADUTHURAI",
    "statename": "TAMIL NADU",
    "latitude": "11.0400000",
    "longitude": "79.7900000"
  },
  {
    "circlename": "Tamilnadu Circle",
    "regionname": "Central Region Trichirapalli",
    "divisionname": "Mayiladuthurai Division",
    "officename": "Radhanallur (TVG) B.O",
    "pincode": "609114",
    "officetype": "BO",
    "delivery": "Delivery",
    "district": "MAYILADUTHURAI",
    "statename": "TAMIL NADU",
    "latitude": "11.1500000",
    "longitude": "79.7900000"
  },
  {
    "circlename": "Tamilnadu Circle",
    "regionname": "Central Region Trichirapalli",
    "divisionname": "Mayiladuthurai Division",
    "officename": "Elathur B.O",
    "pincode": "609116",
    "officetype": "BO",
    "delivery": "Delivery",
    "district": "MAYILADUTHURAI",
    "statename": "TAMIL NADU",
    "latitude": "11.2600000",
    "longitude": "79.6500000"
  },
  {
    "circlename": "Tamilnadu Circle",
    "regionname": "Central Region Trichirapalli",
    "divisionname": "Kumbakonam Division",
    "officename": "Komal S.O",
    "pincode": "609805",
    "officetype": "PO",
    "delivery": "Delivery",
    "district": "MAYILADUTHURAI",
    "statename": "TAMIL NADU",
    "latitude": "11.0200000",
    "longitude": "79.6000000"
  },
  {
    "circlename": "Tamilnadu Circle",
    "regionname": "Central Region Trichirapalli",
    "divisionname": "Kumbakonam Division",
    "officename": "Terizhandur S.O",
    "pincode": "609808",
    "officetype": "PO",
    "delivery": "Delivery",
    "district": "MAYILADUTHURAI",
    "statename": "TAMIL NADU",
    "latitude": "11.0300000",
    "longitude": "79.4700000"
  },
  {
    "circlename": "Tamilnadu Circle",
    "regionname": "Central Region Trichirapalli",
    "divisionname": "Mayiladuthurai Division",
    "officename": "Nalladai S.O",
    "pincode": "609306",
    "officetype": "PO",
    "delivery": "Delivery",
    "district": "MAYILADUTHURAI",
    "statename": "TAMIL NADU",
    "latitude": "10.7603056",
    "longitude": "79.8465278"
  },
  {
    "circlename": "Tamilnadu Circle",
    "regionname": "Central Region Trichirapalli",
    "divisionname": "Mayiladuthurai Division",
    "officename": "Sembanarkoil S.O",
    "pincode": "609309",
    "officetype": "PO",
    "delivery": "Delivery",
    "district": "MAYILADUTHURAI",
    "statename": "TAMIL NADU",
    "latitude": "10.7603056",
    "longitude": "79.8465278"
  },
  {
    "circlename": "Tamilnadu Circle",
    "regionname": "Central Region Trichirapalli",
    "divisionname": "Mayiladuthurai Division",
    "officename": "Tirukkalachery S.O",
    "pincode": "609312",
    "officetype": "PO",
    "delivery": "Delivery",
    "district": "MAYILADUTHURAI",
    "statename": "TAMIL NADU",
    "latitude": "10.7603056",
    "longitude": "79.8465278"
  },
  {
    "circlename": "Tamilnadu Circle",
    "regionname": "Central Region Trichirapalli",
    "divisionname": "Mayiladuthurai Division",
    "officename": "Kadavasal S.O",
    "pincode": "609104",
    "officetype": "PO",
    "delivery": "Delivery",
    "district": "MAYILADUTHURAI",
    "statename": "TAMIL NADU",
    "latitude": "10.7603056",
    "longitude": "79.8465278"
  },
  {
    "circlename": "Tamilnadu Circle",
    "regionname": "Central Region Trichirapalli",
    "divisionname": "Mayiladuthurai Division",
    "officename": "Mangamadam S.O",
    "pincode": "609106",
    "officetype": "PO",
    "delivery": "Delivery",
    "district": "MAYILADUTHURAI",
    "statename": "TAMIL NADU",
    "latitude": "10.7603056",
    "longitude": "79.8465278"
  },
  {
    "circlename": "Tamilnadu Circle",
    "regionname": "Central Region Trichirapalli",
    "divisionname": "Kumbakonam Division",
    "officename": "Mandai B.O",
    "pincode": "612203",
    "officetype": "BO",
    "delivery": "Delivery",
    "district": "MAYILADUTHURAI",
    "statename": "TAMIL NADU",
    "latitude": "10.9900000",
    "longitude": "79.5900000"
  },
  {
    "circlename": "Tamilnadu Circle",
    "regionname": "Central Region Trichirapalli",
    "divisionname": "Mayiladuthurai Division",
    "officename": "Kalamanallur B.O",
    "pincode": "609301",
    "officetype": "BO",
    "delivery": "Delivery",
    "district": "MAYILADUTHURAI",
    "statename": "TAMIL NADU",
    "latitude": "11.0900000",
    "longitude": "79.8300000"
  },
  {
    "circlename": "Tamilnadu Circle",
    "regionname": "Central Region Trichirapalli",
    "divisionname": "Mayiladuthurai Division",
    "officename": "Mathur B.O",
    "pincode": "609301",
    "officetype": "BO",
    "delivery": "Delivery",
    "district": "MAYILADUTHURAI",
    "statename": "TAMIL NADU",
    "latitude": "11.0900000",
    "longitude": "79.7400000"
  },
  {
    "circlename": "Tamilnadu Circle",
    "regionname": "Central Region Trichirapalli",
    "divisionname": "Mayiladuthurai Division",
    "officename": "Melapathi B.O",
    "pincode": "609304",
    "officetype": "BO",
    "delivery": "Delivery",
    "district": "MAYILADUTHURAI",
    "statename": "TAMIL NADU",
    "latitude": "11.1200000",
    "longitude": "79.7500000"
  },
  {
    "circlename": "Tamilnadu Circle",
    "regionname": "Central Region Trichirapalli",
    "divisionname": "Mayiladuthurai Division",
    "officename": "Kanganamputhur B.O",
    "pincode": "609203",
    "officetype": "BO",
    "delivery": "Delivery",
    "district": "MAYILADUTHURAI",
    "statename": "TAMIL NADU",
    "latitude": "11.1400000",
    "longitude": "79.6400000"
  },
  {
    "circlename": "Tamilnadu Circle",
    "regionname": "Central Region Trichirapalli",
    "divisionname": "Mayiladuthurai Division",
    "officename": "Korukkai B.O",
    "pincode": "609203",
    "officetype": "BO",
    "delivery": "Delivery",
    "district": "MAYILADUTHURAI",
    "statename": "TAMIL NADU",
    "latitude": "11.1500000",
    "longitude": "79.6100000"
  },
  {
    "circlename": "Tamilnadu Circle",
    "regionname": "Central Region Trichirapalli",
    "divisionname": "Mayiladuthurai Division",
    "officename": "Chandrapadi B.O",
    "pincode": "609307",
    "officetype": "BO",
    "delivery": "Delivery",
    "district": "MAYILADUTHURAI",
    "statename": "TAMIL NADU",
    "latitude": "11.0000000",
    "longitude": "79.8500000"
  },
  {
    "circlename": "Tamilnadu Circle",
    "regionname": "Central Region Trichirapalli",
    "divisionname": "Mayiladuthurai Division",
    "officename": "Iluppur B.O",
    "pincode": "609308",
    "officetype": "BO",
    "delivery": "Delivery",
    "district": "MAYILADUTHURAI",
    "statename": "TAMIL NADU",
    "latitude": "11.0200000",
    "longitude": "79.7600000"
  },
  {
    "circlename": "Tamilnadu Circle",
    "regionname": "Central Region Trichirapalli",
    "divisionname": "Mayiladuthurai Division",
    "officename": "Arupathy B.O",
    "pincode": "609309",
    "officetype": "BO",
    "delivery": "Delivery",
    "district": "MAYILADUTHURAI",
    "statename": "TAMIL NADU",
    "latitude": "11.1100000",
    "longitude": "79.7100000"
  },
  {
    "circlename": "Tamilnadu Circle",
    "regionname": "Central Region Trichirapalli",
    "divisionname": "Mayiladuthurai Division",
    "officename": "Mudikondanallur B.O",
    "pincode": "609309",
    "officetype": "BO",
    "delivery": "Delivery",
    "district": "MAYILADUTHURAI",
    "statename": "TAMIL NADU",
    "latitude": "11.1200000",
    "longitude": "79.7600000"
  },
  {
    "circlename": "Tamilnadu Circle",
    "regionname": "Central Region Trichirapalli",
    "divisionname": "Mayiladuthurai Division",
    "officename": "Parasalur B.O",
    "pincode": "609309",
    "officetype": "BO",
    "delivery": "Delivery",
    "district": "MAYILADUTHURAI",
    "statename": "TAMIL NADU",
    "latitude": "11.1000000",
    "longitude": "79.7300000"
  },
  {
    "circlename": "Tamilnadu Circle",
    "regionname": "Central Region Trichirapalli",
    "divisionname": "Mayiladuthurai Division",
    "officename": "Alaveli B.O",
    "pincode": "609118",
    "officetype": "BO",
    "delivery": "Delivery",
    "district": "MAYILADUTHURAI",
    "statename": "TAMIL NADU",
    "latitude": "11.1500000",
    "longitude": "79.7100000"
  },
  {
    "circlename": "Tamilnadu Circle",
    "regionname": "Central Region Trichirapalli",
    "divisionname": "Mayiladuthurai Division",
    "officename": "Molaiyur B.O",
    "pincode": "609118",
    "officetype": "BO",
    "delivery": "Delivery",
    "district": "MAYILADUTHURAI",
    "statename": "TAMIL NADU",
    "latitude": "11.1400000",
    "longitude": "79.6800000"
  },
  {
    "circlename": "Tamilnadu Circle",
    "regionname": "Central Region Trichirapalli",
    "divisionname": "Mayiladuthurai Division",
    "officename": "Kannukiniyanar Koil B.O",
    "pincode": "609104",
    "officetype": "BO",
    "delivery": "Delivery",
    "district": "MAYILADUTHURAI",
    "statename": "TAMIL NADU",
    "latitude": "11.2900000",
    "longitude": "79.7700000"
  },
  {
    "circlename": "Tamilnadu Circle",
    "regionname": "Central Region Trichirapalli",
    "divisionname": "Mayiladuthurai Division",
    "officename": "Semmangudi(SRK) B.O",
    "pincode": "609104",
    "officetype": "BO",
    "delivery": "Delivery",
    "district": "MAYILADUTHURAI",
    "statename": "TAMIL NADU",
    "latitude": "11.2400000",
    "longitude": "79.7500000"
  },
  {
    "circlename": "Tamilnadu Circle",
    "regionname": "Central Region Trichirapalli",
    "divisionname": "Mayiladuthurai Division",
    "officename": "Erukkur B.O",
    "pincode": "609108",
    "officetype": "BO",
    "delivery": "Delivery",
    "district": "MAYILADUTHURAI",
    "statename": "TAMIL NADU",
    "latitude": "11.2800000",
    "longitude": "79.7200000"
  },
  {
    "circlename": "Tamilnadu Circle",
    "regionname": "Central Region Trichirapalli",
    "divisionname": "Mayiladuthurai Division",
    "officename": "Sirkali East B.O",
    "pincode": "609111",
    "officetype": "BO",
    "delivery": "Non Delivery",
    "district": "MAYILADUTHURAI",
    "statename": "TAMIL NADU",
    "latitude": "11.2400000",
    "longitude": "79.7400000"
  },
  {
    "circlename": "Tamilnadu Circle",
    "regionname": "Central Region Trichirapalli",
    "divisionname": "Mayiladuthurai Division",
    "officename": "Tittai (SRK) B.O",
    "pincode": "609111",
    "officetype": "BO",
    "delivery": "Delivery",
    "district": "MAYILADUTHURAI",
    "statename": "TAMIL NADU",
    "latitude": "11.2300000",
    "longitude": "79.7600000"
  },
  {
    "circlename": "Tamilnadu Circle",
    "regionname": "Central Region Trichirapalli",
    "divisionname": "Mayiladuthurai Division",
    "officename": "Vilanthida Samudram B.O",
    "pincode": "609111",
    "officetype": "BO",
    "delivery": "Delivery",
    "district": "MAYILADUTHURAI",
    "statename": "TAMIL NADU",
    "latitude": "11.2500000",
    "longitude": "79.7300000"
  },
  {
    "circlename": "Tamilnadu Circle",
    "regionname": "Central Region Trichirapalli",
    "divisionname": "Mayiladuthurai Division",
    "officename": "Nandhiynallur B.O",
    "pincode": "609111",
    "officetype": "BO",
    "delivery": "Non Delivery",
    "district": "MAYILADUTHURAI",
    "statename": "TAMIL NADU",
    "latitude": "11.239050000000001",
    "longitude": "79.709970999999996"
  },
  {
    "circlename": "Tamilnadu Circle",
    "regionname": "Central Region Trichirapalli",
    "divisionname": "Mayiladuthurai Division",
    "officename": "Tirumeignanam B.O",
    "pincode": "609311",
    "officetype": "BO",
    "delivery": "Delivery",
    "district": "MAYILADUTHURAI",
    "statename": "TAMIL NADU",
    "latitude": "11.0800000",
    "longitude": "79.8200000"
  },
  {
    "circlename": "Tamilnadu Circle",
    "regionname": "Central Region Trichirapalli",
    "divisionname": "Mayiladuthurai Division",
    "officename": "Mannipallam B.O",
    "pincode": "609112",
    "officetype": "BO",
    "delivery": "Delivery",
    "district": "MAYILADUTHURAI",
    "statename": "TAMIL NADU",
    "latitude": "11.2000000",
    "longitude": "79.6600000"
  },
  {
    "circlename": "Tamilnadu Circle",
    "regionname": "Central Region Trichirapalli",
    "divisionname": "Mayiladuthurai Division",
    "officename": "Idaikudi vadapathy B.O",
    "pincode": "609117",
    "officetype": "BO",
    "delivery": "Non Delivery",
    "district": "MAYILADUTHURAI",
    "statename": "TAMIL NADU",
    "latitude": "11.1900000",
    "longitude": "79.7300000"
  },
  {
    "circlename": "Tamilnadu Circle",
    "regionname": "Central Region Trichirapalli",
    "divisionname": "Mayiladuthurai Division",
    "officename": "Pagasalai B.O",
    "pincode": "609117",
    "officetype": "BO",
    "delivery": "Delivery",
    "district": "MAYILADUTHURAI",
    "statename": "TAMIL NADU",
    "latitude": "11.1800000",
    "longitude": "79.7400000"
  },
  {
    "circlename": "Tamilnadu Circle",
    "regionname": "Central Region Trichirapalli",
    "divisionname": "Mayiladuthurai Division",
    "officename": "Nemmeli(SRK) B.O",
    "pincode": "609116",
    "officetype": "BO",
    "delivery": "Delivery",
    "district": "MAYILADUTHURAI",
    "statename": "TAMIL NADU",
    "latitude": "11.2400000",
    "longitude": "79.7000000"
  },
  {
    "circlename": "Tamilnadu Circle",
    "regionname": "Central Region Trichirapalli",
    "divisionname": "Mayiladuthurai Division",
    "officename": "Keeranallur B.O",
    "pincode": "609115",
    "officetype": "BO",
    "delivery": "Delivery",
    "district": "MAYILADUTHURAI",
    "statename": "TAMIL NADU",
    "latitude": "11.2400000",
    "longitude": "79.7700000"
  },
  {
    "circlename": "Tamilnadu Circle",
    "regionname": "Central Region Trichirapalli",
    "divisionname": "Mayiladuthurai Division",
    "officename": "Radhanallur  (SRK) B.O",
    "pincode": "609115",
    "officetype": "BO",
    "delivery": "Delivery",
    "district": "MAYILADUTHURAI",
    "statename": "TAMIL NADU",
    "latitude": "11.2500000",
    "longitude": "79.8100000"
  },
  {
    "circlename": "Tamilnadu Circle",
    "regionname": "Central Region Trichirapalli",
    "divisionname": "Kumbakonam Division",
    "officename": "Tirumeniarkoil S.O",
    "pincode": "609204",
    "officetype": "PO",
    "delivery": "Delivery",
    "district": "MAYILADUTHURAI",
    "statename": "TAMIL NADU",
    "latitude": "11.1700000",
    "longitude": "79.5600000"
  },
  {
    "circlename": "Tamilnadu Circle",
    "regionname": "Central Region Trichirapalli",
    "divisionname": "Mayiladuthurai Division",
    "officename": "Anandatandavapuram S.O",
    "pincode": "609103",
    "officetype": "PO",
    "delivery": "Delivery",
    "district": "MAYILADUTHURAI",
    "statename": "TAMIL NADU",
    "latitude": "11.1414750",
    "longitude": "79.6626370"
  },
  {
    "circlename": "Tamilnadu Circle",
    "regionname": "Central Region Trichirapalli",
    "divisionname": "Mayiladuthurai Division",
    "officename": "Arangakudi S.O",
    "pincode": "609302",
    "officetype": "PO",
    "delivery": "Delivery",
    "district": "MAYILADUTHURAI",
    "statename": "TAMIL NADU",
    "latitude": "10.7603056",
    "longitude": "79.8465278"
  },
  {
    "circlename": "Tamilnadu Circle",
    "regionname": "Central Region Trichirapalli",
    "divisionname": "Mayiladuthurai Division",
    "officename": "Kiliyanur S.O (Nagapattinam)",
    "pincode": "609402",
    "officetype": "PO",
    "delivery": "Delivery",
    "district": "MAYILADUTHURAI",
    "statename": "TAMIL NADU",
    "latitude": "10.7603056",
    "longitude": "79.8465278"
  },
  {
    "circlename": "Tamilnadu Circle",
    "regionname": "Central Region Trichirapalli",
    "divisionname": "Mayiladuthurai Division",
    "officename": "Manalmedu S.O",
    "pincode": "609202",
    "officetype": "PO",
    "delivery": "Delivery",
    "district": "MAYILADUTHURAI",
    "statename": "TAMIL NADU",
    "latitude": "11.1951944",
    "longitude": "79.5954722"
  },
  {
    "circlename": "Tamilnadu Circle",
    "regionname": "Central Region Trichirapalli",
    "divisionname": "Mayiladuthurai Division",
    "officename": "Tarangambadi S.O",
    "pincode": "609313",
    "officetype": "PO",
    "delivery": "Delivery",
    "district": "MAYILADUTHURAI",
    "statename": "TAMIL NADU",
    "latitude": "10.7603056",
    "longitude": "79.8465278"
  },
  {
    "circlename": "Tamilnadu Circle",
    "regionname": "Central Region Trichirapalli",
    "divisionname": "Mayiladuthurai Division",
    "officename": "Sattanathapuram S.O",
    "pincode": "609109",
    "officetype": "PO",
    "delivery": "Delivery",
    "district": "MAYILADUTHURAI",
    "statename": "TAMIL NADU",
    "latitude": "11.2202222",
    "longitude": "79.7373889"
  },
  {
    "circlename": "Tamilnadu Circle",
    "regionname": "Central Region Trichirapalli",
    "divisionname": "Mayiladuthurai Division",
    "officename": "Tiruvalaputhur S.O",
    "pincode": "609205",
    "officetype": "PO",
    "delivery": "Delivery",
    "district": "MAYILADUTHURAI",
    "statename": "TAMIL NADU",
    "latitude": "10.7603056",
    "longitude": "79.8465278"
  },
  {
    "circlename": "Tamilnadu Circle",
    "regionname": "Central Region Trichirapalli",
    "divisionname": "Mayiladuthurai Division",
    "officename": "Tiruvengadu S.O",
    "pincode": "609114",
    "officetype": "PO",
    "delivery": "Delivery",
    "district": "MAYILADUTHURAI",
    "statename": "TAMIL NADU",
    "latitude": "11.1738889",
    "longitude": "79.8117222"
  },
  {
    "circlename": "Tamilnadu Circle",
    "regionname": "Central Region Trichirapalli",
    "divisionname": "Mayiladuthurai Division",
    "officename": "Varisapathu Vadagal S.O",
    "pincode": "609115",
    "officetype": "PO",
    "delivery": "Delivery",
    "district": "MAYILADUTHURAI",
    "statename": "TAMIL NADU",
    "latitude": "11.6000000",
    "longitude": "79.3900000"
  },
  {
    "circlename": "Tamilnadu Circle",
    "regionname": "Central Region Trichirapalli",
    "divisionname": "Kumbakonam Division",
    "officename": "Anniyur B.O",
    "pincode": "612201",
    "officetype": "BO",
    "delivery": "Delivery",
    "district": "MAYILADUTHURAI",
    "statename": "TAMIL NADU",
    "latitude": "10.9600000",
    "longitude": "79.5600000"
  },
  {
    "circlename": "Tamilnadu Circle",
    "regionname": "Central Region Trichirapalli",
    "divisionname": "Kumbakonam Division",
    "officename": "Kanjivoy B.O",
    "pincode": "612203",
    "officetype": "BO",
    "delivery": "Delivery",
    "district": "MAYILADUTHURAI",
    "statename": "TAMIL NADU",
    "latitude": "11.0100000",
    "longitude": "79.5500000"
  },
  {
    "circlename": "Tamilnadu Circle",
    "regionname": "Central Region Trichirapalli",
    "divisionname": "Kumbakonam Division",
    "officename": "Edakiam B.O",
    "pincode": "609805",
    "officetype": "BO",
    "delivery": "Delivery",
    "district": "MAYILADUTHURAI",
    "statename": "TAMIL NADU",
    "latitude": "11.0100000",
    "longitude": "79.5700000"
  },
  {
    "circlename": "Tamilnadu Circle",
    "regionname": "Central Region Trichirapalli",
    "divisionname": "Kumbakonam Division",
    "officename": "Gangadarapuram B.O",
    "pincode": "609805",
    "officetype": "BO",
    "delivery": "Delivery",
    "district": "MAYILADUTHURAI",
    "statename": "TAMIL NADU",
    "latitude": "11.0000000",
    "longitude": "79.6100000"
  },
  {
    "circlename": "Tamilnadu Circle",
    "regionname": "Central Region Trichirapalli",
    "divisionname": "Kumbakonam Division",
    "officename": "Moovalur B.O",
    "pincode": "609806",
    "officetype": "BO",
    "delivery": "Delivery",
    "district": "MAYILADUTHURAI",
    "statename": "TAMIL NADU",
    "latitude": "11.0900000",
    "longitude": "79.6100000"
  },
  {
    "circlename": "Tamilnadu Circle",
    "regionname": "Central Region Trichirapalli",
    "divisionname": "Kumbakonam Division",
    "officename": "Vanathirajapuram B.O",
    "pincode": "609806",
    "officetype": "BO",
    "delivery": "Delivery",
    "district": "MAYILADUTHURAI",
    "statename": "TAMIL NADU",
    "latitude": "11.0900000",
    "longitude": "79.5900000"
  },
  {
    "circlename": "Tamilnadu Circle",
    "regionname": "Central Region Trichirapalli",
    "divisionname": "Mayiladuthurai Division",
    "officename": "Maruthampallam B.O",
    "pincode": "609301",
    "officetype": "BO",
    "delivery": "Delivery",
    "district": "MAYILADUTHURAI",
    "statename": "TAMIL NADU",
    "latitude": "11.1100000",
    "longitude": "79.8400000"
  },
  {
    "circlename": "Tamilnadu Circle",
    "regionname": "Central Region Trichirapalli",
    "divisionname": "Mayiladuthurai Division",
    "officename": "Umayalpuram B.O",
    "pincode": "609301",
    "officetype": "BO",
    "delivery": "Delivery",
    "district": "MAYILADUTHURAI",
    "statename": "TAMIL NADU",
    "latitude": "11.1100000",
    "longitude": "79.7800000"
  },
  {
    "circlename": "Tamilnadu Circle",
    "regionname": "Central Region Trichirapalli",
    "divisionname": "Mayiladuthurai Division",
    "officename": "Elayalur B.O",
    "pincode": "609302",
    "officetype": "BO",
    "delivery": "Delivery",
    "district": "MAYILADUTHURAI",
    "statename": "TAMIL NADU",
    "latitude": "11.0800000",
    "longitude": "79.7200000"
  },
  {
    "circlename": "Tamilnadu Circle",
    "regionname": "Central Region Trichirapalli",
    "divisionname": "Mayiladuthurai Division",
    "officename": "Perambur B.O",
    "pincode": "609402",
    "officetype": "BO",
    "delivery": "Delivery",
    "district": "MAYILADUTHURAI",
    "statename": "TAMIL NADU",
    "latitude": "11.0300000",
    "longitude": "79.7000000"
  },
  {
    "circlename": "Tamilnadu Circle",
    "regionname": "Central Region Trichirapalli",
    "divisionname": "Mayiladuthurai Division",
    "officename": "Manganallur B.O",
    "pincode": "609404",
    "officetype": "BO",
    "delivery": "Delivery",
    "district": "MAYILADUTHURAI",
    "statename": "TAMIL NADU",
    "latitude": "11.0300000",
    "longitude": "79.6300000"
  },
  {
    "circlename": "Tamilnadu Circle",
    "regionname": "Central Region Trichirapalli",
    "divisionname": "Mayiladuthurai Division",
    "officename": "Chittarkadu B.O",
    "pincode": "609003",
    "officetype": "BO",
    "delivery": "Non Delivery",
    "district": "MAYILADUTHURAI",
    "statename": "TAMIL NADU",
    "latitude": "11.0900000",
    "longitude": "79.6200000"
  },
  {
    "circlename": "Tamilnadu Circle",
    "regionname": "Central Region Trichirapalli",
    "divisionname": "Mayiladuthurai Division",
    "officename": "Mappadugai B.O",
    "pincode": "609003",
    "officetype": "BO",
    "delivery": "Delivery",
    "district": "MAYILADUTHURAI",
    "statename": "TAMIL NADU",
    "latitude": "11.1000000",
    "longitude": "79.6200000"
  },
  {
    "circlename": "Tamilnadu Circle",
    "regionname": "Central Region Trichirapalli",
    "divisionname": "Mayiladuthurai Division",
    "officename": "Mayiladuthurai North B.O",
    "pincode": "609001",
    "officetype": "BO",
    "delivery": "Non Delivery",
    "district": "MAYILADUTHURAI",
    "statename": "TAMIL NADU",
    "latitude": "11.1100000",
    "longitude": "79.6500000"
  },
  {
    "circlename": "Tamilnadu Circle",
    "regionname": "Central Region Trichirapalli",
    "divisionname": "Mayiladuthurai Division",
    "officename": "Velampudukudi B.O",
    "pincode": "609306",
    "officetype": "BO",
    "delivery": "Delivery",
    "district": "MAYILADUTHURAI",
    "statename": "TAMIL NADU",
    "latitude": "11.0300000",
    "longitude": "79.7300000"
  },
  {
    "circlename": "Tamilnadu Circle",
    "regionname": "Central Region Trichirapalli",
    "divisionname": "Mayiladuthurai Division",
    "officename": "Erukkattanchery B.O",
    "pincode": "609307",
    "officetype": "BO",
    "delivery": "Delivery",
    "district": "MAYILADUTHURAI",
    "statename": "TAMIL NADU",
    "latitude": "11.0400000",
    "longitude": "79.8300000"
  },
  {
    "circlename": "Tamilnadu Circle",
    "regionname": "Central Region Trichirapalli",
    "divisionname": "Mayiladuthurai Division",
    "officename": "Kaliyappanallur B.O",
    "pincode": "609307",
    "officetype": "BO",
    "delivery": "Delivery",
    "district": "MAYILADUTHURAI",
    "statename": "TAMIL NADU",
    "latitude": "11.0500000",
    "longitude": "79.8300000"
  },
  {
    "circlename": "Tamilnadu Circle",
    "regionname": "Central Region Trichirapalli",
    "divisionname": "Mayiladuthurai Division",
    "officename": "Porayar Market B.O",
    "pincode": "609307",
    "officetype": "BO",
    "delivery": "Non Delivery",
    "district": "MAYILADUTHURAI",
    "statename": "TAMIL NADU",
    "latitude": "11.0200000",
    "longitude": "79.8300000"
  },
  {
    "circlename": "Tamilnadu Circle",
    "regionname": "Central Region Trichirapalli",
    "divisionname": "Mayiladuthurai Division",
    "officename": "Nalluchery B.O",
    "pincode": "609308",
    "officetype": "BO",
    "delivery": "Delivery",
    "district": "MAYILADUTHURAI",
    "statename": "TAMIL NADU",
    "latitude": "11.0500000",
    "longitude": "79.7700000"
  },
  {
    "circlename": "Tamilnadu Circle",
    "regionname": "Central Region Trichirapalli",
    "divisionname": "Mayiladuthurai Division",
    "officename": "Memathur B.O",
    "pincode": "609309",
    "officetype": "BO",
    "delivery": "Delivery",
    "district": "MAYILADUTHURAI",
    "statename": "TAMIL NADU",
    "latitude": "11.0600000",
    "longitude": "79.7400000"
  },
  {
    "circlename": "Tamilnadu Circle",
    "regionname": "Central Region Trichirapalli",
    "divisionname": "Mayiladuthurai Division",
    "officename": "Vallalagaram B.O",
    "pincode": "609118",
    "officetype": "BO",
    "delivery": "Delivery",
    "district": "MAYILADUTHURAI",
    "statename": "TAMIL NADU",
    "latitude": "11.1100000",
    "longitude": "79.6600000"
  },
  {
    "circlename": "Tamilnadu Circle",
    "regionname": "Central Region Trichirapalli",
    "divisionname": "Mayiladuthurai Division",
    "officename": "Kodangudi B.O",
    "pincode": "609314",
    "officetype": "BO",
    "delivery": "Delivery",
    "district": "MAYILADUTHURAI",
    "statename": "TAMIL NADU",
    "latitude": "11.0700000",
    "longitude": "79.6800000"
  },
  {
    "circlename": "Tamilnadu Circle",
    "regionname": "Central Region Trichirapalli",
    "divisionname": "Mayiladuthurai Division",
    "officename": "Alakkudi B.O",
    "pincode": "609101",
    "officetype": "BO",
    "delivery": "Delivery",
    "district": "MAYILADUTHURAI",
    "statename": "TAMIL NADU",
    "latitude": "11.3600000",
    "longitude": "79.7700000"
  },
  {
    "circlename": "Tamilnadu Circle",
    "regionname": "Central Region Trichirapalli",
    "divisionname": "Mayiladuthurai Division",
    "officename": "Kodakkaramoolai B.O",
    "pincode": "609101",
    "officetype": "BO",
    "delivery": "Delivery",
    "district": "MAYILADUTHURAI",
    "statename": "TAMIL NADU",
    "latitude": "11.3100000",
    "longitude": "79.7800000"
  },
  {
    "circlename": "Tamilnadu Circle",
    "regionname": "Central Region Trichirapalli",
    "divisionname": "Mayiladuthurai Division",
    "officename": "Mahendrapalli B.O",
    "pincode": "609101",
    "officetype": "BO",
    "delivery": "Delivery",
    "district": "MAYILADUTHURAI",
    "statename": "TAMIL NADU",
    "latitude": "11.3600000",
    "longitude": "79.7900000"
  },
  {
    "circlename": "Tamilnadu Circle",
    "regionname": "Central Region Trichirapalli",
    "divisionname": "Mayiladuthurai Division",
    "officename": "Pudupattinam B.O",
    "pincode": "609101",
    "officetype": "BO",
    "delivery": "Delivery",
    "district": "MAYILADUTHURAI",
    "statename": "TAMIL NADU",
    "latitude": "11.3300000",
    "longitude": "79.8100000"
  },
  {
    "circlename": "Tamilnadu Circle",
    "regionname": "Central Region Trichirapalli",
    "divisionname": "Mayiladuthurai Division",
    "officename": "Puliyanthurai B.O",
    "pincode": "609101",
    "officetype": "BO",
    "delivery": "Delivery",
    "district": "MAYILADUTHURAI",
    "statename": "TAMIL NADU",
    "latitude": "11.3400000",
    "longitude": "79.8000000"
  },
  {
    "circlename": "Tamilnadu Circle",
    "regionname": "Central Region Trichirapalli",
    "divisionname": "Mayiladuthurai Division",
    "officename": "Thandavankulam B.O",
    "pincode": "609101",
    "officetype": "BO",
    "delivery": "Delivery",
    "district": "MAYILADUTHURAI",
    "statename": "TAMIL NADU",
    "latitude": "11.3100000",
    "longitude": "79.8100000"
  },
  {
    "circlename": "Tamilnadu Circle",
    "regionname": "Central Region Trichirapalli",
    "divisionname": "Mayiladuthurai Division",
    "officename": "Hanumanthapuram B.O",
    "pincode": "609102",
    "officetype": "BO",
    "delivery": "Delivery",
    "district": "MAYILADUTHURAI",
    "statename": "TAMIL NADU",
    "latitude": "11.3300000",
    "longitude": "79.7400000"
  },
  {
    "circlename": "Tamilnadu Circle",
    "regionname": "Central Region Trichirapalli",
    "divisionname": "Mayiladuthurai Division",
    "officename": "Pachaiperumal Nallur B.O",
    "pincode": "609104",
    "officetype": "BO",
    "delivery": "Delivery",
    "district": "MAYILADUTHURAI",
    "statename": "TAMIL NADU",
    "latitude": "11.2800000",
    "longitude": "79.7600000"
  },
  {
    "circlename": "Tamilnadu Circle",
    "regionname": "Central Region Trichirapalli",
    "divisionname": "Mayiladuthurai Division",
    "officename": "Neidavasal B.O",
    "pincode": "609105",
    "officetype": "BO",
    "delivery": "Delivery",
    "district": "MAYILADUTHURAI",
    "statename": "TAMIL NADU",
    "latitude": "11.1700000",
    "longitude": "79.8400000"
  },
  {
    "circlename": "Tamilnadu Circle",
    "regionname": "Central Region Trichirapalli",
    "divisionname": "Mayiladuthurai Division",
    "officename": "Nangur B.O",
    "pincode": "609106",
    "officetype": "BO",
    "delivery": "Delivery",
    "district": "MAYILADUTHURAI",
    "statename": "TAMIL NADU",
    "latitude": "11.1800000",
    "longitude": "79.7800000"
  },
  {
    "circlename": "Tamilnadu Circle",
    "regionname": "Central Region Trichirapalli",
    "divisionname": "Mayiladuthurai Division",
    "officename": "Neipathur B.O",
    "pincode": "609106",
    "officetype": "BO",
    "delivery": "Delivery",
    "district": "MAYILADUTHURAI",
    "statename": "TAMIL NADU",
    "latitude": "11.2100000",
    "longitude": "79.8000000"
  },
  {
    "circlename": "Tamilnadu Circle",
    "regionname": "Central Region Trichirapalli",
    "divisionname": "Mayiladuthurai Division",
    "officename": "Puduthurai B.O",
    "pincode": "609106",
    "officetype": "BO",
    "delivery": "Delivery",
    "district": "MAYILADUTHURAI",
    "statename": "TAMIL NADU",
    "latitude": "11.2200000",
    "longitude": "79.7800000"
  },
  {
    "circlename": "Tamilnadu Circle",
    "regionname": "Central Region Trichirapalli",
    "divisionname": "Mayiladuthurai Division",
    "officename": "Melaperumpallam B.O",
    "pincode": "609107",
    "officetype": "BO",
    "delivery": "Delivery",
    "district": "MAYILADUTHURAI",
    "statename": "TAMIL NADU",
    "latitude": "11.1400000",
    "longitude": "79.8100000"
  },
  {
    "circlename": "Tamilnadu Circle",
    "regionname": "Central Region Trichirapalli",
    "divisionname": "Mayiladuthurai Division",
    "officename": "Natarajapillai Chavadi B.O",
    "pincode": "609107",
    "officetype": "BO",
    "delivery": "Delivery",
    "district": "MAYILADUTHURAI",
    "statename": "TAMIL NADU",
    "latitude": "11.1500000",
    "longitude": "79.7700000"
  },
  {
    "circlename": "Tamilnadu Circle",
    "regionname": "Central Region Trichirapalli",
    "divisionname": "Mayiladuthurai Division",
    "officename": "Perambur (AKC) B.O",
    "pincode": "609108",
    "officetype": "BO",
    "delivery": "Delivery",
    "district": "MAYILADUTHURAI",
    "statename": "TAMIL NADU",
    "latitude": "11.2800000",
    "longitude": "79.6700000"
  },
  {
    "circlename": "Tamilnadu Circle",
    "regionname": "Central Region Trichirapalli",
    "divisionname": "Mayiladuthurai Division",
    "officename": "Sodiyakudi B.O",
    "pincode": "609108",
    "officetype": "BO",
    "delivery": "Delivery",
    "district": "MAYILADUTHURAI",
    "statename": "TAMIL NADU",
    "latitude": "11.3000000",
    "longitude": "79.7000000"
  },
  {
    "circlename": "Tamilnadu Circle",
    "regionname": "Central Region Trichirapalli",
    "divisionname": "Mayiladuthurai Division",
    "officename": "Tirumailadi B.O",
    "pincode": "609108",
    "officetype": "BO",
    "delivery": "Delivery",
    "district": "MAYILADUTHURAI",
    "statename": "TAMIL NADU",
    "latitude": "11.3000000",
    "longitude": "79.7300000"
  },
  {
    "circlename": "Tamilnadu Circle",
    "regionname": "Central Region Trichirapalli",
    "divisionname": "Mayiladuthurai Division",
    "officename": "Arappakkam B.O",
    "pincode": "609111",
    "officetype": "BO",
    "delivery": "Delivery",
    "district": "MAYILADUTHURAI",
    "statename": "TAMIL NADU",
    "latitude": "11.2700000",
    "longitude": "79.7500000"
  },
  {
    "circlename": "Tamilnadu Circle",
    "regionname": "Central Region Trichirapalli",
    "divisionname": "Mayiladuthurai Division",
    "officename": "Pulavanur B.O",
    "pincode": "609205",
    "officetype": "BO",
    "delivery": "Delivery",
    "district": "MAYILADUTHURAI",
    "statename": "TAMIL NADU",
    "latitude": "11.2300000",
    "longitude": "79.6300000"
  },
  {
    "circlename": "Tamilnadu Circle",
    "regionname": "Central Region Trichirapalli",
    "divisionname": "Mayiladuthurai Division",
    "officename": "Siddamalli B.O",
    "pincode": "609205",
    "officetype": "BO",
    "delivery": "Delivery",
    "district": "MAYILADUTHURAI",
    "statename": "TAMIL NADU",
    "latitude": "11.2500000",
    "longitude": "79.6200000"
  },
  {
    "circlename": "Tamilnadu Circle",
    "regionname": "Central Region Trichirapalli",
    "divisionname": "Mayiladuthurai Division",
    "officename": "Kondathur B.O",
    "pincode": "609117",
    "officetype": "BO",
    "delivery": "Delivery",
    "district": "MAYILADUTHURAI",
    "statename": "TAMIL NADU",
    "latitude": "11.1700000",
    "longitude": "79.7300000"
  },
  {
    "circlename": "Tamilnadu Circle",
    "regionname": "Central Region Trichirapalli",
    "divisionname": "Mayiladuthurai Division",
    "officename": "Vettangudi B.O",
    "pincode": "609115",
    "officetype": "BO",
    "delivery": "Delivery",
    "district": "MAYILADUTHURAI",
    "statename": "TAMIL NADU",
    "latitude": "11.2700000",
    "longitude": "79.8000000"
  },
  {
    "circlename": "Tamilnadu Circle",
    "regionname": "Central Region Trichirapalli",
    "divisionname": "Mayiladuthurai Division",
    "officename": "Sirkali H.O",
    "pincode": "609110",
    "officetype": "HO",
    "delivery": "Delivery",
    "district": "MAYILADUTHURAI",
    "statename": "TAMIL NADU",
    "latitude": "11.2379167",
    "longitude": "79.7346667"
  },
  {
    "circlename": "Tamilnadu Circle",
    "regionname": "Central Region Trichirapalli",
    "divisionname": "Kumbakonam Division",
    "officename": "Konerirajapuram S.O",
    "pincode": "612201",
    "officetype": "PO",
    "delivery": "Delivery",
    "district": "MAYILADUTHURAI",
    "statename": "TAMIL NADU",
    "latitude": "10.9700000",
    "longitude": "79.5400000"
  },
  {
    "circlename": "Tamilnadu Circle",
    "regionname": "Central Region Trichirapalli",
    "divisionname": "Kumbakonam Division",
    "officename": "Kuttalam S.O",
    "pincode": "609801",
    "officetype": "PO",
    "delivery": "Delivery",
    "district": "MAYILADUTHURAI",
    "statename": "TAMIL NADU",
    "latitude": "11.0721667",
    "longitude": "79.5626667"
  },
  {
    "circlename": "Tamilnadu Circle",
    "regionname": "Central Region Trichirapalli",
    "divisionname": "Kumbakonam Division",
    "officename": "Tiruvavaduthurai S.O",
    "pincode": "609803",
    "officetype": "PO",
    "delivery": "Delivery",
    "district": "MAYILADUTHURAI",
    "statename": "TAMIL NADU",
    "latitude": "11.0400000",
    "longitude": "79.5200000"
  },
  {
    "circlename": "Tamilnadu Circle",
    "regionname": "Central Region Trichirapalli",
    "divisionname": "Mayiladuthurai Division",
    "officename": "Kilaiyur S.O",
    "pincode": "609304",
    "officetype": "PO",
    "delivery": "Delivery",
    "district": "MAYILADUTHURAI",
    "statename": "TAMIL NADU",
    "latitude": "11.1224640",
    "longitude": "79.7442360"
  },
  {
    "circlename": "Tamilnadu Circle",
    "regionname": "Central Region Trichirapalli",
    "divisionname": "Mayiladuthurai Division",
    "officename": "Koranad S.O",
    "pincode": "609001",
    "officetype": "PO",
    "delivery": "Non Delivery",
    "district": "MAYILADUTHURAI",
    "statename": "TAMIL NADU",
    "latitude": "11.0967900",
    "longitude": "79.6428680"
  },
  {
    "circlename": "Tamilnadu Circle",
    "regionname": "Central Region Trichirapalli",
    "divisionname": "Mayiladuthurai Division",
    "officename": "Mayiladuthurai R.S S.O",
    "pincode": "609003",
    "officetype": "PO",
    "delivery": "Delivery",
    "district": "MAYILADUTHURAI",
    "statename": "TAMIL NADU",
    "latitude": "11.0942778",
    "longitude": "79.6321111"
  },
  {
    "circlename": "Tamilnadu Circle",
    "regionname": "Central Region Trichirapalli",
    "divisionname": "Mayiladuthurai Division",
    "officename": "Sankaranpandal S.O",
    "pincode": "609308",
    "officetype": "PO",
    "delivery": "Delivery",
    "district": "MAYILADUTHURAI",
    "statename": "TAMIL NADU",
    "latitude": "11.0200800",
    "longitude": "79.7641400"
  },
  {
    "circlename": "Tamilnadu Circle",
    "regionname": "Central Region Trichirapalli",
    "divisionname": "Mayiladuthurai Division",
    "officename": "Kaveripattinam S.O (Nagapattinam)",
    "pincode": "609105",
    "officetype": "PO",
    "delivery": "Delivery",
    "district": "MAYILADUTHURAI",
    "statename": "TAMIL NADU",
    "latitude": "10.7603056",
    "longitude": "79.8465278"
  },
  {
    "circlename": "Tamilnadu Circle",
    "regionname": "Central Region Trichirapalli",
    "divisionname": "Mayiladuthurai Division",
    "officename": "Melaiyur TVG S.O",
    "pincode": "609107",
    "officetype": "PO",
    "delivery": "Delivery",
    "district": "MAYILADUTHURAI",
    "statename": "TAMIL NADU",
    "latitude": "10.7603056",
    "longitude": "79.8465278"
  },
  {
    "circlename": "Tamilnadu Circle",
    "regionname": "Central Region Trichirapalli",
    "divisionname": "Kumbakonam Division",
    "officename": "Kozhaiyur B.O",
    "pincode": "609805",
    "officetype": "BO",
    "delivery": "Delivery",
    "district": "MAYILADUTHURAI",
    "statename": "TAMIL NADU",
    "latitude": "11.0300000",
    "longitude": "79.6100000"
  },
  {
    "circlename": "Tamilnadu Circle",
    "regionname": "Central Region Trichirapalli",
    "divisionname": "Kumbakonam Division",
    "officename": "Madirimangalam B.O",
    "pincode": "609801",
    "officetype": "BO",
    "delivery": "Non Delivery",
    "district": "MAYILADUTHURAI",
    "statename": "TAMIL NADU",
    "latitude": "11.0600000",
    "longitude": "79.5400000"
  },
  {
    "circlename": "Tamilnadu Circle",
    "regionname": "Central Region Trichirapalli",
    "divisionname": "Kumbakonam Division",
    "officename": "Palayagudalur B.O",
    "pincode": "609801",
    "officetype": "BO",
    "delivery": "Delivery",
    "district": "MAYILADUTHURAI",
    "statename": "TAMIL NADU",
    "latitude": "11.0300000",
    "longitude": "79.5600000"
  },
  {
    "circlename": "Tamilnadu Circle",
    "regionname": "Central Region Trichirapalli",
    "divisionname": "Kumbakonam Division",
    "officename": "Tirumananjeri B.O",
    "pincode": "609801",
    "officetype": "BO",
    "delivery": "Delivery",
    "district": "MAYILADUTHURAI",
    "statename": "TAMIL NADU",
    "latitude": "11.1100000",
    "longitude": "79.5700000"
  },
  {
    "circlename": "Tamilnadu Circle",
    "regionname": "Central Region Trichirapalli",
    "divisionname": "Kumbakonam Division",
    "officename": "Villiyanallur B.O",
    "pincode": "609801",
    "officetype": "BO",
    "delivery": "Delivery",
    "district": "MAYILADUTHURAI",
    "statename": "TAMIL NADU",
    "latitude": "11.0900000",
    "longitude": "79.5600000"
  },
  {
    "circlename": "Tamilnadu Circle",
    "regionname": "Central Region Trichirapalli",
    "divisionname": "Kumbakonam Division",
    "officename": "Athur B.O",
    "pincode": "609204",
    "officetype": "BO",
    "delivery": "Delivery",
    "district": "MAYILADUTHURAI",
    "statename": "TAMIL NADU",
    "latitude": "11.1600000",
    "longitude": "793.5300000"
  },
  {
    "circlename": "Tamilnadu Circle",
    "regionname": "Central Region Trichirapalli",
    "divisionname": "Mayiladuthurai Division",
    "officename": "Keelamaruthandanallur B.O",
    "pincode": "609103",
    "officetype": "BO",
    "delivery": "Delivery",
    "district": "MAYILADUTHURAI",
    "statename": "TAMIL NADU",
    "latitude": "11.1600000",
    "longitude": "79.6600000"
  },
  {
    "circlename": "Tamilnadu Circle",
    "regionname": "Central Region Trichirapalli",
    "divisionname": "Mayiladuthurai Division",
    "officename": "Muthur B.O",
    "pincode": "609302",
    "officetype": "BO",
    "delivery": "Delivery",
    "district": "MAYILADUTHURAI",
    "statename": "TAMIL NADU",
    "latitude": "11.0500000",
    "longitude": "79.7100000"
  },
  {
    "circlename": "Tamilnadu Circle",
    "regionname": "Central Region Trichirapalli",
    "divisionname": "Mayiladuthurai Division",
    "officename": "Karuvazhakarai B.O",
    "pincode": "609304",
    "officetype": "BO",
    "delivery": "Delivery",
    "district": "MAYILADUTHURAI",
    "statename": "TAMIL NADU",
    "latitude": "11.1200000",
    "longitude": "79.7200000"
  },
  {
    "circlename": "Tamilnadu Circle",
    "regionname": "Central Region Trichirapalli",
    "divisionname": "Mayiladuthurai Division",
    "officename": "Kiloy B.O",
    "pincode": "609202",
    "officetype": "BO",
    "delivery": "Delivery",
    "district": "MAYILADUTHURAI",
    "statename": "TAMIL NADU",
    "latitude": "11.1900000",
    "longitude": "79.6100000"
  },
  {
    "circlename": "Tamilnadu Circle",
    "regionname": "Central Region Trichirapalli",
    "divisionname": "Mayiladuthurai Division",
    "officename": "Dharmapuram B.O",
    "pincode": "609001",
    "officetype": "BO",
    "delivery": "Non Delivery",
    "district": "MAYILADUTHURAI",
    "statename": "TAMIL NADU",
    "latitude": "11.1100000",
    "longitude": "79.6700000"
  },
  {
    "circlename": "Tamilnadu Circle",
    "regionname": "Central Region Trichirapalli",
    "divisionname": "Mayiladuthurai Division",
    "officename": "Nallathukudi B.O",
    "pincode": "609001",
    "officetype": "BO",
    "delivery": "Non Delivery",
    "district": "MAYILADUTHURAI",
    "statename": "TAMIL NADU",
    "latitude": "11.0900000",
    "longitude": "79.6600000"
  },
  {
    "circlename": "Tamilnadu Circle",
    "regionname": "Central Region Trichirapalli",
    "divisionname": "Mayiladuthurai Division",
    "officename": "Tiruvilandur B.O",
    "pincode": "609001",
    "officetype": "BO",
    "delivery": "Non Delivery",
    "district": "MAYILADUTHURAI",
    "statename": "TAMIL NADU",
    "latitude": "11.1100000",
    "longitude": "79.6500000"
  },
  {
    "circlename": "Tamilnadu Circle",
    "regionname": "Central Region Trichirapalli",
    "divisionname": "Mayiladuthurai Division",
    "officename": "Arulmozhithevan B.O",
    "pincode": "609203",
    "officetype": "BO",
    "delivery": "Delivery",
    "district": "MAYILADUTHURAI",
    "statename": "TAMIL NADU",
    "latitude": "11.1200000",
    "longitude": "79.6200000"
  },
  {
    "circlename": "Tamilnadu Circle",
    "regionname": "Central Region Trichirapalli",
    "divisionname": "Mayiladuthurai Division",
    "officename": "Aruvapadi B.O",
    "pincode": "609203",
    "officetype": "BO",
    "delivery": "Delivery",
    "district": "MAYILADUTHURAI",
    "statename": "TAMIL NADU",
    "latitude": "11.1500000",
    "longitude": "79.6500000"
  },
  {
    "circlename": "Tamilnadu Circle",
    "regionname": "Central Region Trichirapalli",
    "divisionname": "Mayiladuthurai Division",
    "officename": "Kalukkanimuttam B.O",
    "pincode": "609203",
    "officetype": "BO",
    "delivery": "Delivery",
    "district": "MAYILADUTHURAI",
    "statename": "TAMIL NADU",
    "latitude": "11.1200000",
    "longitude": "79.6500000"
  },
  {
    "circlename": "Tamilnadu Circle",
    "regionname": "Central Region Trichirapalli",
    "divisionname": "Mayiladuthurai Division",
    "officename": "Pandur B.O",
    "pincode": "609203",
    "officetype": "BO",
    "delivery": "Delivery",
    "district": "MAYILADUTHURAI",
    "statename": "TAMIL NADU",
    "latitude": "11.1300000",
    "longitude": "79.6100000"
  },
  {
    "circlename": "Tamilnadu Circle",
    "regionname": "Central Region Trichirapalli",
    "divisionname": "Mayiladuthurai Division",
    "officename": "Manickapangu B.O",
    "pincode": "609313",
    "officetype": "BO",
    "delivery": "Delivery",
    "district": "MAYILADUTHURAI",
    "statename": "TAMIL NADU",
    "latitude": "11.0700000",
    "longitude": "79.8500000"
  },
  {
    "circlename": "Tamilnadu Circle",
    "regionname": "Central Region Trichirapalli",
    "divisionname": "Mayiladuthurai Division",
    "officename": "Kothandapuram B.O",
    "pincode": "609101",
    "officetype": "BO",
    "delivery": "Delivery",
    "district": "MAYILADUTHURAI",
    "statename": "TAMIL NADU",
    "latitude": "11.3500000",
    "longitude": "79.7800000"
  },
  {
    "circlename": "Tamilnadu Circle",
    "regionname": "Central Region Trichirapalli",
    "divisionname": "Mayiladuthurai Division",
    "officename": "Palayapalayam B.O",
    "pincode": "609101",
    "officetype": "BO",
    "delivery": "Delivery",
    "district": "MAYILADUTHURAI",
    "statename": "TAMIL NADU",
    "latitude": "11.3000000",
    "longitude": "79.7900000"
  },
  {
    "circlename": "Tamilnadu Circle",
    "regionname": "Central Region Trichirapalli",
    "divisionname": "Mayiladuthurai Division",
    "officename": "Umayalpathi B.O",
    "pincode": "609104",
    "officetype": "BO",
    "delivery": "Delivery",
    "district": "MAYILADUTHURAI",
    "statename": "TAMIL NADU",
    "latitude": "11.2700000",
    "longitude": "79.7700000"
  },
  {
    "circlename": "Tamilnadu Circle",
    "regionname": "Central Region Trichirapalli",
    "divisionname": "Mayiladuthurai Division",
    "officename": "Vanagiri B.O",
    "pincode": "609105",
    "officetype": "BO",
    "delivery": "Delivery",
    "district": "MAYILADUTHURAI",
    "statename": "TAMIL NADU",
    "latitude": "11.1300000",
    "longitude": "79.8400000"
  },
  {
    "circlename": "Tamilnadu Circle",
    "regionname": "Central Region Trichirapalli",
    "divisionname": "Mayiladuthurai Division",
    "officename": "Talachangadu B.O",
    "pincode": "609107",
    "officetype": "BO",
    "delivery": "Delivery",
    "district": "MAYILADUTHURAI",
    "statename": "TAMIL NADU",
    "latitude": "11.1400000",
    "longitude": "79.8100000"
  },
  {
    "circlename": "Tamilnadu Circle",
    "regionname": "Central Region Trichirapalli",
    "divisionname": "Mayiladuthurai Division",
    "officename": "Kunnam B.O",
    "pincode": "609108",
    "officetype": "BO",
    "delivery": "Delivery",
    "district": "MAYILADUTHURAI",
    "statename": "TAMIL NADU",
    "latitude": "11.2800000",
    "longitude": "79.6800000"
  },
  {
    "circlename": "Tamilnadu Circle",
    "regionname": "Central Region Trichirapalli",
    "divisionname": "Mayiladuthurai Division",
    "officename": "Kovilpathu B.O",
    "pincode": "609111",
    "officetype": "BO",
    "delivery": "Delivery",
    "district": "MAYILADUTHURAI",
    "statename": "TAMIL NADU",
    "latitude": "11.2400000",
    "longitude": "79.7200000"
  },
  {
    "circlename": "Tamilnadu Circle",
    "regionname": "Central Region Trichirapalli",
    "divisionname": "Mayiladuthurai Division",
    "officename": "Sendamangalam B.O",
    "pincode": "609310",
    "officetype": "BO",
    "delivery": "Delivery",
    "district": "MAYILADUTHURAI",
    "statename": "TAMIL NADU",
    "latitude": "11.0400000",
    "longitude": "79.7800000"
  },
  {
    "circlename": "Tamilnadu Circle",
    "regionname": "Central Region Trichirapalli",
    "divisionname": "Mayiladuthurai Division",
    "officename": "Manigramam B.O",
    "pincode": "609114",
    "officetype": "BO",
    "delivery": "Delivery",
    "district": "MAYILADUTHURAI",
    "statename": "TAMIL NADU",
    "latitude": "11.1600000",
    "longitude": "79.8100000"
  },
  {
    "circlename": "Tamilnadu Circle",
    "regionname": "Central Region Trichirapalli",
    "divisionname": "Mayiladuthurai Division",
    "officename": "Punganur B.O",
    "pincode": "609117",
    "officetype": "BO",
    "delivery": "Delivery",
    "district": "MAYILADUTHURAI",
    "statename": "TAMIL NADU",
    "latitude": "11.2100000",
    "longitude": "79.7000000"
  },
  {
    "circlename": "Tamilnadu Circle",
    "regionname": "Central Region Trichirapalli",
    "divisionname": "Kumbakonam Division",
    "officename": "Kali S.O",
    "pincode": "609811",
    "officetype": "PO",
    "delivery": "Delivery",
    "district": "MAYILADUTHURAI",
    "statename": "TAMIL NADU",
    "latitude": "10.7603056",
    "longitude": "79.8465278"
  },
  {
    "circlename": "Tamilnadu Circle",
    "regionname": "Central Region Trichirapalli",
    "divisionname": "Mayiladuthurai Division",
    "officename": "Akkur S.O (Nagapattinam)",
    "pincode": "609301",
    "officetype": "PO",
    "delivery": "Delivery",
    "district": "MAYILADUTHURAI",
    "statename": "TAMIL NADU",
    "latitude": "11.6655518",
    "longitude": "79.4715058620"
  },
  {
    "circlename": "Tamilnadu Circle",
    "regionname": "Central Region Trichirapalli",
    "divisionname": "Mayiladuthurai Division",
    "officename": "Manganallur Bazaar S.O",
    "pincode": "609404",
    "officetype": "PO",
    "delivery": "Delivery",
    "district": "MAYILADUTHURAI",
    "statename": "TAMIL NADU",
    "latitude": "11.0271667",
    "longitude": "79.6521111"
  },
  {
    "circlename": "Tamilnadu Circle",
    "regionname": "Central Region Trichirapalli",
    "divisionname": "Mayiladuthurai Division",
    "officename": "Mayiladuthurai Bazaar S.O",
    "pincode": "609001",
    "officetype": "PO",
    "delivery": "Non Delivery",
    "district": "MAYILADUTHURAI",
    "statename": "TAMIL NADU",
    "latitude": "11.0269510",
    "longitude": "79.6531840"
  },
  {
    "circlename": "Tamilnadu Circle",
    "regionname": "Central Region Trichirapalli",
    "divisionname": "Mayiladuthurai Division",
    "officename": "Mayiladuthurai South S.O",
    "pincode": "609001",
    "officetype": "PO",
    "delivery": "Non Delivery",
    "district": "MAYILADUTHURAI",
    "statename": "TAMIL NADU",
    "latitude": "11.0938333",
    "longitude": "79.6550000"
  },
  {
    "circlename": "Tamilnadu Circle",
    "regionname": "Central Region Trichirapalli",
    "divisionname": "Mayiladuthurai Division",
    "officename": "Nidur S.O",
    "pincode": "609203",
    "officetype": "PO",
    "delivery": "Delivery",
    "district": "MAYILADUTHURAI",
    "statename": "TAMIL NADU",
    "latitude": "11.1355000",
    "longitude": "79.6437500"
  },
  {
    "circlename": "Tamilnadu Circle",
    "regionname": "Central Region Trichirapalli",
    "divisionname": "Mayiladuthurai Division",
    "officename": "Porayar S.O",
    "pincode": "609307",
    "officetype": "PO",
    "delivery": "Delivery",
    "district": "MAYILADUTHURAI",
    "statename": "TAMIL NADU",
    "latitude": "11.0196944",
    "longitude": "79.8334722"
  },
  {
    "circlename": "Tamilnadu Circle",
    "regionname": "Central Region Trichirapalli",
    "divisionname": "Mayiladuthurai Division",
    "officename": "Vadakarai S.O (Nagapattinam)",
    "pincode": "609314",
    "officetype": "PO",
    "delivery": "Delivery",
    "district": "MAYILADUTHURAI",
    "statename": "TAMIL NADU",
    "latitude": "10.7603056",
    "longitude": "79.8465278"
  },
  {
    "circlename": "Tamilnadu Circle",
    "regionname": "Central Region Trichirapalli",
    "divisionname": "Mayiladuthurai Division",
    "officename": "Anaikaranchatram S.O",
    "pincode": "609102",
    "officetype": "PO",
    "delivery": "Delivery",
    "district": "MAYILADUTHURAI",
    "statename": "TAMIL NADU",
    "latitude": "11.6000000",
    "longitude": "79.3900000"
  },
  {
    "circlename": "Tamilnadu Circle",
    "regionname": "Central Region Trichirapalli",
    "divisionname": "Mayiladuthurai Division",
    "officename": "Sirkali Thenpathi S.O",
    "pincode": "609111",
    "officetype": "PO",
    "delivery": "Delivery",
    "district": "MAYILADUTHURAI",
    "statename": "TAMIL NADU",
    "latitude": "10.7603056",
    "longitude": "79.8465278"
  },
  {
    "circlename": "Tamilnadu Circle",
    "regionname": "Central Region Trichirapalli",
    "divisionname": "Mayiladuthurai Division",
    "officename": "Tillaiyadi S.O",
    "pincode": "609310",
    "officetype": "PO",
    "delivery": "Delivery",
    "district": "MAYILADUTHURAI",
    "statename": "TAMIL NADU",
    "latitude": "10.7603056",
    "longitude": "79.8465278"
  },
  {
    "circlename": "Tamilnadu Circle",
    "regionname": "Central Region Trichirapalli",
    "divisionname": "Mayiladuthurai Division",
    "officename": "Tirucadaiyur S.O",
    "pincode": "609311",
    "officetype": "PO",
    "delivery": "Delivery",
    "district": "MAYILADUTHURAI",
    "statename": "TAMIL NADU",
    "latitude": "10.7603056",
    "longitude": "79.8465278"
  },
  {
    "circlename": "Tamilnadu Circle",
    "regionname": "Central Region Trichirapalli",
    "divisionname": "Mayiladuthurai Division",
    "officename": "Tirumullaivasal S.O",
    "pincode": "609113",
    "officetype": "PO",
    "delivery": "Delivery",
    "district": "MAYILADUTHURAI",
    "statename": "TAMIL NADU",
    "latitude": "11.1400000",
    "longitude": "79.5000000"
  },
  {
    "circlename": "Tamilnadu Circle",
    "regionname": "Central Region Trichirapalli",
    "divisionname": "Mayiladuthurai Division",
    "officename": "Valluvakudi S.O",
    "pincode": "609116",
    "officetype": "PO",
    "delivery": "Delivery",
    "district": "MAYILADUTHURAI",
    "statename": "TAMIL NADU",
    "latitude": "10.5700000",
    "longitude": "79.3500000"
  }
]