[
  {
    "circlename": "Tamilnadu Circle",
    "regionname": "Western Region Coimbatore",
    "divisionname": "Namakkal Division",
    "officename": "Kavakkarapatti B.O",
    "pincode": "637013",
    "officetype": "BO",
    "delivery": "Delivery",
    "district": "NAMAKKAL",
    "statename": "TAMIL NADU",
    "latitude": "11.1365740",
    "longitude": "78.2956960"
  },
  {
    "circlename": "Tamilnadu Circle",
    "regionname": "Western Region Coimbatore",
    "divisionname": "Namakkal Division",
    "officename": "Pudukottai B.O",
    "pincode": "637013",
    "officetype": "BO",
    "delivery": "Delivery",
    "district": "NAMAKKAL",
    "statename": "TAMIL NADU",
    "latitude": "11.1832650",
    "longitude": "78.2490040"
  },
  {
    "circlename": "Tamilnadu Circle",
    "regionname": "Western Region Coimbatore",
    "divisionname": "Namakkal Division",
    "officename": "Kosavampatti B.O",
    "pincode": "637002",
    "officetype": "BO",
    "delivery": "Non Delivery",
    "district": "NAMAKKAL",
    "statename": "TAMIL NADU",
    "latitude": "11.1805190",
    "longitude": "78.1803390"
  },
  {
    "circlename": "Tamilnadu Circle",
    "regionname": "Western Region Coimbatore",
    "divisionname": "Namakkal Division",
    "officename": "Sanyasikaradu B.O",
    "pincode": "637002",
    "officetype": "BO",
    "delivery": "Delivery",
    "district": "NAMAKKAL",
    "statename": "TAMIL NADU",
    "latitude": "11.1848540",
    "longitude": "78.1693080"
  },
  {
    "circlename": "Tamilnadu Circle",
    "regionname": "Western Region Coimbatore",
    "divisionname": "Namakkal Division",
    "officename": "Valavanthicombai B.O",
    "pincode": "637404",
    "officetype": "BO",
    "delivery": "Delivery",
    "district": "NAMAKKAL",
    "statename": "TAMIL NADU",
    "latitude": "11.3149350",
    "longitude": "78.3030510"
  },
  {
    "circlename": "Tamilnadu Circle",
    "regionname": "Western Region Coimbatore",
    "divisionname": "Namakkal Division",
    "officename": "Bodinaickenpatti B.O",
    "pincode": "637405",
    "officetype": "BO",
    "delivery": "Delivery",
    "district": "NAMAKKAL",
    "statename": "TAMIL NADU",
    "latitude": "11.4275450",
    "longitude": "78.2151600"
  },
  {
    "circlename": "Tamilnadu Circle",
    "regionname": "Western Region Coimbatore",
    "divisionname": "Namakkal Division",
    "officename": "Visanam B.O",
    "pincode": "637405",
    "officetype": "BO",
    "delivery": "Delivery",
    "district": "NAMAKKAL",
    "statename": "TAMIL NADU",
    "latitude": "11.2325380",
    "longitude": "78.1327630"
  },
  {
    "circlename": "Tamilnadu Circle",
    "regionname": "Western Region Coimbatore",
    "divisionname": "Namakkal Division",
    "officename": "Bodupatti B.O",
    "pincode": "637003",
    "officetype": "BO",
    "delivery": "Delivery",
    "district": "NAMAKKAL",
    "statename": "TAMIL NADU",
    "latitude": "11.2627500",
    "longitude": "78.0970570"
  },
  {
    "circlename": "Tamilnadu Circle",
    "regionname": "Western Region Coimbatore",
    "divisionname": "Namakkal Division",
    "officename": "Pachal B.O",
    "pincode": "637018",
    "officetype": "BO",
    "delivery": "Delivery",
    "district": "NAMAKKAL",
    "statename": "TAMIL NADU",
    "latitude": "11.4138120",
    "longitude": "78.1602290"
  },
  {
    "circlename": "Tamilnadu Circle",
    "regionname": "Western Region Coimbatore",
    "divisionname": "Namakkal Division",
    "officename": "Kolathupalayam B.O",
    "pincode": "637019",
    "officetype": "BO",
    "delivery": "Delivery",
    "district": "NAMAKKAL",
    "statename": "TAMIL NADU",
    "latitude": "11.3424010",
    "longitude": "78.1217760"
  },
  {
    "circlename": "Tamilnadu Circle",
    "regionname": "Western Region Coimbatore",
    "divisionname": "Namakkal Division",
    "officename": "S.Uduppam B.O",
    "pincode": "637019",
    "officetype": "BO",
    "delivery": "Delivery",
    "district": "NAMAKKAL",
    "statename": "TAMIL NADU",
    "latitude": "11.3341610",
    "longitude": "78.1355090"
  },
  {
    "circlename": "Tamilnadu Circle",
    "regionname": "Western Region Coimbatore",
    "divisionname": "Namakkal Division",
    "officename": "Alathurnadu B.O",
    "pincode": "637411",
    "officetype": "BO",
    "delivery": "Delivery",
    "district": "NAMAKKAL",
    "statename": "TAMIL NADU",
    "latitude": "11.3496666",
    "longitude": "78.4118083"
  },
  {
    "circlename": "Tamilnadu Circle",
    "regionname": "Western Region Coimbatore",
    "divisionname": "Namakkal Division",
    "officename": "Melkalingampatti B.O",
    "pincode": "637411",
    "officetype": "BO",
    "delivery": "Delivery",
    "district": "NAMAKKAL",
    "statename": "TAMIL NADU",
    "latitude": "11.2804671",
    "longitude": "78.3759978"
  },
  {
    "circlename": "Tamilnadu Circle",
    "regionname": "Western Region Coimbatore",
    "divisionname": "Namakkal Division",
    "officename": "Alampatti B.O",
    "pincode": "637020",
    "officetype": "BO",
    "delivery": "Delivery",
    "district": "NAMAKKAL",
    "statename": "TAMIL NADU",
    "latitude": "11.0858520",
    "longitude": "78.2338520"
  },
  {
    "circlename": "Tamilnadu Circle",
    "regionname": "Western Region Coimbatore",
    "divisionname": "Namakkal Division",
    "officename": "Bommanpatti B.O",
    "pincode": "637212",
    "officetype": "BO",
    "delivery": "Delivery",
    "district": "NAMAKKAL",
    "statename": "TAMIL NADU",
    "latitude": "11.2993230",
    "longitude": "78.1044580"
  },
  {
    "circlename": "Tamilnadu Circle",
    "regionname": "Western Region Coimbatore",
    "divisionname": "Namakkal Division",
    "officename": "Elanagar B.O",
    "pincode": "637212",
    "officetype": "BO",
    "delivery": "Delivery",
    "district": "NAMAKKAL",
    "statename": "TAMIL NADU",
    "latitude": "11.3138190",
    "longitude": "78.0498310"
  },
  {
    "circlename": "Tamilnadu Circle",
    "regionname": "Western Region Coimbatore",
    "divisionname": "Namakkal Division",
    "officename": "Manathi B.O",
    "pincode": "637212",
    "officetype": "BO",
    "delivery": "Delivery",
    "district": "NAMAKKAL",
    "statename": "TAMIL NADU",
    "latitude": "11.2987120",
    "longitude": "78.0360980"
  },
  {
    "circlename": "Tamilnadu Circle",
    "regionname": "Western Region Coimbatore",
    "divisionname": "Namakkal Division",
    "officename": "Mavureddippatti B.O",
    "pincode": "637212",
    "officetype": "BO",
    "delivery": "Delivery",
    "district": "NAMAKKAL",
    "statename": "TAMIL NADU",
    "latitude": "11.3399110",
    "longitude": "78.0470850"
  },
  {
    "circlename": "Tamilnadu Circle",
    "regionname": "Western Region Coimbatore",
    "divisionname": "Namakkal Division",
    "officename": "Maniyanur B.O",
    "pincode": "637201",
    "officetype": "BO",
    "delivery": "Delivery",
    "district": "NAMAKKAL",
    "statename": "TAMIL NADU",
    "latitude": "11.2894950",
    "longitude": "77.9491020"
  },
  {
    "circlename": "Tamilnadu Circle",
    "regionname": "Western Region Coimbatore",
    "divisionname": "Namakkal Division",
    "officename": "Uppupalayam B.O",
    "pincode": "637201",
    "officetype": "BO",
    "delivery": "Non Delivery",
    "district": "NAMAKKAL",
    "statename": "TAMIL NADU",
    "latitude": "11.3025410",
    "longitude": "77.9127100"
  },
  {
    "circlename": "Tamilnadu Circle",
    "regionname": "Western Region Coimbatore",
    "divisionname": "Namakkal Division",
    "officename": "Agaram B.O",
    "pincode": "637202",
    "officetype": "BO",
    "delivery": "Delivery",
    "district": "NAMAKKAL",
    "statename": "TAMIL NADU",
    "latitude": "11.3843030",
    "longitude": "78.0233620"
  },
  {
    "circlename": "Tamilnadu Circle",
    "regionname": "Western Region Coimbatore",
    "divisionname": "Namakkal Division",
    "officename": "Avanasipatti B.O",
    "pincode": "637202",
    "officetype": "BO",
    "delivery": "Delivery",
    "district": "NAMAKKAL",
    "statename": "TAMIL NADU",
    "latitude": "11.4186350",
    "longitude": "78.0051660"
  },
  {
    "circlename": "Tamilnadu Circle",
    "regionname": "Western Region Coimbatore",
    "divisionname": "Namakkal Division",
    "officename": "Kilapalayam B.O",
    "pincode": "637202",
    "officetype": "BO",
    "delivery": "Delivery",
    "district": "NAMAKKAL",
    "statename": "TAMIL NADU",
    "latitude": "11.3637040",
    "longitude": "78.0010460"
  },
  {
    "circlename": "Tamilnadu Circle",
    "regionname": "Western Region Coimbatore",
    "divisionname": "Namakkal Division",
    "officename": "Vadakaraiatur B.O",
    "pincode": "637213",
    "officetype": "BO",
    "delivery": "Delivery",
    "district": "NAMAKKAL",
    "statename": "TAMIL NADU",
    "latitude": "11.1404645",
    "longitude": "77.8906077"
  },
  {
    "circlename": "Tamilnadu Circle",
    "regionname": "Western Region Coimbatore",
    "divisionname": "Namakkal Division",
    "officename": "Kolangondai B.O",
    "pincode": "637503",
    "officetype": "BO",
    "delivery": "Delivery",
    "district": "NAMAKKAL",
    "statename": "TAMIL NADU",
    "latitude": "11.4641113",
    "longitude": "78.0310907"
  },
  {
    "circlename": "Tamilnadu Circle",
    "regionname": "Western Region Coimbatore",
    "divisionname": "Namakkal Division",
    "officename": "Kottapalayam B.O",
    "pincode": "637503",
    "officetype": "BO",
    "delivery": "Delivery",
    "district": "NAMAKKAL",
    "statename": "TAMIL NADU",
    "latitude": "11.4527781",
    "longitude": "78.0480353"
  },
  {
    "circlename": "Tamilnadu Circle",
    "regionname": "Western Region Coimbatore",
    "divisionname": "Namakkal Division",
    "officename": "Palamedu B.O",
    "pincode": "637503",
    "officetype": "BO",
    "delivery": "Delivery",
    "district": "NAMAKKAL",
    "statename": "TAMIL NADU",
    "latitude": "11.4678880",
    "longitude": "78.0564110"
  },
  {
    "circlename": "Tamilnadu Circle",
    "regionname": "Western Region Coimbatore",
    "divisionname": "Namakkal Division",
    "officename": "Vadugampalayam B.O",
    "pincode": "637503",
    "officetype": "BO",
    "delivery": "Delivery",
    "district": "NAMAKKAL",
    "statename": "TAMIL NADU",
    "latitude": "11.4872760",
    "longitude": "77.9931970"
  },
  {
    "circlename": "Tamilnadu Circle",
    "regionname": "Western Region Coimbatore",
    "divisionname": "Namakkal Division",
    "officename": "Melsathambur B.O",
    "pincode": "637206",
    "officetype": "BO",
    "delivery": "Non Delivery",
    "district": "NAMAKKAL",
    "statename": "TAMIL NADU",
    "latitude": "11.2238300",
    "longitude": "77.9948670"
  },
  {
    "circlename": "Tamilnadu Circle",
    "regionname": "Western Region Coimbatore",
    "divisionname": "Namakkal Division",
    "officename": "Sungakarampatti B.O",
    "pincode": "637206",
    "officetype": "BO",
    "delivery": "Delivery",
    "district": "NAMAKKAL",
    "statename": "TAMIL NADU",
    "latitude": "11.2235950",
    "longitude": "78.0611410"
  },
  {
    "circlename": "Tamilnadu Circle",
    "regionname": "Western Region Coimbatore",
    "divisionname": "Namakkal Division",
    "officename": "Kirambur B.O",
    "pincode": "637207",
    "officetype": "BO",
    "delivery": "Delivery",
    "district": "NAMAKKAL",
    "statename": "TAMIL NADU",
    "latitude": "11.1989833",
    "longitude": "78.0914050"
  },
  {
    "circlename": "Tamilnadu Circle",
    "regionname": "Western Region Coimbatore",
    "divisionname": "Namakkal Division",
    "officename": "Konur B.O",
    "pincode": "637207",
    "officetype": "BO",
    "delivery": "Delivery",
    "district": "NAMAKKAL",
    "statename": "TAMIL NADU",
    "latitude": "11.1760416",
    "longitude": "78.0731066"
  },
  {
    "circlename": "Tamilnadu Circle",
    "regionname": "Western Region Coimbatore",
    "divisionname": "Namakkal Division",
    "officename": "M.Rasampalayam B.O",
    "pincode": "637207",
    "officetype": "BO",
    "delivery": "Delivery",
    "district": "NAMAKKAL",
    "statename": "TAMIL NADU",
    "latitude": "11.2158060",
    "longitude": "78.1062480"
  },
  {
    "circlename": "Tamilnadu Circle",
    "regionname": "Western Region Coimbatore",
    "divisionname": "Namakkal Division",
    "officename": "Villipalayam B.O",
    "pincode": "637207",
    "officetype": "BO",
    "delivery": "Delivery",
    "district": "NAMAKKAL",
    "statename": "TAMIL NADU",
    "latitude": "11.2048200",
    "longitude": "78.0293440"
  },
  {
    "circlename": "Tamilnadu Circle",
    "regionname": "Western Region Coimbatore",
    "divisionname": "Namakkal Division",
    "officename": "Kondalam B.O",
    "pincode": "637208",
    "officetype": "BO",
    "delivery": "Delivery",
    "district": "NAMAKKAL",
    "statename": "TAMIL NADU",
    "latitude": "11.0781330",
    "longitude": "77.9240790"
  },
  {
    "circlename": "Tamilnadu Circle",
    "regionname": "Western Region Coimbatore",
    "divisionname": "Namakkal Division",
    "officename": "Goundampalayam B.O",
    "pincode": "637210",
    "officetype": "BO",
    "delivery": "Delivery",
    "district": "NAMAKKAL",
    "statename": "TAMIL NADU",
    "latitude": "11.3027660",
    "longitude": "77.7971570"
  },
  {
    "circlename": "Tamilnadu Circle",
    "regionname": "Western Region Coimbatore",
    "divisionname": "Namakkal Division",
    "officename": "Anangur B.O",
    "pincode": "637304",
    "officetype": "BO",
    "delivery": "Delivery",
    "district": "NAMAKKAL",
    "statename": "TAMIL NADU",
    "latitude": "11.3949906",
    "longitude": "77.8287355"
  },
  {
    "circlename": "Tamilnadu Circle",
    "regionname": "Western Region Coimbatore",
    "divisionname": "Namakkal Division",
    "officename": "Kokkalai B.O",
    "pincode": "637410",
    "officetype": "BO",
    "delivery": "Delivery",
    "district": "NAMAKKAL",
    "statename": "TAMIL NADU",
    "latitude": "11.3766966",
    "longitude": "78.0536900"
  },
  {
    "circlename": "Tamilnadu Circle",
    "regionname": "Western Region Coimbatore",
    "divisionname": "Namakkal Division",
    "officename": "Kuppuchipalayam B.O",
    "pincode": "638182",
    "officetype": "BO",
    "delivery": "Delivery",
    "district": "NAMAKKAL",
    "statename": "TAMIL NADU",
    "latitude": "11.1132116",
    "longitude": "78.0256250"
  },
  {
    "circlename": "Tamilnadu Circle",
    "regionname": "Western Region Coimbatore",
    "divisionname": "Namakkal Division",
    "officename": "Punjai Edayar Kilmugam B.O",
    "pincode": "638182",
    "officetype": "BO",
    "delivery": "Delivery",
    "district": "NAMAKKAL",
    "statename": "TAMIL NADU",
    "latitude": "11.1000970",
    "longitude": "78.0457690"
  },
  {
    "circlename": "Tamilnadu Circle",
    "regionname": "Western Region Coimbatore",
    "divisionname": "Salem East Division",
    "officename": "Kalipatti B.O",
    "pincode": "637501",
    "officetype": "BO",
    "delivery": "Delivery",
    "district": "NAMAKKAL",
    "statename": "TAMIL NADU",
    "latitude": "11.5167991",
    "longitude": "78.0402317"
  },
  {
    "circlename": "Tamilnadu Circle",
    "regionname": "Western Region Coimbatore",
    "divisionname": "Salem West Division",
    "officename": "85 R.Komarapalayam B.O",
    "pincode": "637403",
    "officetype": "BO",
    "delivery": "Delivery",
    "district": "NAMAKKAL",
    "statename": "TAMIL NADU",
    "latitude": "11.4250600",
    "longitude": "78.1316720"
  },
  {
    "circlename": "Tamilnadu Circle",
    "regionname": "Western Region Coimbatore",
    "divisionname": "Salem West Division",
    "officename": "Veppilaipatti B.O",
    "pincode": "636202",
    "officetype": "BO",
    "delivery": "Delivery",
    "district": "NAMAKKAL",
    "statename": "TAMIL NADU",
    "latitude": "11.5824240",
    "longitude": "78.3496740"
  },
  {
    "circlename": "Tamilnadu Circle",
    "regionname": "Western Region Coimbatore",
    "divisionname": "Salem West Division",
    "officename": "Vellakkalpatti B.O",
    "pincode": "637406",
    "officetype": "BO",
    "delivery": "Non Delivery",
    "district": "NAMAKKAL",
    "statename": "TAMIL NADU",
    "latitude": "11.4710030",
    "longitude": "78.2652850"
  },
  {
    "circlename": "Tamilnadu Circle",
    "regionname": "Western Region Coimbatore",
    "divisionname": "Salem West Division",
    "officename": "Melur B.O",
    "pincode": "637407",
    "officetype": "BO",
    "delivery": "Delivery",
    "district": "NAMAKKAL",
    "statename": "TAMIL NADU",
    "latitude": "11.5287780",
    "longitude": "78.2240295"
  },
  {
    "circlename": "Tamilnadu Circle",
    "regionname": "Western Region Coimbatore",
    "divisionname": "Salem West Division",
    "officename": "Pattanam B.O",
    "pincode": "637408",
    "officetype": "BO",
    "delivery": "Delivery",
    "district": "NAMAKKAL",
    "statename": "TAMIL NADU",
    "latitude": "11.4733310",
    "longitude": "78.2099150"
  },
  {
    "circlename": "Tamilnadu Circle",
    "regionname": "Western Region Coimbatore",
    "divisionname": "Salem West Division",
    "officename": "Kullamanaickenpatti B.O",
    "pincode": "637412",
    "officetype": "BO",
    "delivery": "Delivery",
    "district": "NAMAKKAL",
    "statename": "TAMIL NADU",
    "latitude": "11.4080990",
    "longitude": "78.1972860"
  },
  {
    "circlename": "Tamilnadu Circle",
    "regionname": "Western Region Coimbatore",
    "divisionname": "Salem West Division",
    "officename": "Palanthinnipatti B.O",
    "pincode": "637505",
    "officetype": "BO",
    "delivery": "Delivery",
    "district": "NAMAKKAL",
    "statename": "TAMIL NADU",
    "latitude": "11.4948190",
    "longitude": "78.1137350"
  },
  {
    "circlename": "Tamilnadu Circle",
    "regionname": "Western Region Coimbatore",
    "divisionname": "Salem West Division",
    "officename": "Nachipatti B.O",
    "pincode": "637505",
    "officetype": "BO",
    "delivery": "Delivery",
    "district": "NAMAKKAL",
    "statename": "TAMIL NADU",
    "latitude": "NA",
    "longitude": "NA"
  },
  {
    "circlename": "Tamilnadu Circle",
    "regionname": "Western Region Coimbatore",
    "divisionname": "Namakkal Division",
    "officename": "Namakkal Bazaar S.O",
    "pincode": "637001",
    "officetype": "PO",
    "delivery": "Non Delivery",
    "district": "NAMAKKAL",
    "statename": "TAMIL NADU",
    "latitude": "11.2240556",
    "longitude": "78.1703333"
  },
  {
    "circlename": "Tamilnadu Circle",
    "regionname": "Western Region Coimbatore",
    "divisionname": "Namakkal Division",
    "officename": "Natarajapuram S.O (Namakkal)",
    "pincode": "637001",
    "officetype": "PO",
    "delivery": "Non Delivery",
    "district": "NAMAKKAL",
    "statename": "TAMIL NADU",
    "latitude": "11.2104210",
    "longitude": "78.1799390"
  },
  {
    "circlename": "Tamilnadu Circle",
    "regionname": "Western Region Coimbatore",
    "divisionname": "Namakkal Division",
    "officename": "Puduchatram S.O",
    "pincode": "637018",
    "officetype": "PO",
    "delivery": "Delivery",
    "district": "NAMAKKAL",
    "statename": "TAMIL NADU",
    "latitude": "11.3811944",
    "longitude": "78.1633056"
  },
  {
    "circlename": "Tamilnadu Circle",
    "regionname": "Western Region Coimbatore",
    "divisionname": "Namakkal Division",
    "officename": "Ramapurampudur S.O",
    "pincode": "637001",
    "officetype": "PO",
    "delivery": "Non Delivery",
    "district": "NAMAKKAL",
    "statename": "TAMIL NADU",
    "latitude": "11.2281390",
    "longitude": "78.1683060"
  },
  {
    "circlename": "Tamilnadu Circle",
    "regionname": "Western Region Coimbatore",
    "divisionname": "Namakkal Division",
    "officename": "Elachipalayam S.O",
    "pincode": "637202",
    "officetype": "PO",
    "delivery": "Delivery",
    "district": "NAMAKKAL",
    "statename": "TAMIL NADU",
    "latitude": "11.3851389",
    "longitude": "78.0083333"
  },
  {
    "circlename": "Tamilnadu Circle",
    "regionname": "Western Region Coimbatore",
    "divisionname": "Namakkal Division",
    "officename": "KomarapalayamEast S.O",
    "pincode": "638183",
    "officetype": "PO",
    "delivery": "Non Delivery",
    "district": "NAMAKKAL",
    "statename": "TAMIL NADU",
    "latitude": "11.4450833",
    "longitude": "77.7298056"
  },
  {
    "circlename": "Tamilnadu Circle",
    "regionname": "Western Region Coimbatore",
    "divisionname": "Namakkal Division",
    "officename": "Kumaramangalam S.O",
    "pincode": "637205",
    "officetype": "PO",
    "delivery": "Delivery",
    "district": "NAMAKKAL",
    "statename": "TAMIL NADU",
    "latitude": "11.3690556",
    "longitude": "77.9296667"
  },
  {
    "circlename": "Tamilnadu Circle",
    "regionname": "Western Region Coimbatore",
    "divisionname": "Salem East Division",
    "officename": "Mullukurichi S.O",
    "pincode": "636142",
    "officetype": "PO",
    "delivery": "Delivery",
    "district": "NAMAKKAL",
    "statename": "TAMIL NADU",
    "latitude": "11.2155833",
    "longitude": "78.1702778"
  },
  {
    "circlename": "Tamilnadu Circle",
    "regionname": "Western Region Coimbatore",
    "divisionname": "Namakkal Division",
    "officename": "Muthanchetti B.O",
    "pincode": "637013",
    "officetype": "BO",
    "delivery": "Non Delivery",
    "district": "NAMAKKAL",
    "statename": "TAMIL NADU",
    "latitude": "11.1338270",
    "longitude": "78.3204150"
  },
  {
    "circlename": "Tamilnadu Circle",
    "regionname": "Western Region Coimbatore",
    "divisionname": "Namakkal Division",
    "officename": "Vadavathur B.O",
    "pincode": "637013",
    "officetype": "BO",
    "delivery": "Delivery",
    "district": "NAMAKKAL",
    "statename": "TAMIL NADU",
    "latitude": "11.1091080",
    "longitude": "78.2792160"
  },
  {
    "circlename": "Tamilnadu Circle",
    "regionname": "Western Region Coimbatore",
    "divisionname": "Namakkal Division",
    "officename": "Bommasamudram B.O",
    "pincode": "637002",
    "officetype": "BO",
    "delivery": "Delivery",
    "district": "NAMAKKAL",
    "statename": "TAMIL NADU",
    "latitude": "11.1969980",
    "longitude": "78.2132980"
  },
  {
    "circlename": "Tamilnadu Circle",
    "regionname": "Western Region Coimbatore",
    "divisionname": "Namakkal Division",
    "officename": "Thusur B.O",
    "pincode": "637002",
    "officetype": "BO",
    "delivery": "Delivery",
    "district": "NAMAKKAL",
    "statename": "TAMIL NADU",
    "latitude": "11.2205600",
    "longitude": "78.2214930"
  },
  {
    "circlename": "Tamilnadu Circle",
    "regionname": "Western Region Coimbatore",
    "divisionname": "Namakkal Division",
    "officename": "Tirumalaipatti B.O",
    "pincode": "637404",
    "officetype": "BO",
    "delivery": "Delivery",
    "district": "NAMAKKAL",
    "statename": "TAMIL NADU",
    "latitude": "11.3616270",
    "longitude": "78.2234000"
  },
  {
    "circlename": "Tamilnadu Circle",
    "regionname": "Western Region Coimbatore",
    "divisionname": "Namakkal Division",
    "officename": "Reddipudur B.O",
    "pincode": "637014",
    "officetype": "BO",
    "delivery": "Delivery",
    "district": "NAMAKKAL",
    "statename": "TAMIL NADU",
    "latitude": "11.3506410",
    "longitude": "78.1519890"
  },
  {
    "circlename": "Tamilnadu Circle",
    "regionname": "Western Region Coimbatore",
    "divisionname": "Namakkal Division",
    "officename": "Oruvandur B.O",
    "pincode": "637015",
    "officetype": "BO",
    "delivery": "Delivery",
    "district": "NAMAKKAL",
    "statename": "TAMIL NADU",
    "latitude": "11.0457700",
    "longitude": "78.1574820"
  },
  {
    "circlename": "Tamilnadu Circle",
    "regionname": "Western Region Coimbatore",
    "divisionname": "Namakkal Division",
    "officename": "Sevitturangampatti B.O",
    "pincode": "637015",
    "officetype": "BO",
    "delivery": "Delivery",
    "district": "NAMAKKAL",
    "statename": "TAMIL NADU",
    "latitude": "11.1007020",
    "longitude": "78.1712150"
  },
  {
    "circlename": "Tamilnadu Circle",
    "regionname": "Western Region Coimbatore",
    "divisionname": "Namakkal Division",
    "officename": "Chidambarapatti B.O",
    "pincode": "637405",
    "officetype": "BO",
    "delivery": "Delivery",
    "district": "NAMAKKAL",
    "statename": "TAMIL NADU",
    "latitude": "11.2297910",
    "longitude": "78.2234000"
  },
  {
    "circlename": "Tamilnadu Circle",
    "regionname": "Western Region Coimbatore",
    "divisionname": "Namakkal Division",
    "officename": "Tolur B.O",
    "pincode": "637017",
    "officetype": "BO",
    "delivery": "Delivery",
    "district": "NAMAKKAL",
    "statename": "TAMIL NADU",
    "latitude": "11.1446470",
    "longitude": "78.1217760"
  },
  {
    "circlename": "Tamilnadu Circle",
    "regionname": "Western Region Coimbatore",
    "divisionname": "Namakkal Division",
    "officename": "Elur B.O",
    "pincode": "637018",
    "officetype": "BO",
    "delivery": "Delivery",
    "district": "NAMAKKAL",
    "statename": "TAMIL NADU",
    "latitude": "11.3643740",
    "longitude": "78.1107900"
  },
  {
    "circlename": "Tamilnadu Circle",
    "regionname": "Western Region Coimbatore",
    "divisionname": "Namakkal Division",
    "officename": "Navanipallipatti B.O",
    "pincode": "637018",
    "officetype": "BO",
    "delivery": "Delivery",
    "district": "NAMAKKAL",
    "statename": "TAMIL NADU",
    "latitude": "11.3698670",
    "longitude": "78.1300160"
  },
  {
    "circlename": "Tamilnadu Circle",
    "regionname": "Western Region Coimbatore",
    "divisionname": "Namakkal Division",
    "officename": "Kadapalli B.O",
    "pincode": "637019",
    "officetype": "BO",
    "delivery": "Delivery",
    "district": "NAMAKKAL",
    "statename": "TAMIL NADU",
    "latitude": "11.2847230",
    "longitude": "78.1464960"
  },
  {
    "circlename": "Tamilnadu Circle",
    "regionname": "Western Region Coimbatore",
    "divisionname": "Namakkal Division",
    "officename": "Karadipatti B.O",
    "pincode": "637019",
    "officetype": "BO",
    "delivery": "Delivery",
    "district": "NAMAKKAL",
    "statename": "TAMIL NADU",
    "latitude": "11.3231750",
    "longitude": "78.1217760"
  },
  {
    "circlename": "Tamilnadu Circle",
    "regionname": "Western Region Coimbatore",
    "divisionname": "Namakkal Division",
    "officename": "Marurpatti B.O",
    "pincode": "637019",
    "officetype": "BO",
    "delivery": "Delivery",
    "district": "NAMAKKAL",
    "statename": "TAMIL NADU",
    "latitude": "11.2764830",
    "longitude": "78.1849480"
  },
  {
    "circlename": "Tamilnadu Circle",
    "regionname": "Western Region Coimbatore",
    "divisionname": "Namakkal Division",
    "officename": "Minnampalli B.O",
    "pincode": "637019",
    "officetype": "BO",
    "delivery": "Delivery",
    "district": "NAMAKKAL",
    "statename": "TAMIL NADU",
    "latitude": "11.3231750",
    "longitude": "78.1794550"
  },
  {
    "circlename": "Tamilnadu Circle",
    "regionname": "Western Region Coimbatore",
    "divisionname": "Namakkal Division",
    "officename": "Ariyurcusba B.O",
    "pincode": "637411",
    "officetype": "BO",
    "delivery": "Delivery",
    "district": "NAMAKKAL",
    "statename": "TAMIL NADU",
    "latitude": "11.3071250",
    "longitude": "78.3822600"
  },
  {
    "circlename": "Tamilnadu Circle",
    "regionname": "Western Region Coimbatore",
    "divisionname": "Namakkal Division",
    "officename": "Chittoornadu B.O",
    "pincode": "637411",
    "officetype": "BO",
    "delivery": "Delivery",
    "district": "NAMAKKAL",
    "statename": "TAMIL NADU",
    "latitude": "11.4012366",
    "longitude": "78.3522583"
  },
  {
    "circlename": "Tamilnadu Circle",
    "regionname": "Western Region Coimbatore",
    "divisionname": "Namakkal Division",
    "officename": "Gunduninadu B.O",
    "pincode": "637411",
    "officetype": "BO",
    "delivery": "Delivery",
    "district": "NAMAKKAL",
    "statename": "TAMIL NADU",
    "latitude": "11.3602933",
    "longitude": "78.4341466"
  },
  {
    "circlename": "Tamilnadu Circle",
    "regionname": "Western Region Coimbatore",
    "divisionname": "Namakkal Division",
    "officename": "Kuzhivalavu B.O",
    "pincode": "637411",
    "officetype": "BO",
    "delivery": "Delivery",
    "district": "NAMAKKAL",
    "statename": "TAMIL NADU",
    "latitude": "11.3304300",
    "longitude": "78.3607916"
  },
  {
    "circlename": "Tamilnadu Circle",
    "regionname": "Western Region Coimbatore",
    "divisionname": "Namakkal Division",
    "officename": "Perakkarainadu B.O",
    "pincode": "637411",
    "officetype": "BO",
    "delivery": "Delivery",
    "district": "NAMAKKAL",
    "statename": "TAMIL NADU",
    "latitude": "11.3919183",
    "longitude": "78.3148666"
  },
  {
    "circlename": "Tamilnadu Circle",
    "regionname": "Western Region Coimbatore",
    "divisionname": "Namakkal Division",
    "officename": "Thiruppulinadu B.O",
    "pincode": "637411",
    "officetype": "BO",
    "delivery": "Delivery",
    "district": "NAMAKKAL",
    "statename": "TAMIL NADU",
    "latitude": "11.3529583",
    "longitude": "78.3747116"
  },
  {
    "circlename": "Tamilnadu Circle",
    "regionname": "Western Region Coimbatore",
    "divisionname": "Namakkal Division",
    "officename": "Akkiampatti B.O",
    "pincode": "637409",
    "officetype": "BO",
    "delivery": "Delivery",
    "district": "NAMAKKAL",
    "statename": "TAMIL NADU",
    "latitude": "11.2676300",
    "longitude": "78.2346000"
  },
  {
    "circlename": "Tamilnadu Circle",
    "regionname": "Western Region Coimbatore",
    "divisionname": "Namakkal Division",
    "officename": "Pachudayampattipudur B.O",
    "pincode": "637409",
    "officetype": "BO",
    "delivery": "Delivery",
    "district": "NAMAKKAL",
    "statename": "TAMIL NADU",
    "latitude": "11.2769466",
    "longitude": "78.2237150"
  },
  {
    "circlename": "Tamilnadu Circle",
    "regionname": "Western Region Coimbatore",
    "divisionname": "Namakkal Division",
    "officename": "Ramanadapuram B.O",
    "pincode": "637409",
    "officetype": "BO",
    "delivery": "Delivery",
    "district": "NAMAKKAL",
    "statename": "TAMIL NADU",
    "latitude": "11.2953633",
    "longitude": "78.2602316"
  },
  {
    "circlename": "Tamilnadu Circle",
    "regionname": "Western Region Coimbatore",
    "divisionname": "Namakkal Division",
    "officename": "Andapuram B.O",
    "pincode": "637020",
    "officetype": "BO",
    "delivery": "Delivery",
    "district": "NAMAKKAL",
    "statename": "TAMIL NADU",
    "latitude": "11.0652530",
    "longitude": "78.2201190"
  },
  {
    "circlename": "Tamilnadu Circle",
    "regionname": "Western Region Coimbatore",
    "divisionname": "Namakkal Division",
    "officename": "Arasanatham B.O",
    "pincode": "637020",
    "officetype": "BO",
    "delivery": "Delivery",
    "district": "NAMAKKAL",
    "statename": "TAMIL NADU",
    "latitude": "11.0858520",
    "longitude": "78.1954000"
  },
  {
    "circlename": "Tamilnadu Circle",
    "regionname": "Western Region Coimbatore",
    "divisionname": "Namakkal Division",
    "officename": "N.Pudupatti B.O",
    "pincode": "637020",
    "officetype": "BO",
    "delivery": "Delivery",
    "district": "NAMAKKAL",
    "statename": "TAMIL NADU",
    "latitude": "11.1619940",
    "longitude": "78.2225610"
  },
  {
    "circlename": "Tamilnadu Circle",
    "regionname": "Western Region Coimbatore",
    "divisionname": "Namakkal Division",
    "officename": "Navaladipatti B.O",
    "pincode": "637021",
    "officetype": "BO",
    "delivery": "Delivery",
    "district": "NAMAKKAL",
    "statename": "TAMIL NADU",
    "latitude": "11.1647400",
    "longitude": "78.3708760"
  },
  {
    "circlename": "Tamilnadu Circle",
    "regionname": "Western Region Coimbatore",
    "divisionname": "Namakkal Division",
    "officename": "Nallakumarampalayam B.O",
    "pincode": "637212",
    "officetype": "BO",
    "delivery": "Delivery",
    "district": "NAMAKKAL",
    "statename": "TAMIL NADU",
    "latitude": "11.3014590",
    "longitude": "78.0003930"
  },
  {
    "circlename": "Tamilnadu Circle",
    "regionname": "Western Region Coimbatore",
    "divisionname": "Namakkal Division",
    "officename": "Gandhiashram B.O",
    "pincode": "637201",
    "officetype": "BO",
    "delivery": "Delivery",
    "district": "NAMAKKAL",
    "statename": "TAMIL NADU",
    "latitude": "11.3189440",
    "longitude": "77.9444190"
  },
  {
    "circlename": "Tamilnadu Circle",
    "regionname": "Western Region Coimbatore",
    "divisionname": "Namakkal Division",
    "officename": "Ramapuram B.O",
    "pincode": "637202",
    "officetype": "BO",
    "delivery": "Delivery",
    "district": "NAMAKKAL",
    "statename": "TAMIL NADU",
    "latitude": "11.4392340",
    "longitude": "78.0037990"
  },
  {
    "circlename": "Tamilnadu Circle",
    "regionname": "Western Region Coimbatore",
    "divisionname": "Namakkal Division",
    "officename": "Kothamangalam B.O",
    "pincode": "637213",
    "officetype": "BO",
    "delivery": "Non Delivery",
    "district": "NAMAKKAL",
    "statename": "TAMIL NADU",
    "latitude": "11.1713873",
    "longitude": "77.8809073"
  },
  {
    "circlename": "Tamilnadu Circle",
    "regionname": "Western Region Coimbatore",
    "divisionname": "Namakkal Division",
    "officename": "Sirunallikovil B.O",
    "pincode": "637213",
    "officetype": "BO",
    "delivery": "Delivery",
    "district": "NAMAKKAL",
    "statename": "TAMIL NADU",
    "latitude": "11.1807905",
    "longitude": "77.9004331"
  },
  {
    "circlename": "Tamilnadu Circle",
    "regionname": "Western Region Coimbatore",
    "divisionname": "Namakkal Division",
    "officename": "Kallankattuvalasu B.O",
    "pincode": "638183",
    "officetype": "BO",
    "delivery": "Delivery",
    "district": "NAMAKKAL",
    "statename": "TAMIL NADU",
    "latitude": "11.4295578",
    "longitude": "77.7249723"
  },
  {
    "circlename": "Tamilnadu Circle",
    "regionname": "Western Region Coimbatore",
    "divisionname": "Namakkal Division",
    "officename": "Pillur B.O",
    "pincode": "637206",
    "officetype": "BO",
    "delivery": "Non Delivery",
    "district": "NAMAKKAL",
    "statename": "TAMIL NADU",
    "latitude": "11.2071150",
    "longitude": "78.0226890"
  },
  {
    "circlename": "Tamilnadu Circle",
    "regionname": "Western Region Coimbatore",
    "divisionname": "Namakkal Division",
    "officename": "Elandakuttai B.O",
    "pincode": "638008",
    "officetype": "BO",
    "delivery": "Delivery",
    "district": "NAMAKKAL",
    "statename": "TAMIL NADU",
    "latitude": "11.4056133",
    "longitude": "77.7751716"
  },
  {
    "circlename": "Tamilnadu Circle",
    "regionname": "Western Region Coimbatore",
    "divisionname": "Namakkal Division",
    "officename": "SamayaSangiliAgragaram B.O",
    "pincode": "638008",
    "officetype": "BO",
    "delivery": "Delivery",
    "district": "NAMAKKAL",
    "statename": "TAMIL NADU",
    "latitude": "11.3809720",
    "longitude": "77.7165670"
  },
  {
    "circlename": "Tamilnadu Circle",
    "regionname": "Western Region Coimbatore",
    "divisionname": "Namakkal Division",
    "officename": "Sowdapuram B.O",
    "pincode": "638008",
    "officetype": "BO",
    "delivery": "Delivery",
    "district": "NAMAKKAL",
    "statename": "TAMIL NADU",
    "latitude": "11.4218516",
    "longitude": "77.7919016"
  },
  {
    "circlename": "Tamilnadu Circle",
    "regionname": "Western Region Coimbatore",
    "divisionname": "Namakkal Division",
    "officename": "Thindamangalam B.O",
    "pincode": "637207",
    "officetype": "BO",
    "delivery": "Delivery",
    "district": "NAMAKKAL",
    "statename": "TAMIL NADU",
    "latitude": "11.2597520",
    "longitude": "78.0842760"
  },
  {
    "circlename": "Tamilnadu Circle",
    "regionname": "Western Region Coimbatore",
    "divisionname": "Namakkal Division",
    "officename": "Selur B.O",
    "pincode": "637208",
    "officetype": "BO",
    "delivery": "Delivery",
    "district": "NAMAKKAL",
    "statename": "TAMIL NADU",
    "latitude": "11.1169290",
    "longitude": "77.9084940"
  },
  {
    "circlename": "Tamilnadu Circle",
    "regionname": "Western Region Coimbatore",
    "divisionname": "Namakkal Division",
    "officename": "Veeranampalayam B.O",
    "pincode": "638181",
    "officetype": "BO",
    "delivery": "Delivery",
    "district": "NAMAKKAL",
    "statename": "TAMIL NADU",
    "latitude": "11.1318160",
    "longitude": "77.9884760"
  },
  {
    "circlename": "Tamilnadu Circle",
    "regionname": "Western Region Coimbatore",
    "divisionname": "Namakkal Division",
    "officename": "Karumapuram B.O",
    "pincode": "637302",
    "officetype": "BO",
    "delivery": "Delivery",
    "district": "NAMAKKAL",
    "statename": "TAMIL NADU",
    "latitude": "11.4522183",
    "longitude": "77.9369750"
  },
  {
    "circlename": "Tamilnadu Circle",
    "regionname": "Western Region Coimbatore",
    "divisionname": "Namakkal Division",
    "officename": "Kolikkalnatham B.O",
    "pincode": "637302",
    "officetype": "BO",
    "delivery": "Delivery",
    "district": "NAMAKKAL",
    "statename": "TAMIL NADU",
    "latitude": "11.4374316",
    "longitude": "77.9160600"
  },
  {
    "circlename": "Tamilnadu Circle",
    "regionname": "Western Region Coimbatore",
    "divisionname": "Namakkal Division",
    "officename": "Thirumangalam B.O",
    "pincode": "637302",
    "officetype": "BO",
    "delivery": "Delivery",
    "district": "NAMAKKAL",
    "statename": "TAMIL NADU",
    "latitude": "11.4329133",
    "longitude": "77.9374783"
  },
  {
    "circlename": "Tamilnadu Circle",
    "regionname": "Western Region Coimbatore",
    "divisionname": "Namakkal Division",
    "officename": "Kailasampalayam B.O",
    "pincode": "637209",
    "officetype": "BO",
    "delivery": "Delivery",
    "district": "NAMAKKAL",
    "statename": "TAMIL NADU",
    "latitude": "11.3944535",
    "longitude": "77.9125678"
  },
  {
    "circlename": "Tamilnadu Circle",
    "regionname": "Western Region Coimbatore",
    "divisionname": "Namakkal Division",
    "officename": "O.Rajapalayam B.O",
    "pincode": "637209",
    "officetype": "BO",
    "delivery": "Delivery",
    "district": "NAMAKKAL",
    "statename": "TAMIL NADU",
    "latitude": "11.4128588",
    "longitude": "77.9113892"
  },
  {
    "circlename": "Tamilnadu Circle",
    "regionname": "Western Region Coimbatore",
    "divisionname": "Namakkal Division",
    "officename": "Attavanai Iraiyamangalam B.O",
    "pincode": "637210",
    "officetype": "BO",
    "delivery": "Delivery",
    "district": "NAMAKKAL",
    "statename": "TAMIL NADU",
    "latitude": "11.2725540",
    "longitude": "77.8356090"
  },
  {
    "circlename": "Tamilnadu Circle",
    "regionname": "Western Region Coimbatore",
    "divisionname": "Namakkal Division",
    "officename": "Molasi B.O",
    "pincode": "637210",
    "officetype": "BO",
    "delivery": "Delivery",
    "district": "NAMAKKAL",
    "statename": "TAMIL NADU",
    "latitude": "11.2591480",
    "longitude": "77.8600300"
  },
  {
    "circlename": "Tamilnadu Circle",
    "regionname": "Western Region Coimbatore",
    "divisionname": "Namakkal Division",
    "officename": "Patlur B.O",
    "pincode": "637210",
    "officetype": "BO",
    "delivery": "Delivery",
    "district": "NAMAKKAL",
    "statename": "TAMIL NADU",
    "latitude": "11.2796190",
    "longitude": "77.8091760"
  },
  {
    "circlename": "Tamilnadu Circle",
    "regionname": "Western Region Coimbatore",
    "divisionname": "Namakkal Division",
    "officename": "Karuveppampatti B.O",
    "pincode": "637304",
    "officetype": "BO",
    "delivery": "Delivery",
    "district": "NAMAKKAL",
    "statename": "TAMIL NADU",
    "latitude": "11.3989410",
    "longitude": "77.8746864"
  },
  {
    "circlename": "Tamilnadu Circle",
    "regionname": "Western Region Coimbatore",
    "divisionname": "Namakkal Division",
    "officename": "Modamangalam B.O",
    "pincode": "637304",
    "officetype": "BO",
    "delivery": "Non Delivery",
    "district": "NAMAKKAL",
    "statename": "TAMIL NADU",
    "latitude": "11.4251880",
    "longitude": "77.8256550"
  },
  {
    "circlename": "Tamilnadu Circle",
    "regionname": "Western Region Coimbatore",
    "divisionname": "Namakkal Division",
    "officename": "Chinnamanali B.O",
    "pincode": "637410",
    "officetype": "BO",
    "delivery": "Delivery",
    "district": "NAMAKKAL",
    "statename": "TAMIL NADU",
    "latitude": "11.3944883",
    "longitude": "78.0847066"
  },
  {
    "circlename": "Tamilnadu Circle",
    "regionname": "Western Region Coimbatore",
    "divisionname": "Namakkal Division",
    "officename": "Morangam B.O",
    "pincode": "637410",
    "officetype": "BO",
    "delivery": "Delivery",
    "district": "NAMAKKAL",
    "statename": "TAMIL NADU",
    "latitude": "11.4660120",
    "longitude": "78.0289030"
  },
  {
    "circlename": "Tamilnadu Circle",
    "regionname": "Western Region Coimbatore",
    "divisionname": "Namakkal Division",
    "officename": "Thottiapatti B.O",
    "pincode": "637410",
    "officetype": "BO",
    "delivery": "Delivery",
    "district": "NAMAKKAL",
    "statename": "TAMIL NADU",
    "latitude": "11.4330530",
    "longitude": "78.0618620"
  },
  {
    "circlename": "Tamilnadu Circle",
    "regionname": "Western Region Coimbatore",
    "divisionname": "Salem East Division",
    "officename": "Periyakombai B.O",
    "pincode": "636113",
    "officetype": "BO",
    "delivery": "Delivery",
    "district": "NAMAKKAL",
    "statename": "TAMIL NADU",
    "latitude": "11.4166536",
    "longitude": "78.4064844"
  },
  {
    "circlename": "Tamilnadu Circle",
    "regionname": "Western Region Coimbatore",
    "divisionname": "Salem East Division",
    "officename": "Shenbagamadevi B.O",
    "pincode": "637501",
    "officetype": "BO",
    "delivery": "Delivery",
    "district": "NAMAKKAL",
    "statename": "TAMIL NADU",
    "latitude": "11.5059420",
    "longitude": "77.9906406"
  },
  {
    "circlename": "Tamilnadu Circle",
    "regionname": "Western Region Coimbatore",
    "divisionname": "Salem East Division",
    "officename": "P.Mettur B.O",
    "pincode": "636203",
    "officetype": "BO",
    "delivery": "Delivery",
    "district": "NAMAKKAL",
    "statename": "TAMIL NADU",
    "latitude": "11.5437556",
    "longitude": "78.1597223"
  },
  {
    "circlename": "Tamilnadu Circle",
    "regionname": "Western Region Coimbatore",
    "divisionname": "Salem West Division",
    "officename": "Anaipalayam B.O",
    "pincode": "637401",
    "officetype": "BO",
    "delivery": "Non Delivery",
    "district": "NAMAKKAL",
    "statename": "TAMIL NADU",
    "latitude": "11.4318700",
    "longitude": "78.1732430"
  },
  {
    "circlename": "Tamilnadu Circle",
    "regionname": "Western Region Coimbatore",
    "divisionname": "Salem West Division",
    "officename": "Koonavelampatti B.O",
    "pincode": "637401",
    "officetype": "BO",
    "delivery": "Delivery",
    "district": "NAMAKKAL",
    "statename": "TAMIL NADU",
    "latitude": "11.4483920",
    "longitude": "78.1491990"
  },
  {
    "circlename": "Tamilnadu Circle",
    "regionname": "Western Region Coimbatore",
    "divisionname": "Salem West Division",
    "officename": "Munjanur B.O",
    "pincode": "637403",
    "officetype": "BO",
    "delivery": "Delivery",
    "district": "NAMAKKAL",
    "statename": "TAMIL NADU",
    "latitude": "11.4435460",
    "longitude": "78.1018030"
  },
  {
    "circlename": "Tamilnadu Circle",
    "regionname": "Western Region Coimbatore",
    "divisionname": "Salem West Division",
    "officename": "Pillanallur B.O",
    "pincode": "637403",
    "officetype": "BO",
    "delivery": "Non Delivery",
    "district": "NAMAKKAL",
    "statename": "TAMIL NADU",
    "latitude": "11.4350810",
    "longitude": "78.1269940"
  },
  {
    "circlename": "Tamilnadu Circle",
    "regionname": "Western Region Coimbatore",
    "divisionname": "Salem West Division",
    "officename": "Sarkar Nattamangalam B.O",
    "pincode": "637403",
    "officetype": "BO",
    "delivery": "Delivery",
    "district": "NAMAKKAL",
    "statename": "TAMIL NADU",
    "latitude": "11.4003620",
    "longitude": "78.1114700"
  },
  {
    "circlename": "Tamilnadu Circle",
    "regionname": "Western Region Coimbatore",
    "divisionname": "Salem West Division",
    "officename": "Karkudalpatti B.O",
    "pincode": "636202",
    "officetype": "BO",
    "delivery": "Delivery",
    "district": "NAMAKKAL",
    "statename": "TAMIL NADU",
    "latitude": "11.5062700",
    "longitude": "78.3564330"
  },
  {
    "circlename": "Tamilnadu Circle",
    "regionname": "Western Region Coimbatore",
    "divisionname": "Salem West Division",
    "officename": "Thandagoundanpalayam B.O",
    "pincode": "636202",
    "officetype": "BO",
    "delivery": "Delivery",
    "district": "NAMAKKAL",
    "statename": "TAMIL NADU",
    "latitude": "11.5565670",
    "longitude": "78.3902180"
  },
  {
    "circlename": "Tamilnadu Circle",
    "regionname": "Western Region Coimbatore",
    "divisionname": "Salem West Division",
    "officename": "Ariyagoundampatti B.O",
    "pincode": "637406",
    "officetype": "BO",
    "delivery": "Delivery",
    "district": "NAMAKKAL",
    "statename": "TAMIL NADU",
    "latitude": "11.4446630",
    "longitude": "78.2723980"
  },
  {
    "circlename": "Tamilnadu Circle",
    "regionname": "Western Region Coimbatore",
    "divisionname": "Salem West Division",
    "officename": "Pattanam Muniappampalayam B.O",
    "pincode": "637407",
    "officetype": "BO",
    "delivery": "Delivery",
    "district": "NAMAKKAL",
    "statename": "TAMIL NADU",
    "latitude": "11.4854890",
    "longitude": "78.2312880"
  },
  {
    "circlename": "Tamilnadu Circle",
    "regionname": "Western Region Coimbatore",
    "divisionname": "Salem West Division",
    "officename": "Vadugam B.O",
    "pincode": "637407",
    "officetype": "BO",
    "delivery": "Non Delivery",
    "district": "NAMAKKAL",
    "statename": "TAMIL NADU",
    "latitude": "11.4606310",
    "longitude": "78.2456970"
  },
  {
    "circlename": "Tamilnadu Circle",
    "regionname": "Western Region Coimbatore",
    "divisionname": "Salem West Division",
    "officename": "Alavaipatty B.O",
    "pincode": "637505",
    "officetype": "BO",
    "delivery": "Delivery",
    "district": "NAMAKKAL",
    "statename": "TAMIL NADU",
    "latitude": "11.4945400",
    "longitude": "78.0993800"
  },
  {
    "circlename": "Tamilnadu Circle",
    "regionname": "Western Region Coimbatore",
    "divisionname": "Erode Division",
    "officename": "Pappampalayam BO",
    "pincode": "638007",
    "officetype": "BO",
    "delivery": "Delivery",
    "district": "NAMAKKAL",
    "statename": "TAMIL NADU",
    "latitude": "11.3358251",
    "longitude": "77.7754171"
  },
  {
    "circlename": "Tamilnadu Circle",
    "regionname": "Western Region Coimbatore",
    "divisionname": "Namakkal Division",
    "officename": "Tiruchengodu H.O",
    "pincode": "637211",
    "officetype": "HO",
    "delivery": "Delivery",
    "district": "NAMAKKAL",
    "statename": "TAMIL NADU",
    "latitude": "11.3797500",
    "longitude": "77.8855278"
  },
  {
    "circlename": "Tamilnadu Circle",
    "regionname": "Western Region Coimbatore",
    "divisionname": "Erode Division",
    "officename": "Cauvery Railway Station SO",
    "pincode": "638007",
    "officetype": "PO",
    "delivery": "Delivery",
    "district": "NAMAKKAL",
    "statename": "TAMIL NADU",
    "latitude": "11.3502244",
    "longitude": "77.7601735"
  },
  {
    "circlename": "Tamilnadu Circle",
    "regionname": "Western Region Coimbatore",
    "divisionname": "Erode Division",
    "officename": "Pallipalayam SO",
    "pincode": "638006",
    "officetype": "PO",
    "delivery": "Delivery",
    "district": "NAMAKKAL",
    "statename": "TAMIL NADU",
    "latitude": "11.3673870",
    "longitude": "77.7456020"
  },
  {
    "circlename": "Tamilnadu Circle",
    "regionname": "Western Region Coimbatore",
    "divisionname": "Erode Division",
    "officename": "SPB Colony SO",
    "pincode": "638010",
    "officetype": "PO",
    "delivery": "Delivery",
    "district": "NAMAKKAL",
    "statename": "TAMIL NADU",
    "latitude": "11.3639633",
    "longitude": "77.7848031"
  },
  {
    "circlename": "Tamilnadu Circle",
    "regionname": "Western Region Coimbatore",
    "divisionname": "Namakkal Division",
    "officename": "Belukurichi S.O",
    "pincode": "637402",
    "officetype": "PO",
    "delivery": "Delivery",
    "district": "NAMAKKAL",
    "statename": "TAMIL NADU",
    "latitude": "11.3850278",
    "longitude": "78.2514722"
  },
  {
    "circlename": "Tamilnadu Circle",
    "regionname": "Western Region Coimbatore",
    "divisionname": "Namakkal Division",
    "officename": "Muthugapatti S.O",
    "pincode": "637405",
    "officetype": "PO",
    "delivery": "Delivery",
    "district": "NAMAKKAL",
    "statename": "TAMIL NADU",
    "latitude": "11.2462222",
    "longitude": "78.2285833"
  },
  {
    "circlename": "Tamilnadu Circle",
    "regionname": "Western Region Coimbatore",
    "divisionname": "Namakkal Division",
    "officename": "Chittalandur S.O",
    "pincode": "637201",
    "officetype": "PO",
    "delivery": "Delivery",
    "district": "NAMAKKAL",
    "statename": "TAMIL NADU",
    "latitude": "11.3173333",
    "longitude": "77.9221667"
  },
  {
    "circlename": "Tamilnadu Circle",
    "regionname": "Western Region Coimbatore",
    "divisionname": "Namakkal Division",
    "officename": "Koottapalli S.O",
    "pincode": "637214",
    "officetype": "PO",
    "delivery": "Delivery",
    "district": "NAMAKKAL",
    "statename": "TAMIL NADU",
    "latitude": "11.3683333",
    "longitude": "77.8681667"
  },
  {
    "circlename": "Tamilnadu Circle",
    "regionname": "Western Region Coimbatore",
    "divisionname": "Namakkal Division",
    "officename": "Nadandai S.O",
    "pincode": "637206",
    "officetype": "PO",
    "delivery": "Delivery",
    "district": "NAMAKKAL",
    "statename": "TAMIL NADU",
    "latitude": "11.2062778",
    "longitude": "77.9903056"
  },
  {
    "circlename": "Tamilnadu Circle",
    "regionname": "Western Region Coimbatore",
    "divisionname": "Namakkal Division",
    "officename": "Pallipalayamagraharam S.O",
    "pincode": "638008",
    "officetype": "PO",
    "delivery": "Delivery",
    "district": "NAMAKKAL",
    "statename": "TAMIL NADU",
    "latitude": "11.3699440",
    "longitude": "77.7433330"
  },
  {
    "circlename": "Tamilnadu Circle",
    "regionname": "Western Region Coimbatore",
    "divisionname": "Namakkal Division",
    "officename": "Paramathi S.O",
    "pincode": "637207",
    "officetype": "PO",
    "delivery": "Delivery",
    "district": "NAMAKKAL",
    "statename": "TAMIL NADU",
    "latitude": "11.1533611",
    "longitude": "78.0215278"
  },
  {
    "circlename": "Tamilnadu Circle",
    "regionname": "Western Region Coimbatore",
    "divisionname": "Namakkal Division",
    "officename": "Solasiramani S.O",
    "pincode": "637210",
    "officetype": "PO",
    "delivery": "Delivery",
    "district": "NAMAKKAL",
    "statename": "TAMIL NADU",
    "latitude": "11.7061111",
    "longitude": "77.8735000"
  },
  {
    "circlename": "Tamilnadu Circle",
    "regionname": "Western Region Coimbatore",
    "divisionname": "Namakkal Division",
    "officename": "Thannirpandalpalayam S.O",
    "pincode": "637304",
    "officetype": "PO",
    "delivery": "Delivery",
    "district": "NAMAKKAL",
    "statename": "TAMIL NADU",
    "latitude": "11.4180278",
    "longitude": "75.8405833"
  },
  {
    "circlename": "Tamilnadu Circle",
    "regionname": "Western Region Coimbatore",
    "divisionname": "Namakkal Division",
    "officename": "Tiruchengodu South S.O",
    "pincode": "637211",
    "officetype": "PO",
    "delivery": "Non Delivery",
    "district": "NAMAKKAL",
    "statename": "TAMIL NADU",
    "latitude": "11.3690278",
    "longitude": "77.8891667"
  },
  {
    "circlename": "Tamilnadu Circle",
    "regionname": "Western Region Coimbatore",
    "divisionname": "Namakkal Division",
    "officename": "PERIYAMANALI SO",
    "pincode": "637216",
    "officetype": "PO",
    "delivery": "Delivery",
    "district": "NAMAKKAL",
    "statename": "TAMIL NADU",
    "latitude": "11.37081",
    "longitude": "78.07437"
  },
  {
    "circlename": "Tamilnadu Circle",
    "regionname": "Western Region Coimbatore",
    "divisionname": "Salem West Division",
    "officename": "Andagalur S.O",
    "pincode": "637401",
    "officetype": "PO",
    "delivery": "Delivery",
    "district": "NAMAKKAL",
    "statename": "TAMIL NADU",
    "latitude": "11.4450340",
    "longitude": "78.1563660"
  },
  {
    "circlename": "Tamilnadu Circle",
    "regionname": "Western Region Coimbatore",
    "divisionname": "Salem West Division",
    "officename": "Attanur S.O",
    "pincode": "636301",
    "officetype": "PO",
    "delivery": "Delivery",
    "district": "NAMAKKAL",
    "statename": "TAMIL NADU",
    "latitude": "11.4974780",
    "longitude": "78.1345640"
  },
  {
    "circlename": "Tamilnadu Circle",
    "regionname": "Western Region Coimbatore",
    "divisionname": "Salem West Division",
    "officename": "Singalandapuram S.O",
    "pincode": "637412",
    "officetype": "PO",
    "delivery": "Delivery",
    "district": "NAMAKKAL",
    "statename": "TAMIL NADU",
    "latitude": "11.4151800",
    "longitude": "78.2225840"
  },
  {
    "circlename": "Tamilnadu Circle",
    "regionname": "Western Region Coimbatore",
    "divisionname": "Namakkal Division",
    "officename": "Alanganatham B.O",
    "pincode": "637013",
    "officetype": "BO",
    "delivery": "Delivery",
    "district": "NAMAKKAL",
    "statename": "TAMIL NADU",
    "latitude": "11.1867890",
    "longitude": "78.2541080"
  },
  {
    "circlename": "Tamilnadu Circle",
    "regionname": "Western Region Coimbatore",
    "divisionname": "Namakkal Division",
    "officename": "Konangipatti B.O",
    "pincode": "637013",
    "officetype": "BO",
    "delivery": "Delivery",
    "district": "NAMAKKAL",
    "statename": "TAMIL NADU",
    "latitude": "11.1310800",
    "longitude": "78.2682300"
  },
  {
    "circlename": "Tamilnadu Circle",
    "regionname": "Western Region Coimbatore",
    "divisionname": "Namakkal Division",
    "officename": "Pottireddipatti B.O",
    "pincode": "637013",
    "officetype": "BO",
    "delivery": "Delivery",
    "district": "NAMAKKAL",
    "statename": "TAMIL NADU",
    "latitude": "11.1887590",
    "longitude": "78.2682300"
  },
  {
    "circlename": "Tamilnadu Circle",
    "regionname": "Western Region Coimbatore",
    "divisionname": "Namakkal Division",
    "officename": "Varadarajapuram B.O",
    "pincode": "637013",
    "officetype": "BO",
    "delivery": "Delivery",
    "district": "NAMAKKAL",
    "statename": "TAMIL NADU",
    "latitude": "11.1393200",
    "longitude": "78.3259080"
  },
  {
    "circlename": "Tamilnadu Circle",
    "regionname": "Western Region Coimbatore",
    "divisionname": "Namakkal Division",
    "officename": "Kanavaipatti B.O",
    "pincode": "637002",
    "officetype": "BO",
    "delivery": "Delivery",
    "district": "NAMAKKAL",
    "statename": "TAMIL NADU",
    "latitude": "11.1750260",
    "longitude": "78.1501270"
  },
  {
    "circlename": "Tamilnadu Circle",
    "regionname": "Western Region Coimbatore",
    "divisionname": "Namakkal Division",
    "officename": "Periyapatti B.O",
    "pincode": "637002",
    "officetype": "BO",
    "delivery": "Delivery",
    "district": "NAMAKKAL",
    "statename": "TAMIL NADU",
    "latitude": "11.2052380",
    "longitude": "78.1501270"
  },
  {
    "circlename": "Tamilnadu Circle",
    "regionname": "Western Region Coimbatore",
    "divisionname": "Namakkal Division",
    "officename": "Vasanthapuram B.O",
    "pincode": "637002",
    "officetype": "BO",
    "delivery": "Delivery",
    "district": "NAMAKKAL",
    "statename": "TAMIL NADU",
    "latitude": "11.1850070",
    "longitude": "78.1637380"
  },
  {
    "circlename": "Tamilnadu Circle",
    "regionname": "Western Region Coimbatore",
    "divisionname": "Namakkal Division",
    "officename": "Malaveppankuttai B.O",
    "pincode": "637404",
    "officetype": "BO",
    "delivery": "Delivery",
    "district": "NAMAKKAL",
    "statename": "TAMIL NADU",
    "latitude": "11.3698670",
    "longitude": "78.2618520"
  },
  {
    "circlename": "Tamilnadu Circle",
    "regionname": "Western Region Coimbatore",
    "divisionname": "Namakkal Division",
    "officename": "Thethukadu B.O",
    "pincode": "637404",
    "officetype": "BO",
    "delivery": "Delivery",
    "district": "NAMAKKAL",
    "statename": "TAMIL NADU",
    "latitude": "11.3671200",
    "longitude": "78.2536120"
  },
  {
    "circlename": "Tamilnadu Circle",
    "regionname": "Western Region Coimbatore",
    "divisionname": "Namakkal Division",
    "officename": "Kalangani B.O",
    "pincode": "637014",
    "officetype": "BO",
    "delivery": "Delivery",
    "district": "NAMAKKAL",
    "statename": "TAMIL NADU",
    "latitude": "11.3396550",
    "longitude": "78.1739610"
  },
  {
    "circlename": "Tamilnadu Circle",
    "regionname": "Western Region Coimbatore",
    "divisionname": "Namakkal Division",
    "officename": "Kannurpatti B.O",
    "pincode": "637014",
    "officetype": "BO",
    "delivery": "Delivery",
    "district": "NAMAKKAL",
    "statename": "TAMIL NADU",
    "latitude": "11.3918400",
    "longitude": "78.1767080"
  },
  {
    "circlename": "Tamilnadu Circle",
    "regionname": "Western Region Coimbatore",
    "divisionname": "Namakkal Division",
    "officename": "Ariyur B.O",
    "pincode": "637015",
    "officetype": "BO",
    "delivery": "Delivery",
    "district": "NAMAKKAL",
    "statename": "TAMIL NADU",
    "latitude": "11.1007020",
    "longitude": "78.1327630"
  },
  {
    "circlename": "Tamilnadu Circle",
    "regionname": "Western Region Coimbatore",
    "divisionname": "Namakkal Division",
    "officename": "Kumaripalayam B.O",
    "pincode": "637015",
    "officetype": "BO",
    "delivery": "Delivery",
    "district": "NAMAKKAL",
    "statename": "TAMIL NADU",
    "latitude": "11.0677430",
    "longitude": "78.1464960"
  },
  {
    "circlename": "Tamilnadu Circle",
    "regionname": "Western Region Coimbatore",
    "divisionname": "Namakkal Division",
    "officename": "Mudalaipatti B.O",
    "pincode": "637003",
    "officetype": "BO",
    "delivery": "Delivery",
    "district": "NAMAKKAL",
    "statename": "TAMIL NADU",
    "latitude": "11.2682430",
    "longitude": "78.1712150"
  },
  {
    "circlename": "Tamilnadu Circle",
    "regionname": "Western Region Coimbatore",
    "divisionname": "Namakkal Division",
    "officename": "Siluvampatti B.O",
    "pincode": "637003",
    "officetype": "BO",
    "delivery": "Delivery",
    "district": "NAMAKKAL",
    "statename": "TAMIL NADU",
    "latitude": "11.2600040",
    "longitude": "78.1300160"
  },
  {
    "circlename": "Tamilnadu Circle",
    "regionname": "Western Region Coimbatore",
    "divisionname": "Namakkal Division",
    "officename": "Thummankurichi B.O",
    "pincode": "637003",
    "officetype": "BO",
    "delivery": "Delivery",
    "district": "NAMAKKAL",
    "statename": "TAMIL NADU",
    "latitude": "11.2435240",
    "longitude": "78.0998040"
  },
  {
    "circlename": "Tamilnadu Circle",
    "regionname": "Western Region Coimbatore",
    "divisionname": "Namakkal Division",
    "officename": "Aniyapuram B.O",
    "pincode": "637017",
    "officetype": "BO",
    "delivery": "Delivery",
    "district": "NAMAKKAL",
    "statename": "TAMIL NADU",
    "latitude": "11.1528870",
    "longitude": "78.1464960"
  },
  {
    "circlename": "Tamilnadu Circle",
    "regionname": "Western Region Coimbatore",
    "divisionname": "Namakkal Division",
    "officename": "Adukkam B.O",
    "pincode": "637411",
    "officetype": "BO",
    "delivery": "Delivery",
    "district": "NAMAKKAL",
    "statename": "TAMIL NADU",
    "latitude": "11.2297910",
    "longitude": "78.3827020"
  },
  {
    "circlename": "Tamilnadu Circle",
    "regionname": "Western Region Coimbatore",
    "divisionname": "Namakkal Division",
    "officename": "Devanurnadu B.O",
    "pincode": "637411",
    "officetype": "BO",
    "delivery": "Delivery",
    "district": "NAMAKKAL",
    "statename": "TAMIL NADU",
    "latitude": "11.2234029",
    "longitude": "78.3864774"
  },
  {
    "circlename": "Tamilnadu Circle",
    "regionname": "Western Region Coimbatore",
    "divisionname": "Namakkal Division",
    "officename": "Edappulinadu B.O",
    "pincode": "637411",
    "officetype": "BO",
    "delivery": "Delivery",
    "district": "NAMAKKAL",
    "statename": "TAMIL NADU",
    "latitude": "11.3732183",
    "longitude": "78.3567000"
  },
  {
    "circlename": "Tamilnadu Circle",
    "regionname": "Western Region Coimbatore",
    "divisionname": "Namakkal Division",
    "officename": "Navakkadu B.O",
    "pincode": "637411",
    "officetype": "BO",
    "delivery": "Delivery",
    "district": "NAMAKKAL",
    "statename": "TAMIL NADU",
    "latitude": "11.3856033",
    "longitude": "78.3390400"
  },
  {
    "circlename": "Tamilnadu Circle",
    "regionname": "Western Region Coimbatore",
    "divisionname": "Namakkal Division",
    "officename": "Veeraganurpatti B.O",
    "pincode": "637411",
    "officetype": "BO",
    "delivery": "Delivery",
    "district": "NAMAKKAL",
    "statename": "TAMIL NADU",
    "latitude": "11.2217928",
    "longitude": "78.3088096"
  },
  {
    "circlename": "Tamilnadu Circle",
    "regionname": "Western Region Coimbatore",
    "divisionname": "Namakkal Division",
    "officename": "Pottanam B.O",
    "pincode": "637409",
    "officetype": "BO",
    "delivery": "Delivery",
    "district": "NAMAKKAL",
    "statename": "TAMIL NADU",
    "latitude": "11.2926650",
    "longitude": "78.2052100"
  },
  {
    "circlename": "Tamilnadu Circle",
    "regionname": "Western Region Coimbatore",
    "divisionname": "Namakkal Division",
    "officename": "Mettupatti B.O",
    "pincode": "637020",
    "officetype": "BO",
    "delivery": "Delivery",
    "district": "NAMAKKAL",
    "statename": "TAMIL NADU",
    "latitude": "11.1070620",
    "longitude": "78.2390400"
  },
  {
    "circlename": "Tamilnadu Circle",
    "regionname": "Western Region Coimbatore",
    "divisionname": "Namakkal Division",
    "officename": "Parali B.O",
    "pincode": "637020",
    "officetype": "BO",
    "delivery": "Delivery",
    "district": "NAMAKKAL",
    "statename": "TAMIL NADU",
    "latitude": "11.1153020",
    "longitude": "78.1841090"
  },
  {
    "circlename": "Tamilnadu Circle",
    "regionname": "Western Region Coimbatore",
    "divisionname": "Namakkal Division",
    "officename": "Thaligai B.O",
    "pincode": "637212",
    "officetype": "BO",
    "delivery": "Delivery",
    "district": "NAMAKKAL",
    "statename": "TAMIL NADU",
    "latitude": "11.2701790",
    "longitude": "78.0592920"
  },
  {
    "circlename": "Tamilnadu Circle",
    "regionname": "Western Region Coimbatore",
    "divisionname": "Namakkal Division",
    "officename": "Kosavampalayam B.O",
    "pincode": "637201",
    "officetype": "BO",
    "delivery": "Delivery",
    "district": "NAMAKKAL",
    "statename": "TAMIL NADU",
    "latitude": "11.2782030",
    "longitude": "77.9087420"
  },
  {
    "circlename": "Tamilnadu Circle",
    "regionname": "Western Region Coimbatore",
    "divisionname": "Namakkal Division",
    "officename": "Iluppili B.O",
    "pincode": "637202",
    "officetype": "BO",
    "delivery": "Delivery",
    "district": "NAMAKKAL",
    "statename": "TAMIL NADU",
    "latitude": "11.3630170",
    "longitude": "78.0147790"
  },
  {
    "circlename": "Tamilnadu Circle",
    "regionname": "Western Region Coimbatore",
    "divisionname": "Namakkal Division",
    "officename": "Koothampoondi B.O",
    "pincode": "637202",
    "officetype": "BO",
    "delivery": "Delivery",
    "district": "NAMAKKAL",
    "statename": "TAMIL NADU",
    "latitude": "11.3077420",
    "longitude": "78.0058590"
  },
  {
    "circlename": "Tamilnadu Circle",
    "regionname": "Western Region Coimbatore",
    "divisionname": "Namakkal Division",
    "officename": "Kavundipalayam B.O",
    "pincode": "637203",
    "officetype": "BO",
    "delivery": "Delivery",
    "district": "NAMAKKAL",
    "statename": "TAMIL NADU",
    "latitude": "11.2529049",
    "longitude": "77.9578433"
  },
  {
    "circlename": "Tamilnadu Circle",
    "regionname": "Western Region Coimbatore",
    "divisionname": "Namakkal Division",
    "officename": "Kondarasampalayam B.O",
    "pincode": "637203",
    "officetype": "BO",
    "delivery": "Delivery",
    "district": "NAMAKKAL",
    "statename": "TAMIL NADU",
    "latitude": "11.2417416",
    "longitude": "77.9264183"
  },
  {
    "circlename": "Tamilnadu Circle",
    "regionname": "Western Region Coimbatore",
    "divisionname": "Namakkal Division",
    "officename": "Sithampoondi B.O",
    "pincode": "637203",
    "officetype": "BO",
    "delivery": "Delivery",
    "district": "NAMAKKAL",
    "statename": "TAMIL NADU",
    "latitude": "11.2391183",
    "longitude": "77.9065666"
  },
  {
    "circlename": "Tamilnadu Circle",
    "regionname": "Western Region Coimbatore",
    "divisionname": "Namakkal Division",
    "officename": "Irukkur B.O",
    "pincode": "637204",
    "officetype": "BO",
    "delivery": "Delivery",
    "district": "NAMAKKAL",
    "statename": "TAMIL NADU",
    "latitude": "11.1454483",
    "longitude": "77.9663566"
  },
  {
    "circlename": "Tamilnadu Circle",
    "regionname": "Western Region Coimbatore",
    "divisionname": "Namakkal Division",
    "officename": "Kullanaickenpalayam B.O",
    "pincode": "638183",
    "officetype": "BO",
    "delivery": "Non Delivery",
    "district": "NAMAKKAL",
    "statename": "TAMIL NADU",
    "latitude": "11.4140834",
    "longitude": "77.7132008"
  },
  {
    "circlename": "Tamilnadu Circle",
    "regionname": "Western Region Coimbatore",
    "divisionname": "Namakkal Division",
    "officename": "Animoor B.O",
    "pincode": "637214",
    "officetype": "BO",
    "delivery": "Delivery",
    "district": "NAMAKKAL",
    "statename": "TAMIL NADU",
    "latitude": "11.3384399",
    "longitude": "77.8716483"
  },
  {
    "circlename": "Tamilnadu Circle",
    "regionname": "Western Region Coimbatore",
    "divisionname": "Namakkal Division",
    "officename": "Emappalli B.O",
    "pincode": "637214",
    "officetype": "BO",
    "delivery": "Delivery",
    "district": "NAMAKKAL",
    "statename": "TAMIL NADU",
    "latitude": "11.3260266",
    "longitude": "77.8332516"
  },
  {
    "circlename": "Tamilnadu Circle",
    "regionname": "Western Region Coimbatore",
    "divisionname": "Namakkal Division",
    "officename": "UnjanaiKavundampalayam B.O",
    "pincode": "637205",
    "officetype": "BO",
    "delivery": "Delivery",
    "district": "NAMAKKAL",
    "statename": "TAMIL NADU",
    "latitude": "11.3401416",
    "longitude": "77.9787916"
  },
  {
    "circlename": "Tamilnadu Circle",
    "regionname": "Western Region Coimbatore",
    "divisionname": "Namakkal Division",
    "officename": "Karumanur B.O",
    "pincode": "637503",
    "officetype": "BO",
    "delivery": "Delivery",
    "district": "NAMAKKAL",
    "statename": "TAMIL NADU",
    "latitude": "11.4658731",
    "longitude": "78.0002130"
  },
  {
    "circlename": "Tamilnadu Circle",
    "regionname": "Western Region Coimbatore",
    "divisionname": "Namakkal Division",
    "officename": "Koodacheri B.O",
    "pincode": "637206",
    "officetype": "BO",
    "delivery": "Non Delivery",
    "district": "NAMAKKAL",
    "statename": "TAMIL NADU",
    "latitude": "11.2208480",
    "longitude": "78.0144490"
  },
  {
    "circlename": "Tamilnadu Circle",
    "regionname": "Western Region Coimbatore",
    "divisionname": "Namakkal Division",
    "officename": "Kaliyanur B.O",
    "pincode": "638008",
    "officetype": "BO",
    "delivery": "Delivery",
    "district": "NAMAKKAL",
    "statename": "TAMIL NADU",
    "latitude": "11.3852133",
    "longitude": "77.7410766"
  },
  {
    "circlename": "Tamilnadu Circle",
    "regionname": "Western Region Coimbatore",
    "divisionname": "Namakkal Division",
    "officename": "Kulakkattupudur B.O",
    "pincode": "637208",
    "officetype": "BO",
    "delivery": "Non Delivery",
    "district": "NAMAKKAL",
    "statename": "TAMIL NADU",
    "latitude": "11.0965966",
    "longitude": "77.9560983"
  },
  {
    "circlename": "Tamilnadu Circle",
    "regionname": "Western Region Coimbatore",
    "divisionname": "Namakkal Division",
    "officename": "Padaivedu B.O",
    "pincode": "637303",
    "officetype": "BO",
    "delivery": "Non Delivery",
    "district": "NAMAKKAL",
    "statename": "TAMIL NADU",
    "latitude": "11.4637720",
    "longitude": "77.8188240"
  },
  {
    "circlename": "Tamilnadu Circle",
    "regionname": "Western Region Coimbatore",
    "divisionname": "Namakkal Division",
    "officename": "Pallakkapalayam B.O",
    "pincode": "637303",
    "officetype": "BO",
    "delivery": "Delivery",
    "district": "NAMAKKAL",
    "statename": "TAMIL NADU",
    "latitude": "11.4521700",
    "longitude": "77.7755100"
  },
  {
    "circlename": "Tamilnadu Circle",
    "regionname": "Western Region Coimbatore",
    "divisionname": "Namakkal Division",
    "officename": "Devanankurichi B.O",
    "pincode": "637209",
    "officetype": "BO",
    "delivery": "Delivery",
    "district": "NAMAKKAL",
    "statename": "TAMIL NADU",
    "latitude": "11.3894554",
    "longitude": "77.8570253"
  },
  {
    "circlename": "Tamilnadu Circle",
    "regionname": "Western Region Coimbatore",
    "divisionname": "Namakkal Division",
    "officename": "Zamin Elampalli B.O",
    "pincode": "637210",
    "officetype": "BO",
    "delivery": "Delivery",
    "district": "NAMAKKAL",
    "statename": "TAMIL NADU",
    "latitude": "11.2193650",
    "longitude": "77.8759680"
  },
  {
    "circlename": "Tamilnadu Circle",
    "regionname": "Western Region Coimbatore",
    "divisionname": "Namakkal Division",
    "officename": "Anichampalayam B.O",
    "pincode": "638182",
    "officetype": "BO",
    "delivery": "Delivery",
    "district": "NAMAKKAL",
    "statename": "TAMIL NADU",
    "latitude": "11.1007183",
    "longitude": "78.0202133"
  },
  {
    "circlename": "Tamilnadu Circle",
    "regionname": "Western Region Coimbatore",
    "divisionname": "Namakkal Division",
    "officename": "Unjapalayam B.O",
    "pincode": "638182",
    "officetype": "BO",
    "delivery": "Delivery",
    "district": "NAMAKKAL",
    "statename": "TAMIL NADU",
    "latitude": "11.1583950",
    "longitude": "78.0289030"
  },
  {
    "circlename": "Tamilnadu Circle",
    "regionname": "Western Region Coimbatore",
    "divisionname": "Salem East Division",
    "officename": "Unanthangal B.O",
    "pincode": "636142",
    "officetype": "BO",
    "delivery": "Delivery",
    "district": "NAMAKKAL",
    "statename": "TAMIL NADU",
    "latitude": "11.4520040",
    "longitude": "78.3803215"
  },
  {
    "circlename": "Tamilnadu Circle",
    "regionname": "Western Region Coimbatore",
    "divisionname": "Salem East Division",
    "officename": "Perappancholai B.O",
    "pincode": "636113",
    "officetype": "BO",
    "delivery": "Delivery",
    "district": "NAMAKKAL",
    "statename": "TAMIL NADU",
    "latitude": "11.4216318",
    "longitude": "78.4334352"
  },
  {
    "circlename": "Tamilnadu Circle",
    "regionname": "Western Region Coimbatore",
    "divisionname": "Salem East Division",
    "officename": "R.Komarapalayam B.O",
    "pincode": "636203",
    "officetype": "BO",
    "delivery": "Non Delivery",
    "district": "NAMAKKAL",
    "statename": "TAMIL NADU",
    "latitude": "11.5413214",
    "longitude": "78.1323900"
  },
  {
    "circlename": "Tamilnadu Circle",
    "regionname": "Western Region Coimbatore",
    "divisionname": "Salem West Division",
    "officename": "Chandrasekarapuram B.O",
    "pincode": "637401",
    "officetype": "BO",
    "delivery": "Delivery",
    "district": "NAMAKKAL",
    "statename": "TAMIL NADU",
    "latitude": "11.4373420",
    "longitude": "78.1827480"
  },
  {
    "circlename": "Tamilnadu Circle",
    "regionname": "Western Region Coimbatore",
    "divisionname": "Salem West Division",
    "officename": "Kurukkapuram B.O",
    "pincode": "637401",
    "officetype": "BO",
    "delivery": "Delivery",
    "district": "NAMAKKAL",
    "statename": "TAMIL NADU",
    "latitude": "11.4368380",
    "longitude": "78.1437380"
  },
  {
    "circlename": "Tamilnadu Circle",
    "regionname": "Western Region Coimbatore",
    "divisionname": "Salem West Division",
    "officename": "Muthukalipatti B.O",
    "pincode": "637401",
    "officetype": "BO",
    "delivery": "Delivery",
    "district": "NAMAKKAL",
    "statename": "TAMIL NADU",
    "latitude": "11.4640140",
    "longitude": "78.1695840"
  },
  {
    "circlename": "Tamilnadu Circle",
    "regionname": "Western Region Coimbatore",
    "divisionname": "Salem West Division",
    "officename": "Thimmanaickenpatti B.O",
    "pincode": "636202",
    "officetype": "BO",
    "delivery": "Delivery",
    "district": "NAMAKKAL",
    "statename": "TAMIL NADU",
    "latitude": "11.5877350",
    "longitude": "78.4446890"
  },
  {
    "circlename": "Tamilnadu Circle",
    "regionname": "Western Region Coimbatore",
    "divisionname": "Salem West Division",
    "officename": "Pachudayampalayam B.O",
    "pincode": "637406",
    "officetype": "BO",
    "delivery": "Delivery",
    "district": "NAMAKKAL",
    "statename": "TAMIL NADU",
    "latitude": "11.4338170",
    "longitude": "78.2658320"
  },
  {
    "circlename": "Tamilnadu Circle",
    "regionname": "Western Region Coimbatore",
    "divisionname": "Salem West Division",
    "officename": "Sirapalli B.O",
    "pincode": "637406",
    "officetype": "BO",
    "delivery": "Delivery",
    "district": "NAMAKKAL",
    "statename": "TAMIL NADU",
    "latitude": "11.4558110",
    "longitude": "78.2444820"
  },
  {
    "circlename": "Tamilnadu Circle",
    "regionname": "Western Region Coimbatore",
    "divisionname": "Salem West Division",
    "officename": "Vadugam Muniappampalayam B.O",
    "pincode": "637407",
    "officetype": "BO",
    "delivery": "Delivery",
    "district": "NAMAKKAL",
    "statename": "TAMIL NADU",
    "latitude": "11.4709520",
    "longitude": "78.2338520"
  },
  {
    "circlename": "Tamilnadu Circle",
    "regionname": "Western Region Coimbatore",
    "divisionname": "Salem West Division",
    "officename": "Kadiranallur B.O",
    "pincode": "637412",
    "officetype": "BO",
    "delivery": "Delivery",
    "district": "NAMAKKAL",
    "statename": "TAMIL NADU",
    "latitude": "11.3920800",
    "longitude": "78.2033150"
  },
  {
    "circlename": "Tamilnadu Circle",
    "regionname": "Western Region Coimbatore",
    "divisionname": "Salem West Division",
    "officename": "O.Sowdapuram B.O",
    "pincode": "637505",
    "officetype": "BO",
    "delivery": "Delivery",
    "district": "NAMAKKAL",
    "statename": "TAMIL NADU",
    "latitude": "11.4763860",
    "longitude": "78.0885330"
  },
  {
    "circlename": "Tamilnadu Circle",
    "regionname": "Western Region Coimbatore",
    "divisionname": "Salem West Division",
    "officename": "Sappayapuram B.O",
    "pincode": "637505",
    "officetype": "BO",
    "delivery": "Delivery",
    "district": "NAMAKKAL",
    "statename": "TAMIL NADU",
    "latitude": "11.5184860",
    "longitude": "78.0694570"
  },
  {
    "circlename": "Tamilnadu Circle",
    "regionname": "Central Region Trichirapalli",
    "divisionname": "Srirangam Division",
    "officename": "Seventhipatti B.O",
    "pincode": "621215",
    "officetype": "BO",
    "delivery": "Delivery",
    "district": "NAMAKKAL",
    "statename": "TAMIL NADU",
    "latitude": "11.0300000",
    "longitude": "78.3300000"
  },
  {
    "circlename": "Tamilnadu Circle",
    "regionname": "Western Region Coimbatore",
    "divisionname": "Namakkal Division",
    "officename": "Namakkal H.O",
    "pincode": "637001",
    "officetype": "HO",
    "delivery": "Delivery",
    "district": "NAMAKKAL",
    "statename": "TAMIL NADU",
    "latitude": "11.2155833",
    "longitude": "78.1702778"
  },
  {
    "circlename": "Tamilnadu Circle",
    "regionname": "Western Region Coimbatore",
    "divisionname": "Namakkal Division",
    "officename": "Namakkal Fort S.O",
    "pincode": "637001",
    "officetype": "PO",
    "delivery": "Non Delivery",
    "district": "NAMAKKAL",
    "statename": "TAMIL NADU",
    "latitude": "11.2380000",
    "longitude": "78.1660000"
  },
  {
    "circlename": "Tamilnadu Circle",
    "regionname": "Western Region Coimbatore",
    "divisionname": "Namakkal Division",
    "officename": "Sellappampatti S.O",
    "pincode": "637019",
    "officetype": "PO",
    "delivery": "Delivery",
    "district": "NAMAKKAL",
    "statename": "TAMIL NADU",
    "latitude": "11.3100000",
    "longitude": "78.1691667"
  },
  {
    "circlename": "Tamilnadu Circle",
    "regionname": "Western Region Coimbatore",
    "divisionname": "Namakkal Division",
    "officename": "Semmedu S.O",
    "pincode": "637411",
    "officetype": "PO",
    "delivery": "Delivery",
    "district": "NAMAKKAL",
    "statename": "TAMIL NADU",
    "latitude": "11.2155833",
    "longitude": "78.1702778"
  },
  {
    "circlename": "Tamilnadu Circle",
    "regionname": "Western Region Coimbatore",
    "divisionname": "Namakkal Division",
    "officename": "Sendamangalam S.O",
    "pincode": "637409",
    "officetype": "PO",
    "delivery": "Delivery",
    "district": "NAMAKKAL",
    "statename": "TAMIL NADU",
    "latitude": "11.2819167",
    "longitude": "78.2338333"
  },
  {
    "circlename": "Tamilnadu Circle",
    "regionname": "Western Region Coimbatore",
    "divisionname": "Namakkal Division",
    "officename": "Velagoundampatti S.O",
    "pincode": "637212",
    "officetype": "PO",
    "delivery": "Delivery",
    "district": "NAMAKKAL",
    "statename": "TAMIL NADU",
    "latitude": "11.2904444",
    "longitude": "78.0699722"
  },
  {
    "circlename": "Tamilnadu Circle",
    "regionname": "Western Region Coimbatore",
    "divisionname": "Namakkal Division",
    "officename": "Namakkal District Court Buildings S.O",
    "pincode": "637003",
    "officetype": "PO",
    "delivery": "Non Delivery",
    "district": "NAMAKKAL",
    "statename": "TAMIL NADU",
    "latitude": "11.2497338",
    "longitude": "78.1265014"
  },
  {
    "circlename": "Tamilnadu Circle",
    "regionname": "Western Region Coimbatore",
    "divisionname": "Namakkal Division",
    "officename": "Kandampalayam S.O",
    "pincode": "637203",
    "officetype": "PO",
    "delivery": "Delivery",
    "district": "NAMAKKAL",
    "statename": "TAMIL NADU",
    "latitude": "11.2638056",
    "longitude": "77.9475278"
  },
  {
    "circlename": "Tamilnadu Circle",
    "regionname": "Western Region Coimbatore",
    "divisionname": "Namakkal Division",
    "officename": "Komarapalayam S.O",
    "pincode": "638183",
    "officetype": "PO",
    "delivery": "Delivery",
    "district": "NAMAKKAL",
    "statename": "TAMIL NADU",
    "latitude": "11.4417778",
    "longitude": "77.6918056"
  },
  {
    "circlename": "Tamilnadu Circle",
    "regionname": "Western Region Coimbatore",
    "divisionname": "Namakkal Division",
    "officename": "Mallasamudram S.O",
    "pincode": "637503",
    "officetype": "PO",
    "delivery": "Delivery",
    "district": "NAMAKKAL",
    "statename": "TAMIL NADU",
    "latitude": "11.2938889",
    "longitude": "78.0141111"
  },
  {
    "circlename": "Tamilnadu Circle",
    "regionname": "Western Region Coimbatore",
    "divisionname": "Namakkal Division",
    "officename": "Pothanur S.O",
    "pincode": "638181",
    "officetype": "PO",
    "delivery": "Delivery",
    "district": "NAMAKKAL",
    "statename": "TAMIL NADU",
    "latitude": "11.1103610",
    "longitude": "77.9911690"
  },
  {
    "circlename": "Tamilnadu Circle",
    "regionname": "Western Region Coimbatore",
    "divisionname": "Namakkal Division",
    "officename": "Seetharamapalayam S.O",
    "pincode": "637209",
    "officetype": "PO",
    "delivery": "Delivery",
    "district": "NAMAKKAL",
    "statename": "TAMIL NADU",
    "latitude": "11.3900556",
    "longitude": "77.8910556"
  },
  {
    "circlename": "Tamilnadu Circle",
    "regionname": "Western Region Coimbatore",
    "divisionname": "Salem West Division",
    "officename": "Gurusamipalayam S.O",
    "pincode": "637403",
    "officetype": "PO",
    "delivery": "Delivery",
    "district": "NAMAKKAL",
    "statename": "TAMIL NADU",
    "latitude": "11.4289120",
    "longitude": "78.1343860"
  },
  {
    "circlename": "Tamilnadu Circle",
    "regionname": "Western Region Coimbatore",
    "divisionname": "Salem West Division",
    "officename": "Pudupatti S.O (Salem)",
    "pincode": "637407",
    "officetype": "PO",
    "delivery": "Delivery",
    "district": "NAMAKKAL",
    "statename": "TAMIL NADU",
    "latitude": "11.4947910",
    "longitude": "78.2680880"
  },
  {
    "circlename": "Tamilnadu Circle",
    "regionname": "Western Region Coimbatore",
    "divisionname": "Erode Division",
    "officename": "Kokkarayanpettai BO",
    "pincode": "638007",
    "officetype": "BO",
    "delivery": "Delivery",
    "district": "NAMAKKAL",
    "statename": "TAMIL NADU",
    "latitude": "11.3130967",
    "longitude": "77.7890451"
  },
  {
    "circlename": "Tamilnadu Circle",
    "regionname": "Western Region Coimbatore",
    "divisionname": "Namakkal Division",
    "officename": "Kalkurichi B.O",
    "pincode": "637402",
    "officetype": "BO",
    "delivery": "Delivery",
    "district": "NAMAKKAL",
    "statename": "TAMIL NADU",
    "latitude": "11.4051420",
    "longitude": "78.2609750"
  },
  {
    "circlename": "Tamilnadu Circle",
    "regionname": "Western Region Coimbatore",
    "divisionname": "Namakkal Division",
    "officename": "Ponneri B.O",
    "pincode": "637013",
    "officetype": "BO",
    "delivery": "Delivery",
    "district": "NAMAKKAL",
    "statename": "TAMIL NADU",
    "latitude": "11.1667860",
    "longitude": "78.2682300"
  },
  {
    "circlename": "Tamilnadu Circle",
    "regionname": "Western Region Coimbatore",
    "divisionname": "Namakkal Division",
    "officename": "Laddivadi B.O",
    "pincode": "637002",
    "officetype": "BO",
    "delivery": "Delivery",
    "district": "NAMAKKAL",
    "statename": "TAMIL NADU",
    "latitude": "11.1695320",
    "longitude": "78.1748460"
  },
  {
    "circlename": "Tamilnadu Circle",
    "regionname": "Western Region Coimbatore",
    "divisionname": "Namakkal Division",
    "officename": "Naducombai B.O",
    "pincode": "637404",
    "officetype": "BO",
    "delivery": "Delivery",
    "district": "NAMAKKAL",
    "statename": "TAMIL NADU",
    "latitude": "11.3314150",
    "longitude": "78.3057970"
  },
  {
    "circlename": "Tamilnadu Circle",
    "regionname": "Western Region Coimbatore",
    "divisionname": "Namakkal Division",
    "officename": "Thuthikulam B.O",
    "pincode": "637404",
    "officetype": "BO",
    "delivery": "Delivery",
    "district": "NAMAKKAL",
    "statename": "TAMIL NADU",
    "latitude": "11.3204280",
    "longitude": "78.2316400"
  },
  {
    "circlename": "Tamilnadu Circle",
    "regionname": "Western Region Coimbatore",
    "divisionname": "Namakkal Division",
    "officename": "Tataiyangarpatti B.O",
    "pincode": "637014",
    "officetype": "BO",
    "delivery": "Delivery",
    "district": "NAMAKKAL",
    "statename": "TAMIL NADU",
    "latitude": "11.3726140",
    "longitude": "78.1657220"
  },
  {
    "circlename": "Tamilnadu Circle",
    "regionname": "Western Region Coimbatore",
    "divisionname": "Namakkal Division",
    "officename": "Kondamanaickenpatti B.O",
    "pincode": "637405",
    "officetype": "BO",
    "delivery": "Delivery",
    "district": "NAMAKKAL",
    "statename": "TAMIL NADU",
    "latitude": "11.2682430",
    "longitude": "78.2124140"
  },
  {
    "circlename": "Tamilnadu Circle",
    "regionname": "Western Region Coimbatore",
    "divisionname": "Namakkal Division",
    "officename": "Palayapalayam B.O",
    "pincode": "637405",
    "officetype": "BO",
    "delivery": "Delivery",
    "district": "NAMAKKAL",
    "statename": "TAMIL NADU",
    "latitude": "11.2297910",
    "longitude": "78.2481190"
  },
  {
    "circlename": "Tamilnadu Circle",
    "regionname": "Western Region Coimbatore",
    "divisionname": "Namakkal Division",
    "officename": "Ernapuram B.O",
    "pincode": "637003",
    "officetype": "BO",
    "delivery": "Delivery",
    "district": "NAMAKKAL",
    "statename": "TAMIL NADU",
    "latitude": "11.2545100",
    "longitude": "78.0970570"
  },
  {
    "circlename": "Tamilnadu Circle",
    "regionname": "Western Region Coimbatore",
    "divisionname": "Namakkal Division",
    "officename": "Vallipuram B.O",
    "pincode": "637003",
    "officetype": "BO",
    "delivery": "Delivery",
    "district": "NAMAKKAL",
    "statename": "TAMIL NADU",
    "latitude": "11.2188050",
    "longitude": "78.1162830"
  },
  {
    "circlename": "Tamilnadu Circle",
    "regionname": "Western Region Coimbatore",
    "divisionname": "Namakkal Division",
    "officename": "K.Pudupalayam B.O",
    "pincode": "637017",
    "officetype": "BO",
    "delivery": "Delivery",
    "district": "NAMAKKAL",
    "statename": "TAMIL NADU",
    "latitude": "11.1583800",
    "longitude": "78.0970570"
  },
  {
    "circlename": "Tamilnadu Circle",
    "regionname": "Western Region Coimbatore",
    "divisionname": "Namakkal Division",
    "officename": "S.Vazhavandhi B.O",
    "pincode": "637017",
    "officetype": "BO",
    "delivery": "Delivery",
    "district": "NAMAKKAL",
    "statename": "TAMIL NADU",
    "latitude": "11.1171810",
    "longitude": "78.0970570"
  },
  {
    "circlename": "Tamilnadu Circle",
    "regionname": "Western Region Coimbatore",
    "divisionname": "Namakkal Division",
    "officename": "E.Pudupatti B.O",
    "pincode": "637018",
    "officetype": "BO",
    "delivery": "Delivery",
    "district": "NAMAKKAL",
    "statename": "TAMIL NADU",
    "latitude": "11.3808530",
    "longitude": "78.0888170"
  },
  {
    "circlename": "Tamilnadu Circle",
    "regionname": "Western Region Coimbatore",
    "divisionname": "Namakkal Division",
    "officename": "Veppampattiypudur B.O",
    "pincode": "637018",
    "officetype": "BO",
    "delivery": "Delivery",
    "district": "NAMAKKAL",
    "statename": "TAMIL NADU",
    "latitude": "11.3808530",
    "longitude": "78.0805780"
  },
  {
    "circlename": "Tamilnadu Circle",
    "regionname": "Western Region Coimbatore",
    "divisionname": "Namakkal Division",
    "officename": "Avalnaickenpatty B.O",
    "pincode": "637019",
    "officetype": "BO",
    "delivery": "Delivery",
    "district": "NAMAKKAL",
    "statename": "TAMIL NADU",
    "latitude": "11.2819760",
    "longitude": "78.1794550"
  },
  {
    "circlename": "Tamilnadu Circle",
    "regionname": "Western Region Coimbatore",
    "divisionname": "Namakkal Division",
    "officename": "Bailnadu B.O",
    "pincode": "637411",
    "officetype": "BO",
    "delivery": "Delivery",
    "district": "NAMAKKAL",
    "statename": "TAMIL NADU",
    "latitude": "11.3940833",
    "longitude": "78.3280783"
  },
  {
    "circlename": "Tamilnadu Circle",
    "regionname": "Western Region Coimbatore",
    "divisionname": "Namakkal Division",
    "officename": "Mekkinikadu B.O",
    "pincode": "637411",
    "officetype": "BO",
    "delivery": "Delivery",
    "district": "NAMAKKAL",
    "statename": "TAMIL NADU",
    "latitude": "11.3748933",
    "longitude": "78.3304300"
  },
  {
    "circlename": "Tamilnadu Circle",
    "regionname": "Western Region Coimbatore",
    "divisionname": "Namakkal Division",
    "officename": "Sundakattupatti B.O",
    "pincode": "637411",
    "officetype": "BO",
    "delivery": "Delivery",
    "district": "NAMAKKAL",
    "statename": "TAMIL NADU",
    "latitude": "11.3317999",
    "longitude": "78.4085999"
  },
  {
    "circlename": "Tamilnadu Circle",
    "regionname": "Western Region Coimbatore",
    "divisionname": "Namakkal Division",
    "officename": "Valappurnadu B.O",
    "pincode": "637411",
    "officetype": "BO",
    "delivery": "Delivery",
    "district": "NAMAKKAL",
    "statename": "TAMIL NADU",
    "latitude": "11.2767394",
    "longitude": "78.3963469"
  },
  {
    "circlename": "Tamilnadu Circle",
    "regionname": "Western Region Coimbatore",
    "divisionname": "Namakkal Division",
    "officename": "Valavanthinadu B.O",
    "pincode": "637411",
    "officetype": "BO",
    "delivery": "Delivery",
    "district": "NAMAKKAL",
    "statename": "TAMIL NADU",
    "latitude": "11.2785861",
    "longitude": "78.3372613"
  },
  {
    "circlename": "Tamilnadu Circle",
    "regionname": "Western Region Coimbatore",
    "divisionname": "Namakkal Division",
    "officename": "Arur B.O",
    "pincode": "637020",
    "officetype": "BO",
    "delivery": "Delivery",
    "district": "NAMAKKAL",
    "statename": "TAMIL NADU",
    "latitude": "11.0998900",
    "longitude": "78.2103540"
  },
  {
    "circlename": "Tamilnadu Circle",
    "regionname": "Western Region Coimbatore",
    "divisionname": "Namakkal Division",
    "officename": "Devarayapuram B.O",
    "pincode": "637021",
    "officetype": "BO",
    "delivery": "Delivery",
    "district": "NAMAKKAL",
    "statename": "TAMIL NADU",
    "latitude": "11.1592470",
    "longitude": "78.3159440"
  },
  {
    "circlename": "Tamilnadu Circle",
    "regionname": "Western Region Coimbatore",
    "divisionname": "Namakkal Division",
    "officename": "Pavitram B.O",
    "pincode": "637021",
    "officetype": "BO",
    "delivery": "Delivery",
    "district": "NAMAKKAL",
    "statename": "TAMIL NADU",
    "latitude": "11.1400210",
    "longitude": "78.3653830"
  },
  {
    "circlename": "Tamilnadu Circle",
    "regionname": "Western Region Coimbatore",
    "divisionname": "Namakkal Division",
    "officename": "Pavithirampudur B.O",
    "pincode": "637021",
    "officetype": "BO",
    "delivery": "Delivery",
    "district": "NAMAKKAL",
    "statename": "TAMIL NADU",
    "latitude": "11.1537540",
    "longitude": "78.3763690"
  },
  {
    "circlename": "Tamilnadu Circle",
    "regionname": "Western Region Coimbatore",
    "divisionname": "Namakkal Division",
    "officename": "Akkalampatti B.O",
    "pincode": "637212",
    "officetype": "BO",
    "delivery": "Delivery",
    "district": "NAMAKKAL",
    "statename": "TAMIL NADU",
    "latitude": "11.3267890",
    "longitude": "78.0687520"
  },
  {
    "circlename": "Tamilnadu Circle",
    "regionname": "Western Region Coimbatore",
    "divisionname": "Namakkal Division",
    "officename": "Kodur Mitta B.O",
    "pincode": "637212",
    "officetype": "BO",
    "delivery": "Delivery",
    "district": "NAMAKKAL",
    "statename": "TAMIL NADU",
    "latitude": "11.2685000",
    "longitude": "78.0031390"
  },
  {
    "circlename": "Tamilnadu Circle",
    "regionname": "Western Region Coimbatore",
    "divisionname": "Namakkal Division",
    "officename": "Pirantagam B.O",
    "pincode": "637212",
    "officetype": "BO",
    "delivery": "Delivery",
    "district": "NAMAKKAL",
    "statename": "TAMIL NADU",
    "latitude": "11.2427130",
    "longitude": "78.0263330"
  },
  {
    "circlename": "Tamilnadu Circle",
    "regionname": "Western Region Coimbatore",
    "divisionname": "Namakkal Division",
    "officename": "Karichchipalayam B.O",
    "pincode": "637201",
    "officetype": "BO",
    "delivery": "Delivery",
    "district": "NAMAKKAL",
    "statename": "TAMIL NADU",
    "latitude": "11.3022360",
    "longitude": "77.9774070"
  },
  {
    "circlename": "Tamilnadu Circle",
    "regionname": "Western Region Coimbatore",
    "divisionname": "Namakkal Division",
    "officename": "Kolaram B.O",
    "pincode": "637201",
    "officetype": "BO",
    "delivery": "Delivery",
    "district": "NAMAKKAL",
    "statename": "TAMIL NADU",
    "latitude": "11.2830100",
    "longitude": "77.9829000"
  },
  {
    "circlename": "Tamilnadu Circle",
    "regionname": "Western Region Coimbatore",
    "divisionname": "Namakkal Division",
    "officename": "Pullagoundanpatti B.O",
    "pincode": "637202",
    "officetype": "BO",
    "delivery": "Delivery",
    "district": "NAMAKKAL",
    "statename": "TAMIL NADU",
    "latitude": "11.3362380",
    "longitude": "78.0044860"
  },
  {
    "circlename": "Tamilnadu Circle",
    "regionname": "Western Region Coimbatore",
    "divisionname": "Namakkal Division",
    "officename": "Kurumbalamahadevi B.O",
    "pincode": "637213",
    "officetype": "BO",
    "delivery": "Delivery",
    "district": "NAMAKKAL",
    "statename": "TAMIL NADU",
    "latitude": "11.2039653",
    "longitude": "77.8698707"
  },
  {
    "circlename": "Tamilnadu Circle",
    "regionname": "Western Region Coimbatore",
    "divisionname": "Namakkal Division",
    "officename": "Pilikkalpalayam B.O",
    "pincode": "637213",
    "officetype": "BO",
    "delivery": "Delivery",
    "district": "NAMAKKAL",
    "statename": "TAMIL NADU",
    "latitude": "11.0897339",
    "longitude": "77.9075333"
  },
  {
    "circlename": "Tamilnadu Circle",
    "regionname": "Western Region Coimbatore",
    "divisionname": "Namakkal Division",
    "officename": "Ramadevan B.O",
    "pincode": "637203",
    "officetype": "BO",
    "delivery": "Delivery",
    "district": "NAMAKKAL",
    "statename": "TAMIL NADU",
    "latitude": "11.2444250",
    "longitude": "77.9955766"
  },
  {
    "circlename": "Tamilnadu Circle",
    "regionname": "Western Region Coimbatore",
    "divisionname": "Namakkal Division",
    "officename": "Sullipalayam B.O",
    "pincode": "637203",
    "officetype": "BO",
    "delivery": "Delivery",
    "district": "NAMAKKAL",
    "statename": "TAMIL NADU",
    "latitude": "11.2580051",
    "longitude": "77.9117350"
  },
  {
    "circlename": "Tamilnadu Circle",
    "regionname": "Western Region Coimbatore",
    "divisionname": "Namakkal Division",
    "officename": "Andipalayam B.O",
    "pincode": "637214",
    "officetype": "BO",
    "delivery": "Delivery",
    "district": "NAMAKKAL",
    "statename": "TAMIL NADU",
    "latitude": "11.3462983",
    "longitude": "77.8681516"
  },
  {
    "circlename": "Tamilnadu Circle",
    "regionname": "Western Region Coimbatore",
    "divisionname": "Namakkal Division",
    "officename": "Elayampalayam B.O",
    "pincode": "637205",
    "officetype": "BO",
    "delivery": "Non Delivery",
    "district": "NAMAKKAL",
    "statename": "TAMIL NADU",
    "latitude": "11.3647216",
    "longitude": "77.9463016"
  },
  {
    "circlename": "Tamilnadu Circle",
    "regionname": "Western Region Coimbatore",
    "divisionname": "Namakkal Division",
    "officename": "Sathianaickenpalayam B.O",
    "pincode": "637205",
    "officetype": "BO",
    "delivery": "Delivery",
    "district": "NAMAKKAL",
    "statename": "TAMIL NADU",
    "latitude": "11.3983000",
    "longitude": "77.8681500"
  },
  {
    "circlename": "Tamilnadu Circle",
    "regionname": "Western Region Coimbatore",
    "divisionname": "Namakkal Division",
    "officename": "Unjanai B.O",
    "pincode": "637205",
    "officetype": "BO",
    "delivery": "Delivery",
    "district": "NAMAKKAL",
    "statename": "TAMIL NADU",
    "latitude": "11.3983000",
    "longitude": "77.8691500"
  },
  {
    "circlename": "Tamilnadu Circle",
    "regionname": "Western Region Coimbatore",
    "divisionname": "Namakkal Division",
    "officename": "Vattur B.O",
    "pincode": "637205",
    "officetype": "BO",
    "delivery": "Delivery",
    "district": "NAMAKKAL",
    "statename": "TAMIL NADU",
    "latitude": "11.4215000",
    "longitude": "77.9576566"
  },
  {
    "circlename": "Tamilnadu Circle",
    "regionname": "Western Region Coimbatore",
    "divisionname": "Namakkal Division",
    "officename": "Akkaraipatti B.O",
    "pincode": "637503",
    "officetype": "BO",
    "delivery": "Delivery",
    "district": "NAMAKKAL",
    "statename": "TAMIL NADU",
    "latitude": "11.4586320",
    "longitude": "78.1864350"
  },
  {
    "circlename": "Tamilnadu Circle",
    "regionname": "Western Region Coimbatore",
    "divisionname": "Namakkal Division",
    "officename": "Mamundi B.O",
    "pincode": "637503",
    "officetype": "BO",
    "delivery": "Delivery",
    "district": "NAMAKKAL",
    "statename": "TAMIL NADU",
    "latitude": "11.4999548",
    "longitude": "78.0553207"
  },
  {
    "circlename": "Tamilnadu Circle",
    "regionname": "Western Region Coimbatore",
    "divisionname": "Namakkal Division",
    "officename": "N.Seerapalli B.O",
    "pincode": "637206",
    "officetype": "BO",
    "delivery": "Non Delivery",
    "district": "NAMAKKAL",
    "statename": "TAMIL NADU",
    "latitude": "11.2073510",
    "longitude": "77.9646540"
  },
  {
    "circlename": "Tamilnadu Circle",
    "regionname": "Western Region Coimbatore",
    "divisionname": "Namakkal Division",
    "officename": "Alampalayam B.O",
    "pincode": "638008",
    "officetype": "BO",
    "delivery": "Delivery",
    "district": "NAMAKKAL",
    "statename": "TAMIL NADU",
    "latitude": "11.3669400",
    "longitude": "77.7685616"
  },
  {
    "circlename": "Tamilnadu Circle",
    "regionname": "Western Region Coimbatore",
    "divisionname": "Namakkal Division",
    "officename": "Kadachinallur B.O",
    "pincode": "638008",
    "officetype": "BO",
    "delivery": "Delivery",
    "district": "NAMAKKAL",
    "statename": "TAMIL NADU",
    "latitude": "11.3689333",
    "longitude": "77.8034733"
  },
  {
    "circlename": "Tamilnadu Circle",
    "regionname": "Western Region Coimbatore",
    "divisionname": "Namakkal Division",
    "officename": "Komarapalayam B.O",
    "pincode": "637209",
    "officetype": "BO",
    "delivery": "Delivery",
    "district": "NAMAKKAL",
    "statename": "TAMIL NADU",
    "latitude": "11.3170060",
    "longitude": "77.8756570"
  },
  {
    "circlename": "Tamilnadu Circle",
    "regionname": "Western Region Coimbatore",
    "divisionname": "Namakkal Division",
    "officename": "Sirumolasi B.O",
    "pincode": "637209",
    "officetype": "BO",
    "delivery": "Delivery",
    "district": "NAMAKKAL",
    "statename": "TAMIL NADU",
    "latitude": "11.3303650",
    "longitude": "77.8844130"
  },
  {
    "circlename": "Tamilnadu Circle",
    "regionname": "Western Region Coimbatore",
    "divisionname": "Namakkal Division",
    "officename": "Karungalpatti B.O",
    "pincode": "637410",
    "officetype": "BO",
    "delivery": "Delivery",
    "district": "NAMAKKAL",
    "statename": "TAMIL NADU",
    "latitude": "11.4440390",
    "longitude": "78.0728480"
  },
  {
    "circlename": "Tamilnadu Circle",
    "regionname": "Western Region Coimbatore",
    "divisionname": "Namakkal Division",
    "officename": "Nanjai Edaiyar B.O",
    "pincode": "638182",
    "officetype": "BO",
    "delivery": "Delivery",
    "district": "NAMAKKAL",
    "statename": "TAMIL NADU",
    "latitude": "11.1254360",
    "longitude": "78.0728480"
  },
  {
    "circlename": "Tamilnadu Circle",
    "regionname": "Western Region Coimbatore",
    "divisionname": "Namakkal Division",
    "officename": "Sultanpet B.O",
    "pincode": "638182",
    "officetype": "BO",
    "delivery": "Non Delivery",
    "district": "NAMAKKAL",
    "statename": "TAMIL NADU",
    "latitude": "11.2023400",
    "longitude": "77.9849570"
  },