[
  {
    "circlename": "Tamilnadu Circle",
    "regionname": "Central Region Trichirapalli",
    "divisionname": "Pudukkottai Division",
    "officename": "Melur B.O",
    "pincode": "622507",
    "officetype": "BO",
    "delivery": "Delivery",
    "district": "PUDUKKOTTAI",
    "statename": "TAMIL NADU",
    "latitude": "10.4600000",
    "longitude": "78.7800000"
  },
  {
    "circlename": "Tamilnadu Circle",
    "regionname": "Central Region Trichirapalli",
    "divisionname": "Karur Division",
    "officename": "Oliyamangalam B.O",
    "pincode": "621308",
    "officetype": "BO",
    "delivery": "Delivery",
    "district": "PUDUKKOTTAI",
    "statename": "TAMIL NADU",
    "latitude": "10.4200000",
    "longitude": "78.5400000"
  },
  {
    "circlename": "Tamilnadu Circle",
    "regionname": "Central Region Trichirapalli",
    "divisionname": "Pudukkottai Division",
    "officename": "K.Rasiamangalam B.O",
    "pincode": "622301",
    "officetype": "BO",
    "delivery": "Delivery",
    "district": "PUDUKKOTTAI",
    "statename": "TAMIL NADU",
    "latitude": "10.3700000",
    "longitude": "79.0500000"
  },
  {
    "circlename": "Tamilnadu Circle",
    "regionname": "Central Region Trichirapalli",
    "divisionname": "Pudukkottai Division",
    "officename": "Kalabam B.O",
    "pincode": "622301",
    "officetype": "BO",
    "delivery": "Delivery",
    "district": "PUDUKKOTTAI",
    "statename": "TAMIL NADU",
    "latitude": "9.9300000",
    "longitude": "79.0200000"
  },
  {
    "circlename": "Tamilnadu Circle",
    "regionname": "Central Region Trichirapalli",
    "divisionname": "Pudukkottai Division",
    "officename": "Kummangulam B.O",
    "pincode": "622301",
    "officetype": "BO",
    "delivery": "Delivery",
    "district": "PUDUKKOTTAI",
    "statename": "TAMIL NADU",
    "latitude": "10.3700000",
    "longitude": "78.9700000"
  },
  {
    "circlename": "Tamilnadu Circle",
    "regionname": "Central Region Trichirapalli",
    "divisionname": "Pudukkottai Division",
    "officename": "Madianallur B.O",
    "pincode": "622101",
    "officetype": "BO",
    "delivery": "Delivery",
    "district": "PUDUKKOTTAI",
    "statename": "TAMIL NADU",
    "latitude": "10.4900000",
    "longitude": "78.7300000"
  },
  {
    "circlename": "Tamilnadu Circle",
    "regionname": "Central Region Trichirapalli",
    "divisionname": "Pudukkottai Division",
    "officename": "Vilathupatti B.O",
    "pincode": "622101",
    "officetype": "BO",
    "delivery": "Delivery",
    "district": "PUDUKKOTTAI",
    "statename": "TAMIL NADU",
    "latitude": "10.4400000",
    "longitude": "78.7200000"
  },
  {
    "circlename": "Tamilnadu Circle",
    "regionname": "Central Region Trichirapalli",
    "divisionname": "Pudukkottai Division",
    "officename": "L.N.Puram B.O",
    "pincode": "614616",
    "officetype": "BO",
    "delivery": "Non Delivery",
    "district": "PUDUKKOTTAI",
    "statename": "TAMIL NADU",
    "latitude": "10.5100000",
    "longitude": "78.7500000"
  },
  {
    "circlename": "Tamilnadu Circle",
    "regionname": "Central Region Trichirapalli",
    "divisionname": "Pudukkottai Division",
    "officename": "Muslim Street B.O",
    "pincode": "614616",
    "officetype": "BO",
    "delivery": "Non Delivery",
    "district": "PUDUKKOTTAI",
    "statename": "TAMIL NADU",
    "latitude": "10.1700000",
    "longitude": "79.0000000"
  },
  {
    "circlename": "Tamilnadu Circle",
    "regionname": "Central Region Trichirapalli",
    "divisionname": "Pudukkottai Division",
    "officename": "Aliyanilai B.O",
    "pincode": "614616",
    "officetype": "BO",
    "delivery": "Delivery",
    "district": "PUDUKKOTTAI",
    "statename": "TAMIL NADU",
    "latitude": "10.2900000",
    "longitude": "79.0900000"
  },
  {
    "circlename": "Tamilnadu Circle",
    "regionname": "Central Region Trichirapalli",
    "divisionname": "Pudukkottai Division",
    "officename": "Kammangadu B.O",
    "pincode": "614616",
    "officetype": "BO",
    "delivery": "Delivery",
    "district": "PUDUKKOTTAI",
    "statename": "TAMIL NADU",
    "latitude": "10.1200000",
    "longitude": "78.9500000"
  },
  {
    "circlename": "Tamilnadu Circle",
    "regionname": "Central Region Trichirapalli",
    "divisionname": "Pudukkottai Division",
    "officename": "Mirattunilai B.O",
    "pincode": "622201",
    "officetype": "BO",
    "delivery": "Delivery",
    "district": "PUDUKKOTTAI",
    "statename": "TAMIL NADU",
    "latitude": "10.3800000",
    "longitude": "78.6400000"
  },
  {
    "circlename": "Tamilnadu Circle",
    "regionname": "Central Region Trichirapalli",
    "divisionname": "Pudukkottai Division",
    "officename": "Vennavalkudi B.O",
    "pincode": "622201",
    "officetype": "BO",
    "delivery": "Delivery",
    "district": "PUDUKKOTTAI",
    "statename": "TAMIL NADU",
    "latitude": "10.2200000",
    "longitude": "78.9100000"
  },
  {
    "circlename": "Tamilnadu Circle",
    "regionname": "Central Region Trichirapalli",
    "divisionname": "Pudukkottai Division",
    "officename": "Krishnajipattinam B.O",
    "pincode": "614630",
    "officetype": "BO",
    "delivery": "Delivery",
    "district": "PUDUKKOTTAI",
    "statename": "TAMIL NADU",
    "latitude": "10.1000000",
    "longitude": "79.2200000"
  },
  {
    "circlename": "Tamilnadu Circle",
    "regionname": "Central Region Trichirapalli",
    "divisionname": "Pudukkottai Division",
    "officename": "Vettanur B.O",
    "pincode": "614630",
    "officetype": "BO",
    "delivery": "Delivery",
    "district": "PUDUKKOTTAI",
    "statename": "TAMIL NADU",
    "latitude": "10.1000000",
    "longitude": "79.1300000"
  },
  {
    "circlename": "Tamilnadu Circle",
    "regionname": "Central Region Trichirapalli",
    "divisionname": "Pudukkottai Division",
    "officename": "Pudunagar B.O",
    "pincode": "613301",
    "officetype": "BO",
    "delivery": "Delivery",
    "district": "PUDUKKOTTAI",
    "statename": "TAMIL NADU",
    "latitude": "10.6300000",
    "longitude": "79.0500000"
  },
  {
    "circlename": "Tamilnadu Circle",
    "regionname": "Central Region Trichirapalli",
    "divisionname": "Pudukkottai Division",
    "officename": "Vellalaviduthi B.O",
    "pincode": "613301",
    "officetype": "BO",
    "delivery": "Delivery",
    "district": "PUDUKKOTTAI",
    "statename": "TAMIL NADU",
    "latitude": "10.5900000",
    "longitude": "79.0800000"
  },
  {
    "circlename": "Tamilnadu Circle",
    "regionname": "Central Region Trichirapalli",
    "divisionname": "Pudukkottai Division",
    "officename": "Rappusal B.O",
    "pincode": "622102",
    "officetype": "BO",
    "delivery": "Delivery",
    "district": "PUDUKKOTTAI",
    "statename": "TAMIL NADU",
    "latitude": "10.5200000",
    "longitude": "78.6900000"
  },
  {
    "circlename": "Tamilnadu Circle",
    "regionname": "Central Region Trichirapalli",
    "divisionname": "Pudukkottai Division",
    "officename": "Pallavarampatti B.O",
    "pincode": "622302",
    "officetype": "BO",
    "delivery": "Delivery",
    "district": "PUDUKKOTTAI",
    "statename": "TAMIL NADU",
    "latitude": "10.4300000",
    "longitude": "79.1000000"
  },
  {
    "circlename": "Tamilnadu Circle",
    "regionname": "Central Region Trichirapalli",
    "divisionname": "Pudukkottai Division",
    "officename": "Kothamangalam B.O",
    "pincode": "614624",
    "officetype": "BO",
    "delivery": "Delivery",
    "district": "PUDUKKOTTAI",
    "statename": "TAMIL NADU",
    "latitude": "10.2500000",
    "longitude": "78.9300000"
  },
  {
    "circlename": "Tamilnadu Circle",
    "regionname": "Central Region Trichirapalli",
    "divisionname": "Pudukkottai Division",
    "officename": "Kulamangalam B.O",
    "pincode": "614624",
    "officetype": "BO",
    "delivery": "Delivery",
    "district": "PUDUKKOTTAI",
    "statename": "TAMIL NADU",
    "latitude": "10.3300000",
    "longitude": "78.6900000"
  },
  {
    "circlename": "Tamilnadu Circle",
    "regionname": "Central Region Trichirapalli",
    "divisionname": "Pudukkottai Division",
    "officename": "Merpanaikadu B.O",
    "pincode": "614624",
    "officetype": "BO",
    "delivery": "Delivery",
    "district": "PUDUKKOTTAI",
    "statename": "TAMIL NADU",
    "latitude": "10.2500000",
    "longitude": "79.1400000"
  },
  {
    "circlename": "Tamilnadu Circle",
    "regionname": "Central Region Trichirapalli",
    "divisionname": "Pudukkottai Division",
    "officename": "Poovathakudi B.O",
    "pincode": "614624",
    "officetype": "BO",
    "delivery": "Delivery",
    "district": "PUDUKKOTTAI",
    "statename": "TAMIL NADU",
    "latitude": "10.2200000",
    "longitude": "79.0800000"
  },
  {
    "circlename": "Tamilnadu Circle",
    "regionname": "Central Region Trichirapalli",
    "divisionname": "Pudukkottai Division",
    "officename": "Tirunalur B.O",
    "pincode": "614624",
    "officetype": "BO",
    "delivery": "Delivery",
    "district": "PUDUKKOTTAI",
    "statename": "TAMIL NADU",
    "latitude": "10.2700000",
    "longitude": "79.0200000"
  },
  {
    "circlename": "Tamilnadu Circle",
    "regionname": "Central Region Trichirapalli",
    "divisionname": "Pudukkottai Division",
    "officename": "Kalamavur B.O",
    "pincode": "622502",
    "officetype": "BO",
    "delivery": "Delivery",
    "district": "PUDUKKOTTAI",
    "statename": "TAMIL NADU",
    "latitude": "10.6000000",
    "longitude": "78.7600000"
  },
  {
    "circlename": "Tamilnadu Circle",
    "regionname": "Central Region Trichirapalli",
    "divisionname": "Pudukkottai Division",
    "officename": "Srinivasanagar B.O",
    "pincode": "622502",
    "officetype": "BO",
    "delivery": "Delivery",
    "district": "PUDUKKOTTAI",
    "statename": "TAMIL NADU",
    "latitude": "10.5900000",
    "longitude": "78.7600000"
  },
  {
    "circlename": "Tamilnadu Circle",
    "regionname": "Central Region Trichirapalli",
    "divisionname": "Pudukkottai Division",
    "officename": "Kongudi B.O",
    "pincode": "622202",
    "officetype": "BO",
    "delivery": "Delivery",
    "district": "PUDUKKOTTAI",
    "statename": "TAMIL NADU",
    "latitude": "10.2000000",
    "longitude": "78.9500000"
  },
  {
    "circlename": "Tamilnadu Circle",
    "regionname": "Central Region Trichirapalli",
    "divisionname": "Pudukkottai Division",
    "officename": "Melanilaivayal B.O",
    "pincode": "622202",
    "officetype": "BO",
    "delivery": "Delivery",
    "district": "PUDUKKOTTAI",
    "statename": "TAMIL NADU",
    "latitude": "10.1800000",
    "longitude": "78.8700000"
  },
  {
    "circlename": "Tamilnadu Circle",
    "regionname": "Central Region Trichirapalli",
    "divisionname": "Pudukkottai Division",
    "officename": "Kallur kilanilai B.O",
    "pincode": "622209",
    "officetype": "BO",
    "delivery": "Delivery",
    "district": "PUDUKKOTTAI",
    "statename": "TAMIL NADU",
    "latitude": "10.1400000",
    "longitude": "78.8600000"
  },
  {
    "circlename": "Tamilnadu Circle",
    "regionname": "Central Region Trichirapalli",
    "divisionname": "Pudukkottai Division",
    "officename": "Kilanilai rayavaram B.O",
    "pincode": "622209",
    "officetype": "BO",
    "delivery": "Delivery",
    "district": "PUDUKKOTTAI",
    "statename": "TAMIL NADU",
    "latitude": "10.1400000",
    "longitude": "78.8800000"
  },
  {
    "circlename": "Tamilnadu Circle",
    "regionname": "Central Region Trichirapalli",
    "divisionname": "Pudukkottai Division",
    "officename": "Nedungudi B.O",
    "pincode": "622209",
    "officetype": "BO",
    "delivery": "Delivery",
    "district": "PUDUKKOTTAI",
    "statename": "TAMIL NADU",
    "latitude": "10.1700000",
    "longitude": "78.8300000"
  },
  {
    "circlename": "Tamilnadu Circle",
    "regionname": "Central Region Trichirapalli",
    "divisionname": "Pudukkottai Division",
    "officename": "Melamelanilai B.O",
    "pincode": "622401",
    "officetype": "BO",
    "delivery": "Delivery",
    "district": "PUDUKKOTTAI",
    "statename": "TAMIL NADU",
    "latitude": "10.2800000",
    "longitude": "78.6200000"
  },
  {
    "circlename": "Tamilnadu Circle",
    "regionname": "Central Region Trichirapalli",
    "divisionname": "Pudukkottai Division",
    "officename": "Bayamariyanendal B.O",
    "pincode": "614619",
    "officetype": "BO",
    "delivery": "Delivery",
    "district": "PUDUKKOTTAI",
    "statename": "TAMIL NADU",
    "latitude": "10.0100000",
    "longitude": "79.1700000"
  },
  {
    "circlename": "Tamilnadu Circle",
    "regionname": "Central Region Trichirapalli",
    "divisionname": "Pudukkottai Division",
    "officename": "Jegathapattinam B.O",
    "pincode": "614619",
    "officetype": "BO",
    "delivery": "Delivery",
    "district": "PUDUKKOTTAI",
    "statename": "TAMIL NADU",
    "latitude": "9.9600000",
    "longitude": "79.1900000"
  },
  {
    "circlename": "Tamilnadu Circle",
    "regionname": "Central Region Trichirapalli",
    "divisionname": "Pudukkottai Division",
    "officename": "Kannangudi B.O",
    "pincode": "622504",
    "officetype": "BO",
    "delivery": "Delivery",
    "district": "PUDUKKOTTAI",
    "statename": "TAMIL NADU",
    "latitude": "10.6500000",
    "longitude": "78.8500000"
  },
  {
    "circlename": "Tamilnadu Circle",
    "regionname": "Central Region Trichirapalli",
    "divisionname": "Pudukkottai Division",
    "officename": "Sevalur B.O",
    "pincode": "622402",
    "officetype": "BO",
    "delivery": "Delivery",
    "district": "PUDUKKOTTAI",
    "statename": "TAMIL NADU",
    "latitude": "10.2800000",
    "longitude": "78.6500000"
  },
  {
    "circlename": "Tamilnadu Circle",
    "regionname": "Central Region Trichirapalli",
    "divisionname": "Pudukkottai Division",
    "officename": "Edayathimangalam B.O",
    "pincode": "614620",
    "officetype": "BO",
    "delivery": "Delivery",
    "district": "PUDUKKOTTAI",
    "statename": "TAMIL NADU",
    "latitude": "10.8400000",
    "longitude": "78.8200000"
  },
  {
    "circlename": "Tamilnadu Circle",
    "regionname": "Central Region Trichirapalli",
    "divisionname": "Pudukkottai Division",
    "officename": "Venthanpatti B.O",
    "pincode": "622403",
    "officetype": "BO",
    "delivery": "Delivery",
    "district": "PUDUKKOTTAI",
    "statename": "TAMIL NADU",
    "latitude": "10.2400000",
    "longitude": "78.5200000"
  },
  {
    "circlename": "Tamilnadu Circle",
    "regionname": "Central Region Trichirapalli",
    "divisionname": "Pudukkottai Division",
    "officename": "Kottur B.O",
    "pincode": "622404",
    "officetype": "BO",
    "delivery": "Delivery",
    "district": "PUDUKKOTTAI",
    "statename": "TAMIL NADU",
    "latitude": "10.3200000",
    "longitude": "78.7300000"
  },
  {
    "circlename": "Tamilnadu Circle",
    "regionname": "Central Region Trichirapalli",
    "divisionname": "Pudukkottai Division",
    "officename": "Minnathur B.O",
    "pincode": "622203",
    "officetype": "BO",
    "delivery": "Delivery",
    "district": "PUDUKKOTTAI",
    "statename": "TAMIL NADU",
    "latitude": "10.5900000",
    "longitude": "78.9600000"
  },
  {
    "circlename": "Tamilnadu Circle",
    "regionname": "Central Region Trichirapalli",
    "divisionname": "Pudukkottai Division",
    "officename": "Idaiyur B.O",
    "pincode": "614629",
    "officetype": "BO",
    "delivery": "Delivery",
    "district": "PUDUKKOTTAI",
    "statename": "TAMIL NADU",
    "latitude": "9.8800000",
    "longitude": "79.0700000"
  },
  {
    "circlename": "Tamilnadu Circle",
    "regionname": "Central Region Trichirapalli",
    "divisionname": "Pudukkottai Division",
    "officename": "Vegupatti B.O",
    "pincode": "622407",
    "officetype": "BO",
    "delivery": "Delivery",
    "district": "PUDUKKOTTAI",
    "statename": "TAMIL NADU",
    "latitude": "10.2700000",
    "longitude": "78.5700000"
  },
  {
    "circlename": "Tamilnadu Circle",
    "regionname": "Central Region Trichirapalli",
    "divisionname": "Pudukkottai Division",
    "officename": "Aharapatti B.O",
    "pincode": "622003",
    "officetype": "BO",
    "delivery": "Delivery",
    "district": "PUDUKKOTTAI",
    "statename": "TAMIL NADU",
    "latitude": "10.3500000",
    "longitude": "78.7900000"
  },
  {
    "circlename": "Tamilnadu Circle",
    "regionname": "Central Region Trichirapalli",
    "divisionname": "Pudukkottai Division",
    "officename": "Attangudi B.O",
    "pincode": "622003",
    "officetype": "BO",
    "delivery": "Delivery",
    "district": "PUDUKKOTTAI",
    "statename": "TAMIL NADU",
    "latitude": "10.3300000",
    "longitude": "78.8200000"
  },
  {
    "circlename": "Tamilnadu Circle",
    "regionname": "Central Region Trichirapalli",
    "divisionname": "Pudukkottai Division",
    "officename": "Hirudayapuram B.O",
    "pincode": "622505",
    "officetype": "BO",
    "delivery": "Delivery",
    "district": "PUDUKKOTTAI",
    "statename": "TAMIL NADU",
    "latitude": "10.2400000",
    "longitude": "78.7800000"
  },
  {
    "circlename": "Tamilnadu Circle",
    "regionname": "Central Region Trichirapalli",
    "divisionname": "Pudukkottai Division",
    "officename": "Oonaiyur B.O",
    "pincode": "622505",
    "officetype": "BO",
    "delivery": "Delivery",
    "district": "PUDUKKOTTAI",
    "statename": "TAMIL NADU",
    "latitude": "10.2100000",
    "longitude": "78.7700000"
  },
  {
    "circlename": "Tamilnadu Circle",
    "regionname": "Central Region Trichirapalli",
    "divisionname": "Pudukkottai Division",
    "officename": "Sengirai B.O",
    "pincode": "622506",
    "officetype": "BO",
    "delivery": "Delivery",
    "district": "PUDUKKOTTAI",
    "statename": "TAMIL NADU",
    "latitude": "10.2400000",
    "longitude": "78.8400000"
  },
  {
    "circlename": "Tamilnadu Circle",
    "regionname": "Central Region Trichirapalli",
    "divisionname": "Pudukkottai Division",
    "officename": "Thanthani B.O",
    "pincode": "614622",
    "officetype": "BO",
    "delivery": "Delivery",
    "district": "PUDUKKOTTAI",
    "statename": "TAMIL NADU",
    "latitude": "10.2300000",
    "longitude": "78.9900000"
  },
  {
    "circlename": "Tamilnadu Circle",
    "regionname": "Central Region Trichirapalli",
    "divisionname": "Pudukkottai Division",
    "officename": "Idaiyathur B.O",
    "pincode": "622002",
    "officetype": "BO",
    "delivery": "Delivery",
    "district": "PUDUKKOTTAI",
    "statename": "TAMIL NADU",
    "latitude": "10.3500000",
    "longitude": "78.5800000"
  },
  {
    "circlename": "Tamilnadu Circle",
    "regionname": "Central Region Trichirapalli",
    "divisionname": "Pudukkottai Division",
    "officename": "Maravamadurai B.O",
    "pincode": "622002",
    "officetype": "BO",
    "delivery": "Delivery",
    "district": "PUDUKKOTTAI",
    "statename": "TAMIL NADU",
    "latitude": "10.2800000",
    "longitude": "78.5400000"
  },
  {
    "circlename": "Tamilnadu Circle",
    "regionname": "Central Region Trichirapalli",
    "divisionname": "Pudukkottai Division",
    "officename": "Sipcot pdk B.O",
    "pincode": "622002",
    "officetype": "BO",
    "delivery": "Delivery",
    "district": "PUDUKKOTTAI",
    "statename": "TAMIL NADU",
    "latitude": "10.4100000",
    "longitude": "78.7900000"
  },
  {
    "circlename": "Tamilnadu Circle",
    "regionname": "Central Region Trichirapalli",
    "divisionname": "Pudukkottai Division",
    "officename": "Kulathupatti B.O",
    "pincode": "622507",
    "officetype": "BO",
    "delivery": "Delivery",
    "district": "PUDUKKOTTAI",
    "statename": "TAMIL NADU",
    "latitude": "10.2000000",
    "longitude": "78.7500000"
  },
  {
    "circlename": "Tamilnadu Circle",
    "regionname": "Central Region Trichirapalli",
    "divisionname": "Pudukkottai Division",
    "officename": "Pilivalam B.O",
    "pincode": "622507",
    "officetype": "BO",
    "delivery": "Delivery",
    "district": "PUDUKKOTTAI",
    "statename": "TAMIL NADU",
    "latitude": "10.2900000",
    "longitude": "78.7900000"
  },
  {
    "circlename": "Tamilnadu Circle",
    "regionname": "Central Region Trichirapalli",
    "divisionname": "Pudukkottai Division",
    "officename": "Alinjiyendal B.O",
    "pincode": "614618",
    "officetype": "BO",
    "delivery": "Delivery",
    "district": "PUDUKKOTTAI",
    "statename": "TAMIL NADU",
    "latitude": "10.0100000",
    "longitude": "79.1400000"
  },
  {
    "circlename": "Tamilnadu Circle",
    "regionname": "Central Region Trichirapalli",
    "divisionname": "Pudukkottai Division",
    "officename": "Kaikurichi B.O",
    "pincode": "622303",
    "officetype": "BO",
    "delivery": "Delivery",
    "district": "PUDUKKOTTAI",
    "statename": "TAMIL NADU",
    "latitude": "10.3500000",
    "longitude": "78.8500000"
  },
  {
    "circlename": "Tamilnadu Circle",
    "regionname": "Central Region Trichirapalli",
    "divisionname": "Pudukkottai Division",
    "officename": "Anavayal B.O",
    "pincode": "622304",
    "officetype": "BO",
    "delivery": "Delivery",
    "district": "PUDUKKOTTAI",
    "statename": "TAMIL NADU",
    "latitude": "10.3300000",
    "longitude": "79.1100000"
  },
  {
    "circlename": "Tamilnadu Circle",
    "regionname": "Central Region Trichirapalli",
    "divisionname": "Pudukkottai Division",
    "officename": "Kottaikadu B.O",
    "pincode": "622304",
    "officetype": "BO",
    "delivery": "Delivery",
    "district": "PUDUKKOTTAI",
    "statename": "TAMIL NADU",
    "latitude": "10.4100000",
    "longitude": "79.0800000"
  },
  {
    "circlename": "Tamilnadu Circle",
    "regionname": "Central Region Trichirapalli",
    "divisionname": "Pudukkottai Division",
    "officename": "Pullanviduthi B.O",
    "pincode": "622304",
    "officetype": "BO",
    "delivery": "Delivery",
    "district": "PUDUKKOTTAI",
    "statename": "TAMIL NADU",
    "latitude": "10.3500000",
    "longitude": "79.1000000"
  },
  {
    "circlename": "Tamilnadu Circle",
    "regionname": "Central Region Trichirapalli",
    "divisionname": "Pudukkottai Division",
    "officename": "Vanakkankadu B.O",
    "pincode": "622304",
    "officetype": "BO",
    "delivery": "Delivery",
    "district": "PUDUKKOTTAI",
    "statename": "TAMIL NADU",
    "latitude": "10.3700000",
    "longitude": "79.0700000"
  },
  {
    "circlename": "Tamilnadu Circle",
    "regionname": "Central Region Trichirapalli",
    "divisionname": "Pudukkottai Division",
    "officename": "Perumanadu B.O",
    "pincode": "622104",
    "officetype": "BO",
    "delivery": "Delivery",
    "district": "PUDUKKOTTAI",
    "statename": "TAMIL NADU",
    "latitude": "10.3700000",
    "longitude": "78.7500000"
  },
  {
    "circlename": "Tamilnadu Circle",
    "regionname": "Central Region Trichirapalli",
    "divisionname": "Pudukkottai Division",
    "officename": "Lembalakudi B.O",
    "pincode": "622412",
    "officetype": "BO",
    "delivery": "Delivery",
    "district": "PUDUKKOTTAI",
    "statename": "TAMIL NADU",
    "latitude": "10.2900000",
    "longitude": "78.7600000"
  },
  {
    "circlename": "Tamilnadu Circle",
    "regionname": "Central Region Trichirapalli",
    "divisionname": "Pudukkottai Division",
    "officename": "Kodumbalur B.O",
    "pincode": "621316",
    "officetype": "BO",
    "delivery": "Delivery",
    "district": "PUDUKKOTTAI",
    "statename": "TAMIL NADU",
    "latitude": "10.5400000",
    "longitude": "78.5100000"
  },
  {
    "circlename": "Tamilnadu Circle",
    "regionname": "Central Region Trichirapalli",
    "divisionname": "Pudukkottai Division",
    "officename": "Mullaiyur B.O",
    "pincode": "621316",
    "officetype": "BO",
    "delivery": "Delivery",
    "district": "PUDUKKOTTAI",
    "statename": "TAMIL NADU",
    "latitude": "10.6000000",
    "longitude": "78.6100000"
  },
  {
    "circlename": "Tamilnadu Circle",
    "regionname": "Central Region Trichirapalli",
    "divisionname": "Pudukkottai Division",
    "officename": "Pudukkottai H.O",
    "pincode": "622001",
    "officetype": "HO",
    "delivery": "Delivery",
    "district": "PUDUKKOTTAI",
    "statename": "TAMIL NADU",
    "latitude": "10.3800000",
    "longitude": "78.8200000"
  },
  {
    "circlename": "Tamilnadu Circle",
    "regionname": "Central Region Trichirapalli",
    "divisionname": "Pudukkottai Division",
    "officename": "Ammapattinam S.O",
    "pincode": "614617",
    "officetype": "PO",
    "delivery": "Delivery",
    "district": "PUDUKKOTTAI",
    "statename": "TAMIL NADU",
    "latitude": "10.0200000",
    "longitude": "79.2300000"
  },
  {
    "circlename": "Tamilnadu Circle",
    "regionname": "Central Region Trichirapalli",
    "divisionname": "Pudukkottai Division",
    "officename": "Attani S.O",
    "pincode": "614630",
    "officetype": "PO",
    "delivery": "Delivery",
    "district": "PUDUKKOTTAI",
    "statename": "TAMIL NADU",
    "latitude": "10.1400000",
    "longitude": "79.1900000"
  },
  {
    "circlename": "Tamilnadu Circle",
    "regionname": "Central Region Trichirapalli",
    "divisionname": "Pudukkottai Division",
    "officename": "Koppanapatti S.O",
    "pincode": "622401",
    "officetype": "PO",
    "delivery": "Delivery",
    "district": "PUDUKKOTTAI",
    "statename": "TAMIL NADU",
    "latitude": "10.3000000",
    "longitude": "78.5800000"
  },
  {
    "circlename": "Tamilnadu Circle",
    "regionname": "Central Region Trichirapalli",
    "divisionname": "Pudukkottai Division",
    "officename": "Kulathur S.O (Pudukkottai)",
    "pincode": "622504",
    "officetype": "PO",
    "delivery": "Delivery",
    "district": "PUDUKKOTTAI",
    "statename": "TAMIL NADU",
    "latitude": "10.5500000",
    "longitude": "78.7900000"
  },
  {
    "circlename": "Tamilnadu Circle",
    "regionname": "Central Region Trichirapalli",
    "divisionname": "Pudukkottai Division",
    "officename": "Machuvadi S.O",
    "pincode": "622001",
    "officetype": "PO",
    "delivery": "Non Delivery",
    "district": "PUDUKKOTTAI",
    "statename": "TAMIL NADU",
    "latitude": "10.3800000",
    "longitude": "78.8300000"
  },
  {
    "circlename": "Tamilnadu Circle",
    "regionname": "Central Region Trichirapalli",
    "divisionname": "Pudukkottai Division",
    "officename": "Muckanamalaipatti S.O",
    "pincode": "622103",
    "officetype": "PO",
    "delivery": "Delivery",
    "district": "PUDUKKOTTAI",
    "statename": "TAMIL NADU",
    "latitude": "10.4602778",
    "longitude": "78.6861110"
  },
  {
    "circlename": "Tamilnadu Circle",
    "regionname": "Central Region Trichirapalli",
    "divisionname": "Pudukkottai Division",
    "officename": "Pudukkottai Ind. Estate S.O",
    "pincode": "622004",
    "officetype": "PO",
    "delivery": "Delivery",
    "district": "PUDUKKOTTAI",
    "statename": "TAMIL NADU",
    "latitude": "10.3800000",
    "longitude": "78.8400000"
  },
  {
    "circlename": "Tamilnadu Circle",
    "regionname": "Central Region Trichirapalli",
    "divisionname": "Pudukkottai Division",
    "officename": "Rayavaram S.O (Pudukkottai)",
    "pincode": "622506",
    "officetype": "PO",
    "delivery": "Delivery",
    "district": "PUDUKKOTTAI",
    "statename": "TAMIL NADU",
    "latitude": "10.3800000",
    "longitude": "78.8100000"
  },
  {
    "circlename": "Tamilnadu Circle",
    "regionname": "Central Region Trichirapalli",
    "divisionname": "Pudukkottai Division",
    "officename": "Sivapuram S.O",
    "pincode": "622422",
    "officetype": "PO",
    "delivery": "Delivery",
    "district": "PUDUKKOTTAI",
    "statename": "TAMIL NADU",
    "latitude": "10.3400000",
    "longitude": "78.8000000"
  },
  {
    "circlename": "Tamilnadu Circle",
    "regionname": "Central Region Trichirapalli",
    "divisionname": "Pudukkottai Division",
    "officename": "Tirupperunthurai S.O",
    "pincode": "614618",
    "officetype": "PO",
    "delivery": "Delivery",
    "district": "PUDUKKOTTAI",
    "statename": "TAMIL NADU",
    "latitude": "10.0700000",
    "longitude": "79.0600000"
  },
  {
    "circlename": "Tamilnadu Circle",
    "regionname": "Central Region Trichirapalli",
    "divisionname": "Pudukkottai Division",
    "officename": "Viralimalai S.O",
    "pincode": "621316",
    "officetype": "PO",
    "delivery": "Delivery",
    "district": "PUDUKKOTTAI",
    "statename": "TAMIL NADU",
    "latitude": "10.6000000",
    "longitude": "78.5500000"
  },
  {
    "circlename": "Tamilnadu Circle",
    "regionname": "Central Region Trichirapalli",
    "divisionname": "Karur Division",
    "officename": "Minaveli B.O",
    "pincode": "621305",
    "officetype": "BO",
    "delivery": "Delivery",
    "district": "PUDUKKOTTAI",
    "statename": "TAMIL NADU",
    "latitude": "10.5000000",
    "longitude": "78.4300000"
  },
  {
    "circlename": "Tamilnadu Circle",
    "regionname": "Central Region Trichirapalli",
    "divisionname": "Pudukkottai Division",
    "officename": "Kovilur Alangudi B.O",
    "pincode": "622301",
    "officetype": "BO",
    "delivery": "Delivery",
    "district": "PUDUKKOTTAI",
    "statename": "TAMIL NADU",
    "latitude": "10.3600000",
    "longitude": "78.9500000"
  },
  {
    "circlename": "Tamilnadu Circle",
    "regionname": "Central Region Trichirapalli",
    "divisionname": "Pudukkottai Division",
    "officename": "Kuppakudi B.O",
    "pincode": "622301",
    "officetype": "BO",
    "delivery": "Delivery",
    "district": "PUDUKKOTTAI",
    "statename": "TAMIL NADU",
    "latitude": "10.3400000",
    "longitude": "78.9600000"
  },
  {
    "circlename": "Tamilnadu Circle",
    "regionname": "Central Region Trichirapalli",
    "divisionname": "Pudukkottai Division",
    "officename": "Pudukkottaividuthi B.O",
    "pincode": "622301",
    "officetype": "BO",
    "delivery": "Delivery",
    "district": "PUDUKKOTTAI",
    "statename": "TAMIL NADU",
    "latitude": "10.5100000",
    "longitude": "78.7600000"
  },
  {
    "circlename": "Tamilnadu Circle",
    "regionname": "Central Region Trichirapalli",
    "divisionname": "Pudukkottai Division",
    "officename": "Kilakurichi B.O",
    "pincode": "622101",
    "officetype": "BO",
    "delivery": "Delivery",
    "district": "PUDUKKOTTAI",
    "statename": "TAMIL NADU",
    "latitude": "10.4600000",
    "longitude": "78.7200000"
  },
  {
    "circlename": "Tamilnadu Circle",
    "regionname": "Central Region Trichirapalli",
    "divisionname": "Pudukkottai Division",
    "officename": "Ratnakottai B.O",
    "pincode": "614616",
    "officetype": "BO",
    "delivery": "Delivery",
    "district": "PUDUKKOTTAI",
    "statename": "TAMIL NADU",
    "latitude": "10.1900000",
    "longitude": "79.0500000"
  },
  {
    "circlename": "Tamilnadu Circle",
    "regionname": "Central Region Trichirapalli",
    "divisionname": "Pudukkottai Division",
    "officename": "Veeramangalam B.O",
    "pincode": "614616",
    "officetype": "BO",
    "delivery": "Delivery",
    "district": "PUDUKKOTTAI",
    "statename": "TAMIL NADU",
    "latitude": "10.1200000",
    "longitude": "79.0900000"
  },
  {
    "circlename": "Tamilnadu Circle",
    "regionname": "Central Region Trichirapalli",
    "divisionname": "Pudukkottai Division",
    "officename": "Kulavaipatti B.O",
    "pincode": "622201",
    "officetype": "BO",
    "delivery": "Delivery",
    "district": "PUDUKKOTTAI",
    "statename": "TAMIL NADU",
    "latitude": "10.2300000",
    "longitude": "78.8800000"
  },
  {
    "circlename": "Tamilnadu Circle",
    "regionname": "Central Region Trichirapalli",
    "divisionname": "Pudukkottai Division",
    "officename": "Thanjur Tirumayam B.O",
    "pincode": "622201",
    "officetype": "BO",
    "delivery": "Delivery",
    "district": "PUDUKKOTTAI",
    "statename": "TAMIL NADU",
    "latitude": "10.2100000",
    "longitude": "78.9200000"
  },
  {
    "circlename": "Tamilnadu Circle",
    "regionname": "Central Region Trichirapalli",
    "divisionname": "Pudukkottai Division",
    "officename": "Kattumavadi B.O",
    "pincode": "614630",
    "officetype": "BO",
    "delivery": "Delivery",
    "district": "PUDUKKOTTAI",
    "statename": "TAMIL NADU",
    "latitude": "10.1400000",
    "longitude": "79.2300000"
  },
  {
    "circlename": "Tamilnadu Circle",
    "regionname": "Central Region Trichirapalli",
    "divisionname": "Pudukkottai Division",
    "officename": "Rajakulathur B.O",
    "pincode": "622501",
    "officetype": "BO",
    "delivery": "Delivery",
    "district": "PUDUKKOTTAI",
    "statename": "TAMIL NADU",
    "latitude": "10.5000000",
    "longitude": "78.8500000"
  },
  {
    "circlename": "Tamilnadu Circle",
    "regionname": "Central Region Trichirapalli",
    "divisionname": "Pudukkottai Division",
    "officename": "Satyamangalam B.O",
    "pincode": "622501",
    "officetype": "BO",
    "delivery": "Delivery",
    "district": "PUDUKKOTTAI",
    "statename": "TAMIL NADU",
    "latitude": "10.4800000",
    "longitude": "78.7800000"
  },
  {
    "circlename": "Tamilnadu Circle",
    "regionname": "Central Region Trichirapalli",
    "divisionname": "Pudukkottai Division",
    "officename": "Kovilur (Gandarvakottai) B.O",
    "pincode": "613301",
    "officetype": "BO",
    "delivery": "Non Delivery",
    "district": "PUDUKKOTTAI",
    "statename": "TAMIL NADU",
    "latitude": "10.5700000",
    "longitude": "79.0100000"
  },
  {
    "circlename": "Tamilnadu Circle",
    "regionname": "Central Region Trichirapalli",
    "divisionname": "Pudukkottai Division",
    "officename": "Ennai B.O",
    "pincode": "622102",
    "officetype": "BO",
    "delivery": "Delivery",
    "district": "PUDUKKOTTAI",
    "statename": "TAMIL NADU",
    "latitude": "10.5000000",
    "longitude": "78.6000000"
  },
  {
    "circlename": "Tamilnadu Circle",
    "regionname": "Central Region Trichirapalli",
    "divisionname": "Pudukkottai Division",
    "officename": "Malaikudipatti B.O",
    "pincode": "622102",
    "officetype": "BO",
    "delivery": "Delivery",
    "district": "PUDUKKOTTAI",
    "statename": "TAMIL NADU",
    "latitude": "10.5500000",
    "longitude": "78.5900000"
  },
  {
    "circlename": "Tamilnadu Circle",
    "regionname": "Central Region Trichirapalli",
    "divisionname": "Pudukkottai Division",
    "officename": "Ambukoil B.O",
    "pincode": "622302",
    "officetype": "BO",
    "delivery": "Delivery",
    "district": "PUDUKKOTTAI",
    "statename": "TAMIL NADU",
    "latitude": "10.4900000",
    "longitude": "79.1100000"
  },
  {
    "circlename": "Tamilnadu Circle",
    "regionname": "Central Region Trichirapalli",
    "divisionname": "Pudukkottai Division",
    "officename": "Pilaviduthi B.O",
    "pincode": "622302",
    "officetype": "BO",
    "delivery": "Delivery",
    "district": "PUDUKKOTTAI",
    "statename": "TAMIL NADU",
    "latitude": "10.4600000",
    "longitude": "79.1300000"
  },
  {
    "circlename": "Tamilnadu Circle",
    "regionname": "Central Region Trichirapalli",
    "divisionname": "Pudukkottai Division",
    "officename": "Tirumananjeri B.O",
    "pincode": "622302",
    "officetype": "BO",
    "delivery": "Delivery",
    "district": "PUDUKKOTTAI",
    "statename": "TAMIL NADU",
    "latitude": "11.0900000",
    "longitude": "79.5700000"
  },
  {
    "circlename": "Tamilnadu Circle",
    "regionname": "Central Region Trichirapalli",
    "divisionname": "Pudukkottai Division",
    "officename": "Avanathankottai B.O",
    "pincode": "614624",
    "officetype": "BO",
    "delivery": "Delivery",
    "district": "PUDUKKOTTAI",
    "statename": "TAMIL NADU",
    "latitude": "10.2500000",
    "longitude": "79.0300000"
  },
  {
    "circlename": "Tamilnadu Circle",
    "regionname": "Central Region Trichirapalli",
    "divisionname": "Pudukkottai Division",
    "officename": "Merpanaikadu West B.O",
    "pincode": "614624",
    "officetype": "BO",
    "delivery": "Delivery",
    "district": "PUDUKKOTTAI",
    "statename": "TAMIL NADU",
    "latitude": "10.2600000",
    "longitude": "79.1300000"
  },
  {
    "circlename": "Tamilnadu Circle",
    "regionname": "Central Region Trichirapalli",
    "divisionname": "Pudukkottai Division",
    "officename": "Kilaiyur B.O",
    "pincode": "622502",
    "officetype": "BO",
    "delivery": "Delivery",
    "district": "PUDUKKOTTAI",
    "statename": "TAMIL NADU",
    "latitude": "10.5600000",
    "longitude": "78.8000000"
  },
  {
    "circlename": "Tamilnadu Circle",
    "regionname": "Central Region Trichirapalli",
    "divisionname": "Pudukkottai Division",
    "officename": "Killukkottai B.O",
    "pincode": "622502",
    "officetype": "BO",
    "delivery": "Delivery",
    "district": "PUDUKKOTTAI",
    "statename": "TAMIL NADU",
    "latitude": "10.6400000",
    "longitude": "78.9400000"
  },
  {
    "circlename": "Tamilnadu Circle",
    "regionname": "Central Region Trichirapalli",
    "divisionname": "Pudukkottai Division",
    "officename": "Vadakattupatti B.O",
    "pincode": "622202",
    "officetype": "BO",
    "delivery": "Delivery",
    "district": "PUDUKKOTTAI",
    "statename": "TAMIL NADU",
    "latitude": "10.1900000",
    "longitude": "78.8600000"
  },
  {
    "circlename": "Tamilnadu Circle",
    "regionname": "Central Region Trichirapalli",
    "divisionname": "Pudukkottai Division",
    "officename": "N.Shanmuganathapuri B.O",
    "pincode": "622503",
    "officetype": "BO",
    "delivery": "Delivery",
    "district": "PUDUKKOTTAI",
    "statename": "TAMIL NADU",
    "latitude": "10.1400000",
    "longitude": "78.6900000"
  },
  {
    "circlename": "Tamilnadu Circle",
    "regionname": "Central Region Trichirapalli",
    "divisionname": "Pudukkottai Division",
    "officename": "Alavayal B.O",
    "pincode": "622401",
    "officetype": "BO",
    "delivery": "Delivery",
    "district": "PUDUKKOTTAI",
    "statename": "TAMIL NADU",
    "latitude": "10.3100000",
    "longitude": "78.5600000"
  },
  {
    "circlename": "Tamilnadu Circle",
    "regionname": "Central Region Trichirapalli",
    "divisionname": "Pudukkottai Division",
    "officename": "Thenur B.O",
    "pincode": "622401",
    "officetype": "BO",
    "delivery": "Delivery",
    "district": "PUDUKKOTTAI",
    "statename": "TAMIL NADU",
    "latitude": "10.2900000",
    "longitude": "78.5800000"
  },
  {
    "circlename": "Tamilnadu Circle",
    "regionname": "Central Region Trichirapalli",
    "divisionname": "Pudukkottai Division",
    "officename": "Ammachatram B.O",
    "pincode": "622504",
    "officetype": "BO",
    "delivery": "Delivery",
    "district": "PUDUKKOTTAI",
    "statename": "TAMIL NADU",
    "latitude": "10.5100000",
    "longitude": "78.7900000"
  },
  {
    "circlename": "Tamilnadu Circle",
    "regionname": "Central Region Trichirapalli",
    "divisionname": "Pudukkottai Division",
    "officename": "Avur B.O",
    "pincode": "622515",
    "officetype": "BO",
    "delivery": "Delivery",
    "district": "PUDUKKOTTAI",
    "statename": "TAMIL NADU",
    "latitude": "10.6500000",
    "longitude": "78.6800000"
  },
  {
    "circlename": "Tamilnadu Circle",
    "regionname": "Central Region Trichirapalli",
    "divisionname": "Pudukkottai Division",
    "officename": "Thondamanallur B.O",
    "pincode": "622515",
    "officetype": "BO",
    "delivery": "Delivery",
    "district": "PUDUKKOTTAI",
    "statename": "TAMIL NADU",
    "latitude": "10.6300000",
    "longitude": "78.7400000"
  },
  {
    "circlename": "Tamilnadu Circle",
    "regionname": "Central Region Trichirapalli",
    "divisionname": "Pudukkottai Division",
    "officename": "Varpattu B.O",
    "pincode": "622403",
    "officetype": "BO",
    "delivery": "Delivery",
    "district": "PUDUKKOTTAI",
    "statename": "TAMIL NADU",
    "latitude": "10.2500000",
    "longitude": "78.5200000"
  },
  {
    "circlename": "Tamilnadu Circle",
    "regionname": "Central Region Trichirapalli",
    "divisionname": "Pudukkottai Division",
    "officename": "Arasanagaripattinam B.O",
    "pincode": "614621",
    "officetype": "BO",
    "delivery": "Delivery",
    "district": "PUDUKKOTTAI",
    "statename": "TAMIL NADU",
    "latitude": "9.8800000",
    "longitude": "79.1400000"
  },
  {
    "circlename": "Tamilnadu Circle",
    "regionname": "Central Region Trichirapalli",
    "divisionname": "Pudukkottai Division",
    "officename": "Pudur pdk B.O",
    "pincode": "622103",
    "officetype": "BO",
    "delivery": "Delivery",
    "district": "PUDUKKOTTAI",
    "statename": "TAMIL NADU",
    "latitude": "10.2200000",
    "longitude": "78.8000000"
  },
  {
    "circlename": "Tamilnadu Circle",
    "regionname": "Central Region Trichirapalli",
    "divisionname": "Pudukkottai Division",
    "officename": "Veerapatti B.O",
    "pincode": "622103",
    "officetype": "BO",
    "delivery": "Delivery",
    "district": "PUDUKKOTTAI",
    "statename": "TAMIL NADU",
    "latitude": "10.4700000",
    "longitude": "78.6600000"
  },
  {
    "circlename": "Tamilnadu Circle",
    "regionname": "Central Region Trichirapalli",
    "divisionname": "Pudukkottai Division",
    "officename": "Adanakottai B.O",
    "pincode": "622203",
    "officetype": "BO",
    "delivery": "Delivery",
    "district": "PUDUKKOTTAI",
    "statename": "TAMIL NADU",
    "latitude": "10.5300000",
    "longitude": "78.9700000"
  },
  {
    "circlename": "Tamilnadu Circle",
    "regionname": "Central Region Trichirapalli",
    "divisionname": "Pudukkottai Division",
    "officename": "Andakulam B.O",
    "pincode": "622203",
    "officetype": "BO",
    "delivery": "Delivery",
    "district": "PUDUKKOTTAI",
    "statename": "TAMIL NADU",
    "latitude": "10.5200000",
    "longitude": "78.8900000"
  },
  {
    "circlename": "Tamilnadu Circle",
    "regionname": "Central Region Trichirapalli",
    "divisionname": "Pudukkottai Division",
    "officename": "Ganapathipuram B.O",
    "pincode": "622203",
    "officetype": "BO",
    "delivery": "Delivery",
    "district": "PUDUKKOTTAI",
    "statename": "TAMIL NADU",
    "latitude": "10.5200000",
    "longitude": "79.0300000"
  },
  {
    "circlename": "Tamilnadu Circle",
    "regionname": "Central Region Trichirapalli",
    "divisionname": "Pudukkottai Division",
    "officename": "Kalabam B.O",
    "pincode": "614629",
    "officetype": "BO",
    "delivery": "Delivery",
    "district": "PUDUKKOTTAI",
    "statename": "TAMIL NADU",
    "latitude": "9.9300000",
    "longitude": "79.0100000"
  },
  {
    "circlename": "Tamilnadu Circle",
    "regionname": "Central Region Trichirapalli",
    "divisionname": "Pudukkottai Division",
    "officename": "Padirakudi B.O",
    "pincode": "614629",
    "officetype": "BO",
    "delivery": "Delivery",
    "district": "PUDUKKOTTAI",
    "statename": "TAMIL NADU",
    "latitude": "9.8900000",
    "longitude": "79.1000000"
  },
  {
    "circlename": "Tamilnadu Circle",
    "regionname": "Central Region Trichirapalli",
    "divisionname": "Pudukkottai Division",
    "officename": "R.Palakurichi B.O",
    "pincode": "622407",
    "officetype": "BO",
    "delivery": "Delivery",
    "district": "PUDUKKOTTAI",
    "statename": "TAMIL NADU",
    "latitude": "10.4000000",
    "longitude": "78.5300000"
  },
  {
    "circlename": "Tamilnadu Circle",
    "regionname": "Central Region Trichirapalli",
    "divisionname": "Pudukkottai Division",
    "officename": "Vadavalam B.O",
    "pincode": "622004",
    "officetype": "BO",
    "delivery": "Delivery",
    "district": "PUDUKKOTTAI",
    "statename": "TAMIL NADU",
    "latitude": "10.4200000",
    "longitude": "78.9000000"
  },
  {
    "circlename": "Tamilnadu Circle",
    "regionname": "Central Region Trichirapalli",
    "divisionname": "Pudukkottai Division",
    "officename": "Kadayakudi B.O",
    "pincode": "622003",
    "officetype": "BO",
    "delivery": "Delivery",
    "district": "PUDUKKOTTAI",
    "statename": "TAMIL NADU",
    "latitude": "10.3200000",
    "longitude": "78.8300000"
  },
  {
    "circlename": "Tamilnadu Circle",
    "regionname": "Central Region Trichirapalli",
    "divisionname": "Pudukkottai Division",
    "officename": "Perungudi B.O",
    "pincode": "622506",
    "officetype": "BO",
    "delivery": "Delivery",
    "district": "PUDUKKOTTAI",
    "statename": "TAMIL NADU",
    "latitude": "10.2900000",
    "longitude": "78.8400000"
  },
  {
    "circlename": "Tamilnadu Circle",
    "regionname": "Central Region Trichirapalli",
    "divisionname": "Pudukkottai Division",
    "officename": "Thekkattur B.O",
    "pincode": "622506",
    "officetype": "BO",
    "delivery": "Delivery",
    "district": "PUDUKKOTTAI",
    "statename": "TAMIL NADU",
    "latitude": "10.2900000",
    "longitude": "78.8000000"
  },
  {
    "circlename": "Tamilnadu Circle",
    "regionname": "Central Region Trichirapalli",
    "divisionname": "Pudukkottai Division",
    "officename": "Arayapatti B.O",
    "pincode": "614622",
    "officetype": "BO",
    "delivery": "Delivery",
    "district": "PUDUKKOTTAI",
    "statename": "TAMIL NADU",
    "latitude": "10.3400000",
    "longitude": "78.7600000"
  },
  {
    "circlename": "Tamilnadu Circle",
    "regionname": "Central Region Trichirapalli",
    "divisionname": "Pudukkottai Division",
    "officename": "Maramadakki B.O",
    "pincode": "614622",
    "officetype": "BO",
    "delivery": "Delivery",
    "district": "PUDUKKOTTAI",
    "statename": "TAMIL NADU",
    "latitude": "10.2700000",
    "longitude": "79.0000000"
  },
  {
    "circlename": "Tamilnadu Circle",
    "regionname": "Central Region Trichirapalli",
    "divisionname": "Pudukkottai Division",
    "officename": "Sunayakadu B.O",
    "pincode": "614622",
    "officetype": "BO",
    "delivery": "Delivery",
    "district": "PUDUKKOTTAI",
    "statename": "TAMIL NADU",
    "latitude": "10.2700000",
    "longitude": "78.9700000"
  },
  {
    "circlename": "Tamilnadu Circle",
    "regionname": "Central Region Trichirapalli",
    "divisionname": "Pudukkottai Division",
    "officename": "Kodivayal B.O",
    "pincode": "614805",
    "officetype": "BO",
    "delivery": "Delivery",
    "district": "PUDUKKOTTAI",
    "statename": "TAMIL NADU",
    "latitude": "10.1700000",
    "longitude": "79.1600000"
  },
  {
    "circlename": "Tamilnadu Circle",
    "regionname": "Central Region Trichirapalli",
    "divisionname": "Pudukkottai Division",
    "officename": "Karaiyur B.O",
    "pincode": "622002",
    "officetype": "BO",
    "delivery": "Delivery",
    "district": "PUDUKKOTTAI",
    "statename": "TAMIL NADU",
    "latitude": "10.3600000",
    "longitude": "78.6100000"
  },
  {
    "circlename": "Tamilnadu Circle",
    "regionname": "Central Region Trichirapalli",
    "divisionname": "Pudukkottai Division",
    "officename": "Kilathaniyam B.O",
    "pincode": "622002",
    "officetype": "BO",
    "delivery": "Delivery",
    "district": "PUDUKKOTTAI",
    "statename": "TAMIL NADU",
    "latitude": "10.3900000",
    "longitude": "78.6100000"
  },
  {
    "circlename": "Tamilnadu Circle",
    "regionname": "Central Region Trichirapalli",
    "divisionname": "Pudukkottai Division",
    "officename": "Palayanerinjikudi B.O",
    "pincode": "622002",
    "officetype": "BO",
    "delivery": "Delivery",
    "district": "PUDUKKOTTAI",
    "statename": "TAMIL NADU",
    "latitude": "10.3800000",
    "longitude": "78.6100000"
  },
  {
    "circlename": "Tamilnadu Circle",
    "regionname": "Central Region Trichirapalli",
    "divisionname": "Pudukkottai Division",
    "officename": "Perunjunai B.O",
    "pincode": "622002",
    "officetype": "BO",
    "delivery": "Delivery",
    "district": "PUDUKKOTTAI",
    "statename": "TAMIL NADU",
    "latitude": "10.4100000",
    "longitude": "78.7800000"
  },
  {
    "circlename": "Tamilnadu Circle",
    "regionname": "Central Region Trichirapalli",
    "divisionname": "Pudukkottai Division",
    "officename": "Sadayampatti B.O",
    "pincode": "622002",
    "officetype": "BO",
    "delivery": "Delivery",
    "district": "PUDUKKOTTAI",
    "statename": "TAMIL NADU",
    "latitude": "10.3800000",
    "longitude": "78.5700000"
  },
  {
    "circlename": "Tamilnadu Circle",
    "regionname": "Central Region Trichirapalli",
    "divisionname": "Pudukkottai Division",
    "officename": "Perunavalur B.O",
    "pincode": "614618",
    "officetype": "BO",
    "delivery": "Delivery",
    "district": "PUDUKKOTTAI",
    "statename": "TAMIL NADU",
    "latitude": "10.0600000",
    "longitude": "78.9000000"
  },
  {
    "circlename": "Tamilnadu Circle",
    "regionname": "Central Region Trichirapalli",
    "divisionname": "Pudukkottai Division",
    "officename": "Poovalur B.O",
    "pincode": "614618",
    "officetype": "BO",
    "delivery": "Delivery",
    "district": "PUDUKKOTTAI",
    "statename": "TAMIL NADU",
    "latitude": "10.0500000",
    "longitude": "79.1100000"
  },
  {
    "circlename": "Tamilnadu Circle",
    "regionname": "Central Region Trichirapalli",
    "divisionname": "Pudukkottai Division",
    "officename": "Tirukkattalai B.O",
    "pincode": "622303",
    "officetype": "BO",
    "delivery": "Delivery",
    "district": "PUDUKKOTTAI",
    "statename": "TAMIL NADU",
    "latitude": "10.3600000",
    "longitude": "78.8600000"
  },
  {
    "circlename": "Tamilnadu Circle",
    "regionname": "Central Region Trichirapalli",
    "divisionname": "Pudukkottai Division",
    "officename": "Mangadu B.O",
    "pincode": "622304",
    "officetype": "BO",
    "delivery": "Delivery",
    "district": "PUDUKKOTTAI",
    "statename": "TAMIL NADU",
    "latitude": "10.3300000",
    "longitude": "79.0800000"
  },
  {
    "circlename": "Tamilnadu Circle",
    "regionname": "Central Region Trichirapalli",
    "divisionname": "Pudukkottai Division",
    "officename": "Neduvasal B.O",
    "pincode": "622304",
    "officetype": "BO",
    "delivery": "Delivery",
    "district": "PUDUKKOTTAI",
    "statename": "TAMIL NADU",
    "latitude": "10.3600000",
    "longitude": "79.1300000"
  },
  {
    "circlename": "Tamilnadu Circle",
    "regionname": "Central Region Trichirapalli",
    "divisionname": "Pudukkottai Division",
    "officename": "V.Lakshmipuram B.O",
    "pincode": "622412",
    "officetype": "BO",
    "delivery": "Delivery",
    "district": "PUDUKKOTTAI",
    "statename": "TAMIL NADU",
    "latitude": "10.4900000",
    "longitude": "78.9100000"
  },
  {
    "circlename": "Tamilnadu Circle",
    "regionname": "Central Region Trichirapalli",
    "divisionname": "Pudukkottai Division",
    "officename": "Kunnathur B.O",
    "pincode": "621316",
    "officetype": "BO",
    "delivery": "Delivery",
    "district": "PUDUKKOTTAI",
    "statename": "TAMIL NADU",
    "latitude": "10.6800000",
    "longitude": "78.6400000"
  },
  {
    "circlename": "Tamilnadu Circle",
    "regionname": "Central Region Trichirapalli",
    "divisionname": "Pudukkottai Division",
    "officename": "Meppoodakudi B.O",
    "pincode": "621316",
    "officetype": "BO",
    "delivery": "Delivery",
    "district": "PUDUKKOTTAI",
    "statename": "TAMIL NADU",
    "latitude": "10.6200000",
    "longitude": "78.5400000"
  },
  {
    "circlename": "Tamilnadu Circle",
    "regionname": "Central Region Trichirapalli",
    "divisionname": "Pudukkottai Division",
    "officename": "Theravur B.O",
    "pincode": "621316",
    "officetype": "BO",
    "delivery": "Delivery",
    "district": "PUDUKKOTTAI",
    "statename": "TAMIL NADU",
    "latitude": "10.5200000",
    "longitude": "78.5600000"
  },
  {
    "circlename": "Tamilnadu Circle",
    "regionname": "Central Region Trichirapalli",
    "divisionname": "Pudukkottai Division",
    "officename": "Kurungalur B.O",
    "pincode": "622204",
    "officetype": "BO",
    "delivery": "Delivery",
    "district": "PUDUKKOTTAI",
    "statename": "TAMIL NADU",
    "latitude": "10.0800000",
    "longitude": "78.9600000"
  },
  {
    "circlename": "Tamilnadu Circle",
    "regionname": "Central Region Trichirapalli",
    "divisionname": "Pudukkottai Division",
    "officename": "Annavasal S.O",
    "pincode": "622101",
    "officetype": "PO",
    "delivery": "Delivery",
    "district": "PUDUKKOTTAI",
    "statename": "TAMIL NADU",
    "latitude": "10.4500000",
    "longitude": "78.7200000"
  },
  {
    "circlename": "Tamilnadu Circle",
    "regionname": "Central Region Trichirapalli",
    "divisionname": "Pudukkottai Division",
    "officename": "Arantangi S.O",
    "pincode": "614616",
    "officetype": "PO",
    "delivery": "Delivery",
    "district": "PUDUKKOTTAI",
    "statename": "TAMIL NADU",
    "latitude": "10.1600000",
    "longitude": "78.9900000"
  },
  {
    "circlename": "Tamilnadu Circle",
    "regionname": "Central Region Trichirapalli",
    "divisionname": "Pudukkottai Division",
    "officename": "Ghandarvakottai S.O",
    "pincode": "613301",
    "officetype": "PO",
    "delivery": "Delivery",
    "district": "PUDUKKOTTAI",
    "statename": "TAMIL NADU",
    "latitude": "10.5600000",
    "longitude": "79.0400000"
  },
  {
    "circlename": "Tamilnadu Circle",
    "regionname": "Central Region Trichirapalli",
    "divisionname": "Pudukkottai Division",
    "officename": "Keeramangalam S.O",
    "pincode": "614624",
    "officetype": "PO",
    "delivery": "Delivery",
    "district": "PUDUKKOTTAI",
    "statename": "TAMIL NADU",
    "latitude": "10.2800000",
    "longitude": "79.1100000"
  },
  {
    "circlename": "Tamilnadu Circle",
    "regionname": "Central Region Trichirapalli",
    "divisionname": "Pudukkottai Division",
    "officename": "Kilanilaikottai S.O",
    "pincode": "622209",
    "officetype": "PO",
    "delivery": "Delivery",
    "district": "PUDUKKOTTAI",
    "statename": "TAMIL NADU",
    "latitude": "10.1600000",
    "longitude": "78.8700000"
  },
  {
    "circlename": "Tamilnadu Circle",
    "regionname": "Central Region Trichirapalli",
    "divisionname": "Pudukkottai Division",
    "officename": "Kottaipattinam S.O",
    "pincode": "614619",
    "officetype": "PO",
    "delivery": "Delivery",
    "district": "PUDUKKOTTAI",
    "statename": "TAMIL NADU",
    "latitude": "9.9700000",
    "longitude": "79.2100000"
  },
  {
    "circlename": "Tamilnadu Circle",
    "regionname": "Central Region Trichirapalli",
    "divisionname": "Pudukkottai Division",
    "officename": "Manamelkudi S.O",
    "pincode": "614620",
    "officetype": "PO",
    "delivery": "Delivery",
    "district": "PUDUKKOTTAI",
    "statename": "TAMIL NADU",
    "latitude": "10.0300000",
    "longitude": "79.2500000"
  },
  {
    "circlename": "Tamilnadu Circle",
    "regionname": "Central Region Trichirapalli",
    "divisionname": "Pudukkottai Division",
    "officename": "Melasivapuri S.O",
    "pincode": "622403",
    "officetype": "PO",
    "delivery": "Delivery",
    "district": "PUDUKKOTTAI",
    "statename": "TAMIL NADU",
    "latitude": "10.2676850",
    "longitude": "78.5247780"
  },
  {
    "circlename": "Tamilnadu Circle",
    "regionname": "Central Region Trichirapalli",
    "divisionname": "Pudukkottai Division",
    "officename": "Pillaithannirpandal S.O",
    "pincode": "622001",
    "officetype": "PO",
    "delivery": "Non Delivery",
    "district": "PUDUKKOTTAI",
    "statename": "TAMIL NADU",
    "latitude": "10.3690410",
    "longitude": "78.8148610"
  },
  {
    "circlename": "Tamilnadu Circle",
    "regionname": "Central Region Trichirapalli",
    "divisionname": "Pudukkottai Division",
    "officename": "Pudukkottai Collectorate S.O",
    "pincode": "622005",
    "officetype": "PO",
    "delivery": "Delivery",
    "district": "PUDUKKOTTAI",
    "statename": "TAMIL NADU",
    "latitude": "10.3800000",
    "longitude": "78.8200000"
  },
  {
    "circlename": "Tamilnadu Circle",
    "regionname": "Central Region Trichirapalli",
    "divisionname": "Pudukkottai Division",
    "officename": "Pudupatti S.O (Pudukkottai)",
    "pincode": "622407",
    "officetype": "PO",
    "delivery": "Non Delivery",
    "district": "PUDUKKOTTAI",
    "statename": "TAMIL NADU",
    "latitude": "10.279139",
    "longitude": "78.544991"
  },
  {
    "circlename": "Tamilnadu Circle",
    "regionname": "Central Region Trichirapalli",
    "divisionname": "Pudukkottai Division",
    "officename": "Tirumayam S.O",
    "pincode": "622507",
    "officetype": "PO",
    "delivery": "Delivery",
    "district": "PUDUKKOTTAI",
    "statename": "TAMIL NADU",
    "latitude": "10.2400000",
    "longitude": "78.7700000"
  },
  {
    "circlename": "Tamilnadu Circle",
    "regionname": "Central Region Trichirapalli",
    "divisionname": "Pudukkottai Division",
    "officename": "Valayapatti S.O (Pudukkottai)",
    "pincode": "622411",
    "officetype": "PO",
    "delivery": "Delivery",
    "district": "PUDUKKOTTAI",
    "statename": "TAMIL NADU",
    "latitude": "10.2800000",
    "longitude": "78.5300000"
  },
  {
    "circlename": "Tamilnadu Circle",
    "regionname": "Central Region Trichirapalli",
    "divisionname": "Pattukottai Division",
    "officename": "Mudalipatti B.O",
    "pincode": "614902",
    "officetype": "BO",
    "delivery": "Delivery",
    "district": "PUDUKKOTTAI",
    "statename": "TAMIL NADU",
    "latitude": "10.58",
    "longitude": "79.17"
  },
  {
    "circlename": "Tamilnadu Circle",
    "regionname": "Central Region Trichirapalli",
    "divisionname": "Pudukkottai Division",
    "officename": "Malaiyur B.O",
    "pincode": "622301",
    "officetype": "BO",
    "delivery": "Delivery",
    "district": "PUDUKKOTTAI",
    "statename": "TAMIL NADU",
    "latitude": "10.4300000",
    "longitude": "79.0300000"
  },
  {
    "circlename": "Tamilnadu Circle",
    "regionname": "Central Region Trichirapalli",
    "divisionname": "Pudukkottai Division",
    "officename": "Pallathividuthi B.O",
    "pincode": "622301",
    "officetype": "BO",
    "delivery": "Delivery",
    "district": "PUDUKKOTTAI",
    "statename": "TAMIL NADU",
    "latitude": "10.3400000",
    "longitude": "78.9900000"
  },
  {
    "circlename": "Tamilnadu Circle",
    "regionname": "Central Region Trichirapalli",
    "divisionname": "Pudukkottai Division",
    "officename": "Pathampatti B.O",
    "pincode": "622301",
    "officetype": "BO",
    "delivery": "Delivery",
    "district": "PUDUKKOTTAI",
    "statename": "TAMIL NADU",
    "latitude": "10.3400000",
    "longitude": "78.9700000"
  },
  {
    "circlename": "Tamilnadu Circle",
    "regionname": "Central Region Trichirapalli",
    "divisionname": "Pudukkottai Division",
    "officename": "Vellalaviduthi B.O",
    "pincode": "622301",
    "officetype": "BO",
    "delivery": "Delivery",
    "district": "PUDUKKOTTAI",
    "statename": "TAMIL NADU",
    "latitude": "10.4500000",
    "longitude": "79.0500000"
  },
  {
    "circlename": "Tamilnadu Circle",
    "regionname": "Central Region Trichirapalli",
    "divisionname": "Pudukkottai Division",
    "officename": "Vichchur B.O",
    "pincode": "614617",
    "officetype": "BO",
    "delivery": "Delivery",
    "district": "PUDUKKOTTAI",
    "statename": "TAMIL NADU",
    "latitude": "10.5000000",
    "longitude": "79.0700000"
  },
  {
    "circlename": "Tamilnadu Circle",
    "regionname": "Central Region Trichirapalli",
    "divisionname": "Pudukkottai Division",
    "officename": "Kundagavayal B.O",
    "pincode": "614616",
    "officetype": "BO",
    "delivery": "Delivery",
    "district": "PUDUKKOTTAI",
    "statename": "TAMIL NADU",
    "latitude": "10.1100000",
    "longitude": "78.9400000"
  },
  {
    "circlename": "Tamilnadu Circle",
    "regionname": "Central Region Trichirapalli",
    "divisionname": "Pudukkottai Division",
    "officename": "Melapattu B.O",
    "pincode": "614616",
    "officetype": "BO",
    "delivery": "Delivery",
    "district": "PUDUKKOTTAI",
    "statename": "TAMIL NADU",
    "latitude": "10.1300000",
    "longitude": "79.0200000"
  },
  {
    "circlename": "Tamilnadu Circle",
    "regionname": "Central Region Trichirapalli",
    "divisionname": "Pudukkottai Division",
    "officename": "Karaikottai B.O",
    "pincode": "614630",
    "officetype": "BO",
    "delivery": "Delivery",
    "district": "PUDUKKOTTAI",
    "statename": "TAMIL NADU",
    "latitude": "10.0600000",
    "longitude": "79.2800000"
  },
  {
    "circlename": "Tamilnadu Circle",
    "regionname": "Central Region Trichirapalli",
    "divisionname": "Pudukkottai Division",
    "officename": "Singavanam B.O",
    "pincode": "614630",
    "officetype": "BO",
    "delivery": "Delivery",
    "district": "PUDUKKOTTAI",
    "statename": "TAMIL NADU",
    "latitude": "10.1000000",
    "longitude": "79.1800000"
  },
  {
    "circlename": "Tamilnadu Circle",
    "regionname": "Central Region Trichirapalli",
    "divisionname": "Pudukkottai Division",
    "officename": "Puthambur B.O",
    "pincode": "622501",
    "officetype": "BO",
    "delivery": "Delivery",
    "district": "PUDUKKOTTAI",
    "statename": "TAMIL NADU",
    "latitude": "10.4700000",
    "longitude": "78.8400000"
  },
  {
    "circlename": "Tamilnadu Circle",
    "regionname": "Central Region Trichirapalli",
    "divisionname": "Pudukkottai Division",
    "officename": "Thodaiyur B.O",
    "pincode": "622501",
    "officetype": "BO",
    "delivery": "Delivery",
    "district": "PUDUKKOTTAI",
    "statename": "TAMIL NADU",
    "latitude": "10.5000000",
    "longitude": "78.8000000"
  },
  {
    "circlename": "Tamilnadu Circle",
    "regionname": "Central Region Trichirapalli",
    "divisionname": "Pudukkottai Division",
    "officename": "Akkachipatti B.O",
    "pincode": "613301",
    "officetype": "BO",
    "delivery": "Non Delivery",
    "district": "PUDUKKOTTAI",
    "statename": "TAMIL NADU",
    "latitude": "10.5700000",
    "longitude": "79.0200000"
  },
  {
    "circlename": "Tamilnadu Circle",
    "regionname": "Central Region Trichirapalli",
    "divisionname": "Pudukkottai Division",
    "officename": "Manganur B.O",
    "pincode": "613301",
    "officetype": "BO",
    "delivery": "Delivery",
    "district": "PUDUKKOTTAI",
    "statename": "TAMIL NADU",
    "latitude": "10.5800000",
    "longitude": "78.9600000"
  },
  {
    "circlename": "Tamilnadu Circle",
    "regionname": "Central Region Trichirapalli",
    "divisionname": "Pudukkottai Division",
    "officename": "Irundirapatti B.O",
    "pincode": "622102",
    "officetype": "BO",
    "delivery": "Delivery",
    "district": "PUDUKKOTTAI",
    "statename": "TAMIL NADU",
    "latitude": "10.2600000",
    "longitude": "79.0200000"
  },
  {
    "circlename": "Tamilnadu Circle",
    "regionname": "Central Region Trichirapalli",
    "divisionname": "Pudukkottai Division",
    "officename": "Kothirapatti B.O",
    "pincode": "622102",
    "officetype": "BO",
    "delivery": "Delivery",
    "district": "PUDUKKOTTAI",
    "statename": "TAMIL NADU",
    "latitude": "10.5200000",
    "longitude": "78.5700000"
  },
  {
    "circlename": "Tamilnadu Circle",
    "regionname": "Central Region Trichirapalli",
    "divisionname": "Pudukkottai Division",
    "officename": "Kadampatti B.O",
    "pincode": "622302",
    "officetype": "BO",
    "delivery": "Delivery",
    "district": "PUDUKKOTTAI",
    "statename": "TAMIL NADU",
    "latitude": "10.5600000",
    "longitude": "79.1500000"
  },
  {
    "circlename": "Tamilnadu Circle",
    "regionname": "Central Region Trichirapalli",
    "divisionname": "Pudukkottai Division",
    "officename": "Kallakottai B.O",
    "pincode": "622302",
    "officetype": "BO",
    "delivery": "Delivery",
    "district": "PUDUKKOTTAI",
    "statename": "TAMIL NADU",
    "latitude": "10.5200000",
    "longitude": "79.1100000"
  },
  {
    "circlename": "Tamilnadu Circle",
    "regionname": "Central Region Trichirapalli",
    "divisionname": "Pudukkottai Division",
    "officename": "Karukkakurichi B.O",
    "pincode": "622302",
    "officetype": "BO",
    "delivery": "Delivery",
    "district": "PUDUKKOTTAI",
    "statename": "TAMIL NADU",
    "latitude": "10.3900000",
    "longitude": "79.1200000"
  },
  {
    "circlename": "Tamilnadu Circle",
    "regionname": "Central Region Trichirapalli",
    "divisionname": "Pudukkottai Division",
    "officename": "Keerathur B.O",
    "pincode": "622302",
    "officetype": "BO",
    "delivery": "Delivery",
    "district": "PUDUKKOTTAI",
    "statename": "TAMIL NADU",
    "latitude": "10.5900000",
    "longitude": "79.1200000"
  },
  {
    "circlename": "Tamilnadu Circle",
    "regionname": "Central Region Trichirapalli",
    "divisionname": "Pudukkottai Division",
    "officename": "Marudakonviduthi B.O",
    "pincode": "622302",
    "officetype": "BO",
    "delivery": "Delivery",
    "district": "PUDUKKOTTAI",
    "statename": "TAMIL NADU",
    "latitude": "10.5200000",
    "longitude": "79.1200000"
  },
  {
    "circlename": "Tamilnadu Circle",
    "regionname": "Central Region Trichirapalli",
    "divisionname": "Pudukkottai Division",
    "officename": "Raghunathapuram B.O",
    "pincode": "622302",
    "officetype": "BO",
    "delivery": "Delivery",
    "district": "PUDUKKOTTAI",
    "statename": "TAMIL NADU",
    "latitude": "10.9000000",
    "longitude": "79.2300000"
  },
  {
    "circlename": "Tamilnadu Circle",
    "regionname": "Central Region Trichirapalli",
    "divisionname": "Pudukkottai Division",
    "officename": "Poovaimanagar B.O",
    "pincode": "614624",
    "officetype": "BO",
    "delivery": "Delivery",
    "district": "PUDUKKOTTAI",
    "statename": "TAMIL NADU",
    "latitude": "10.2500000",
    "longitude": "79.0200000"
  },
  {
    "circlename": "Tamilnadu Circle",
    "regionname": "Central Region Trichirapalli",
    "divisionname": "Pudukkottai Division",
    "officename": "Kunnandarkoil B.O",
    "pincode": "622502",
    "officetype": "BO",
    "delivery": "Delivery",
    "district": "PUDUKKOTTAI",
    "statename": "TAMIL NADU",
    "latitude": "10.5800000",
    "longitude": "78.8900000"
  },
  {
    "circlename": "Tamilnadu Circle",
    "regionname": "Central Region Trichirapalli",
    "divisionname": "Pudukkottai Division",
    "officename": "Letchumanapatti B.O",
    "pincode": "622502",
    "officetype": "BO",
    "delivery": "Delivery",
    "district": "PUDUKKOTTAI",
    "statename": "TAMIL NADU",
    "latitude": "10.6300000",
    "longitude": "78.7800000"
  },
  {
    "circlename": "Tamilnadu Circle",
    "regionname": "Central Region Trichirapalli",
    "divisionname": "Pudukkottai Division",
    "officename": "Odayalipatti B.O",
    "pincode": "622502",
    "officetype": "BO",
    "delivery": "Delivery",
    "district": "PUDUKKOTTAI",
    "statename": "TAMIL NADU",
    "latitude": "10.6000000",
    "longitude": "78.9100000"
  },
  {
    "circlename": "Tamilnadu Circle",
    "regionname": "Central Region Trichirapalli",
    "divisionname": "Pudukkottai Division",
    "officename": "Kummangudi B.O",
    "pincode": "622202",
    "officetype": "BO",
    "delivery": "Delivery",
    "district": "PUDUKKOTTAI",
    "statename": "TAMIL NADU",
    "latitude": "10.1800000",
    "longitude": "78.9100000"
  },
  {
    "circlename": "Tamilnadu Circle",
    "regionname": "Central Region Trichirapalli",
    "divisionname": "Pudukkottai Division",
    "officename": "Athanur B.O",
    "pincode": "622503",
    "officetype": "BO",
    "delivery": "Delivery",
    "district": "PUDUKKOTTAI",
    "statename": "TAMIL NADU",
    "latitude": "10.1800000",
    "longitude": "78.7500000"
  },
  {
    "circlename": "Tamilnadu Circle",
    "regionname": "Central Region Trichirapalli",
    "divisionname": "Pudukkottai Division",
    "officename": "Semboodi B.O",
    "pincode": "622401",
    "officetype": "BO",
    "delivery": "Delivery",
    "district": "PUDUKKOTTAI",
    "statename": "TAMIL NADU",
    "latitude": "10.3000000",
    "longitude": "78.6000000"
  },
  {
    "circlename": "Tamilnadu Circle",
    "regionname": "Central Region Trichirapalli",
    "divisionname": "Pudukkottai Division",
    "officename": "Tirumalairayapuram B.O",
    "pincode": "622504",
    "officetype": "BO",
    "delivery": "Delivery",
    "district": "PUDUKKOTTAI",
    "statename": "TAMIL NADU",
    "latitude": "10.3500000",
    "longitude": "78.8400000"
  },
  {
    "circlename": "Tamilnadu Circle",
    "regionname": "Central Region Trichirapalli",
    "divisionname": "Pudukkottai Division",
    "officename": "Sundaram B.O",
    "pincode": "622402",
    "officetype": "BO",
    "delivery": "Delivery",
    "district": "PUDUKKOTTAI",
    "statename": "TAMIL NADU",
    "latitude": "10.3000000",
    "longitude": "78.6200000"
  },
  {
    "circlename": "Tamilnadu Circle",
    "regionname": "Central Region Trichirapalli",
    "divisionname": "Pudukkottai Division",
    "officename": "Vellore B.O",
    "pincode": "614620",
    "officetype": "BO",
    "delivery": "Delivery",
    "district": "PUDUKKOTTAI",
    "statename": "TAMIL NADU",
    "latitude": "10.6000000",
    "longitude": "78.6000000"
  },
  {
    "circlename": "Tamilnadu Circle",
    "regionname": "Central Region Trichirapalli",
    "divisionname": "Pudukkottai Division",
    "officename": "Mathur B.O",
    "pincode": "622515",
    "officetype": "BO",
    "delivery": "Delivery",
    "district": "PUDUKKOTTAI",
    "statename": "TAMIL NADU",
    "latitude": "10.6900000",
    "longitude": "78.7300000"
  },
  {
    "circlename": "Tamilnadu Circle",
    "regionname": "Central Region Trichirapalli",
    "divisionname": "Pudukkottai Division",
    "officename": "Muthukuda B.O",
    "pincode": "614621",
    "officetype": "BO",
    "delivery": "Delivery",
    "district": "PUDUKKOTTAI",
    "statename": "TAMIL NADU",
    "latitude": "9.8500000",
    "longitude": "79.1200000"
  },
  {
    "circlename": "Tamilnadu Circle",
    "regionname": "Central Region Trichirapalli",
    "divisionname": "Pudukkottai Division",
    "officename": "Poyyadanallur B.O",
    "pincode": "614621",
    "officetype": "BO",
    "delivery": "Delivery",
    "district": "PUDUKKOTTAI",
    "statename": "TAMIL NADU",
    "latitude": "11.2100000",
    "longitude": "79.1300000"
  },
  {
    "circlename": "Tamilnadu Circle",
    "regionname": "Central Region Trichirapalli",
    "divisionname": "Pudukkottai Division",
    "officename": "Chockanathapatti B.O",
    "pincode": "622203",
    "officetype": "BO",
    "delivery": "Delivery",
    "district": "PUDUKKOTTAI",
    "statename": "TAMIL NADU",
    "latitude": "10.5300000",
    "longitude": "78.9800000"
  },
  {
    "circlename": "Tamilnadu Circle",
    "regionname": "Central Region Trichirapalli",
    "divisionname": "Pudukkottai Division",
    "officename": "Vaithur B.O",
    "pincode": "622203",
    "officetype": "BO",
    "delivery": "Delivery",
    "district": "PUDUKKOTTAI",
    "statename": "TAMIL NADU",
    "latitude": "10.4600000",
    "longitude": "78.8900000"
  },
  {
    "circlename": "Tamilnadu Circle",
    "regionname": "Central Region Trichirapalli",
    "divisionname": "Pudukkottai Division",
    "officename": "Vathanakottai B.O",
    "pincode": "622203",
    "officetype": "BO",
    "delivery": "Delivery",
    "district": "PUDUKKOTTAI",
    "statename": "TAMIL NADU",
    "latitude": "10.5600000",
    "longitude": "78.9200000"
  },
  {
    "circlename": "Tamilnadu Circle",
    "regionname": "Central Region Trichirapalli",
    "divisionname": "Pudukkottai Division",
    "officename": "Mullur B.O",
    "pincode": "622004",
    "officetype": "BO",
    "delivery": "Delivery",
    "district": "PUDUKKOTTAI",
    "statename": "TAMIL NADU",
    "latitude": "10.4100000",
    "longitude": "78.8600000"
  },
  {
    "circlename": "Tamilnadu Circle",
    "regionname": "Central Region Trichirapalli",
    "divisionname": "Pudukkottai Division",
    "officename": "Vanniampatti B.O",
    "pincode": "622003",
    "officetype": "BO",
    "delivery": "Delivery",
    "district": "PUDUKKOTTAI",
    "statename": "TAMIL NADU",
    "latitude": "10.3000000",
    "longitude": "78.8500000"
  },
  {
    "circlename": "Tamilnadu Circle",
    "regionname": "Central Region Trichirapalli",
    "divisionname": "Pudukkottai Division",
    "officename": "Kannanur B.O",
    "pincode": "622409",
    "officetype": "BO",
    "delivery": "Delivery",
    "district": "PUDUKKOTTAI",
    "statename": "TAMIL NADU",
    "latitude": "10.2500000",
    "longitude": "78.6800000"
  },
  {
    "circlename": "Tamilnadu Circle",
    "regionname": "Central Region Trichirapalli",
    "divisionname": "Pudukkottai Division",
    "officename": "Kuruvikondanpatti B.O",
    "pincode": "622409",
    "officetype": "BO",
    "delivery": "Delivery",
    "district": "PUDUKKOTTAI",
    "statename": "TAMIL NADU",
    "latitude": "10.2100000",
    "longitude": "78.6600000"
  },
  {
    "circlename": "Tamilnadu Circle",
    "regionname": "Central Region Trichirapalli",
    "divisionname": "Pudukkottai Division",
    "officename": "Kurumbur B.O",
    "pincode": "614622",
    "officetype": "BO",
    "delivery": "Delivery",
    "district": "PUDUKKOTTAI",
    "statename": "TAMIL NADU",
    "latitude": "10.2400000",
    "longitude": "78.9600000"
  },
  {
    "circlename": "Tamilnadu Circle",
    "regionname": "Central Region Trichirapalli",
    "divisionname": "Pudukkottai Division",
    "officename": "Melathaniyam B.O",
    "pincode": "622002",
    "officetype": "BO",
    "delivery": "Delivery",
    "district": "PUDUKKOTTAI",
    "statename": "TAMIL NADU",
    "latitude": "10.4100000",
    "longitude": "78.5900000"
  },
  {
    "circlename": "Tamilnadu Circle",
    "regionname": "Central Region Trichirapalli",
    "divisionname": "Pudukkottai Division",
    "officename": "Amaradakki B.O",
    "pincode": "614618",
    "officetype": "BO",
    "delivery": "Delivery",
    "district": "PUDUKKOTTAI",
    "statename": "TAMIL NADU",
    "latitude": "10.0100000",
    "longitude": "79.1300000"
  },
  {
    "circlename": "Tamilnadu Circle",
    "regionname": "Central Region Trichirapalli",
    "divisionname": "Pudukkottai Division",
    "officename": "Kadukkakadu B.O",
    "pincode": "622304",
    "officetype": "BO",
    "delivery": "Delivery",
    "district": "PUDUKKOTTAI",
    "statename": "TAMIL NADU",
    "latitude": "10.3900000",
    "longitude": "79.0600000"
  },
  {
    "circlename": "Tamilnadu Circle",
    "regionname": "Central Region Trichirapalli",
    "divisionname": "Pudukkottai Division",
    "officename": "Mullankurichi B.O",
    "pincode": "622304",
    "officetype": "BO",
    "delivery": "Delivery",
    "district": "PUDUKKOTTAI",
    "statename": "TAMIL NADU",
    "latitude": "10.4300000",
    "longitude": "79.0700000"
  },
  {
    "circlename": "Tamilnadu Circle",
    "regionname": "Central Region Trichirapalli",
    "divisionname": "Pudukkottai Division",
    "officename": "Kudumianmalai B.O",
    "pincode": "622104",
    "officetype": "BO",
    "delivery": "Delivery",
    "district": "PUDUKKOTTAI",
    "statename": "TAMIL NADU",
    "latitude": "10.4100000",
    "longitude": "78.6800000"
  },
  {
    "circlename": "Tamilnadu Circle",
    "regionname": "Central Region Trichirapalli",
    "divisionname": "Pudukkottai Division",
    "officename": "Gudalur B.O",
    "pincode": "622412",
    "officetype": "BO",
    "delivery": "Delivery",
    "district": "PUDUKKOTTAI",
    "statename": "TAMIL NADU",
    "latitude": "10.3500000",
    "longitude": "78.6800000"
  },
  {
    "circlename": "Tamilnadu Circle",
    "regionname": "Central Region Trichirapalli",
    "divisionname": "Pudukkottai Division",
    "officename": "Perambur B.O",
    "pincode": "621316",
    "officetype": "BO",
    "delivery": "Delivery",
    "district": "PUDUKKOTTAI",
    "statename": "TAMIL NADU",
    "latitude": "10.6000000",
    "longitude": "78.6700000"
  },
  {
    "circlename": "Tamilnadu Circle",
    "regionname": "Central Region Trichirapalli",
    "divisionname": "Pudukkottai Division",
    "officename": "Okkur Perunthamarai B.O",
    "pincode": "622204",
    "officetype": "BO",
    "delivery": "Delivery",
    "district": "PUDUKKOTTAI",
    "statename": "TAMIL NADU",
    "latitude": "10.0100000",
    "longitude": "79.0200000"
  },
  {
    "circlename": "Tamilnadu Circle",
    "regionname": "Central Region Trichirapalli",
    "divisionname": "Pudukkottai Division",
    "officename": "Alangudi S.O",
    "pincode": "622301",
    "officetype": "PO",
    "delivery": "Delivery",
    "district": "PUDUKKOTTAI",
    "statename": "TAMIL NADU",
    "latitude": "10.6000000",
    "longitude": "78.6900000"
  },
  {
    "circlename": "Tamilnadu Circle",
    "regionname": "Central Region Trichirapalli",
    "divisionname": "Pudukkottai Division",
    "officename": "Arantangi Fort S.O",
    "pincode": "614616",
    "officetype": "PO",
    "delivery": "Non Delivery",
    "district": "PUDUKKOTTAI",
    "statename": "TAMIL NADU",
    "latitude": "10.1700000",
    "longitude": "78.9900000"
  },
  {
    "circlename": "Tamilnadu Circle",
    "regionname": "Central Region Trichirapalli",
    "divisionname": "Pudukkottai Division",
    "officename": "Arasarkulam S.O",
    "pincode": "614801",
    "officetype": "PO",
    "delivery": "Delivery",
    "district": "PUDUKKOTTAI",
    "statename": "TAMIL NADU",
    "latitude": "10.1900000",
    "longitude": "79.1200000"
  },
  {
    "circlename": "Tamilnadu Circle",
    "regionname": "Central Region Trichirapalli",
    "divisionname": "Pudukkottai Division",
    "officename": "Arimalam S.O",
    "pincode": "622201",
    "officetype": "PO",
    "delivery": "Delivery",
    "district": "PUDUKKOTTAI",
    "statename": "TAMIL NADU",
    "latitude": "10.2600000",
    "longitude": "78.8900000"
  },
  {
    "circlename": "Tamilnadu Circle",
    "regionname": "Central Region Trichirapalli",
    "divisionname": "Pudukkottai Division",
    "officename": "Kulipirai S.O",
    "pincode": "622402",
    "officetype": "PO",
    "delivery": "Delivery",
    "district": "PUDUKKOTTAI",
    "statename": "TAMIL NADU",
    "latitude": "10.3000000",
    "longitude": "78.6700000"
  },
  {
    "circlename": "Tamilnadu Circle",
    "regionname": "Central Region Trichirapalli",
    "divisionname": "Pudukkottai Division",
    "officename": "Mimisal S.O",
    "pincode": "614621",
    "officetype": "PO",
    "delivery": "Delivery",
    "district": "PUDUKKOTTAI",
    "statename": "TAMIL NADU",
    "latitude": "9.9229167",
    "longitude": "79.1454444"
  },
  {
    "circlename": "Tamilnadu Circle",
    "regionname": "Central Region Trichirapalli",
    "divisionname": "Pudukkottai Division",
    "officename": "Rajagopalapuram S.O",
    "pincode": "622003",
    "officetype": "PO",
    "delivery": "Delivery",
    "district": "PUDUKKOTTAI",
    "statename": "TAMIL NADU",
    "latitude": "10.3700000",
    "longitude": "78.8100000"
  },
  {
    "circlename": "Tamilnadu Circle",
    "regionname": "Central Region Trichirapalli",
    "divisionname": "Pudukkottai Division",
    "officename": "Silattur S.O",
    "pincode": "614622",
    "officetype": "PO",
    "delivery": "Delivery",
    "district": "PUDUKKOTTAI",
    "statename": "TAMIL NADU",
    "latitude": "10.2100000",
    "longitude": "79.0100000"
  },
  {
    "circlename": "Tamilnadu Circle",
    "regionname": "Central Region Trichirapalli",
    "divisionname": "Pudukkottai Division",
    "officename": "Subramaniapuram S.O (Pudukkottai)",
    "pincode": "614805",
    "officetype": "PO",
    "delivery": "Delivery",
    "district": "PUDUKKOTTAI",
    "statename": "TAMIL NADU",
    "latitude": "10.1700000",
    "longitude": "79.1000000"
  },
  {
    "circlename": "Tamilnadu Circle",
    "regionname": "Central Region Trichirapalli",
    "divisionname": "Pudukkottai Division",
    "officename": "Vadakadu S.O",
    "pincode": "622304",
    "officetype": "PO",
    "delivery": "Delivery",
    "district": "PUDUKKOTTAI",
    "statename": "TAMIL NADU",
    "latitude": "10.3400000",
    "longitude": "79.0700000"
  },
  {
    "circlename": "Tamilnadu Circle",
    "regionname": "Central Region Trichirapalli",
    "divisionname": "Pudukkottai Division",
    "officename": "Yembal S.O",
    "pincode": "622204",
    "officetype": "PO",
    "delivery": "Delivery",
    "district": "PUDUKKOTTAI",
    "statename": "TAMIL NADU",
    "latitude": "10.0200000",
    "longitude": "78.9600000"
  },
  {
    "circlename": "Tamilnadu Circle",
    "regionname": "Central Region Trichirapalli",
    "divisionname": "Pudukkottai Division",
    "officename": "Tuvar B.O",
    "pincode": "622301",
    "officetype": "BO",
    "delivery": "Delivery",
    "district": "PUDUKKOTTAI",
    "statename": "TAMIL NADU",
    "latitude": "10.3400000",
    "longitude": "79.0200000"
  },
  {
    "circlename": "Tamilnadu Circle",
    "regionname": "Central Region Trichirapalli",
    "divisionname": "Pudukkottai Division",
    "officename": "Nakudi B.O",
    "pincode": "614616",
    "officetype": "BO",
    "delivery": "Delivery",
    "district": "PUDUKKOTTAI",
    "statename": "TAMIL NADU",
    "latitude": "10.1500000",
    "longitude": "79.1100000"
  },
  {
    "circlename": "Tamilnadu Circle",
    "regionname": "Central Region Trichirapalli",
    "divisionname": "Pudukkottai Division",
    "officename": "Panjatti B.O",
    "pincode": "614616",
    "officetype": "BO",
    "delivery": "Delivery",
    "district": "PUDUKKOTTAI",
    "statename": "TAMIL NADU",
    "latitude": "10.1300000",
    "longitude": "78.9900000"
  },
  {
    "circlename": "Tamilnadu Circle",
    "regionname": "Central Region Trichirapalli",
    "divisionname": "Pudukkottai Division",
    "officename": "Puduvakottai B.O",
    "pincode": "614616",
    "officetype": "BO",
    "delivery": "Delivery",
    "district": "PUDUKKOTTAI",
    "statename": "TAMIL NADU",
    "latitude": "10.1300000",
    "longitude": "78.9900000"
  },
  {
    "circlename": "Tamilnadu Circle",
    "regionname": "Central Region Trichirapalli",
    "divisionname": "Pudukkottai Division",
    "officename": "Thondaimanendal B.O",
    "pincode": "614616",
    "officetype": "BO",
    "delivery": "Delivery",
    "district": "PUDUKKOTTAI",
    "statename": "TAMIL NADU",
    "latitude": "10.1900000",
    "longitude": "79.0200000"
  },
  {
    "circlename": "Tamilnadu Circle",
    "regionname": "Central Region Trichirapalli",
    "divisionname": "Pudukkottai Division",
    "officename": "Ayingudi B.O",
    "pincode": "614801",
    "officetype": "BO",
    "delivery": "Delivery",
    "district": "PUDUKKOTTAI",
    "statename": "TAMIL NADU",
    "latitude": "10.1200000",
    "longitude": "78.9900000"
  },
  {
    "circlename": "Tamilnadu Circle",
    "regionname": "Central Region Trichirapalli",
    "divisionname": "Pudukkottai Division",
    "officename": "Vallavari B.O",
    "pincode": "614801",
    "officetype": "BO",
    "delivery": "Delivery",
    "district": "PUDUKKOTTAI",
    "statename": "TAMIL NADU",
    "latitude": "10.2300000",
    "longitude": "79.0900000"
  },
  {
    "circlename": "Tamilnadu Circle",
    "regionname": "Central Region Trichirapalli",
    "divisionname": "Pudukkottai Division",
    "officename": "Vellanur B.O",
    "pincode": "622501",
    "officetype": "BO",
    "delivery": "Delivery",
    "district": "PUDUKKOTTAI",
    "statename": "TAMIL NADU",
    "latitude": "10.4600000",
    "longitude": "78.8000000"
  },
  {
    "circlename": "Tamilnadu Circle",
    "regionname": "Central Region Trichirapalli",
    "divisionname": "Pudukkottai Division",
    "officename": "Mattangal B.O",
    "pincode": "613301",
    "officetype": "BO",
    "delivery": "Delivery",
    "district": "PUDUKKOTTAI",
    "statename": "TAMIL NADU",
    "latitude": "10.5700000",
    "longitude": "79.0200000"
  },
  {
    "circlename": "Tamilnadu Circle",
    "regionname": "Central Region Trichirapalli",
    "divisionname": "Pudukkottai Division",
    "officename": "Mohanur B.O",
    "pincode": "613301",
    "officetype": "BO",
    "delivery": "Delivery",
    "district": "PUDUKKOTTAI",
    "statename": "TAMIL NADU",
    "latitude": "10.5600000",
    "longitude": "79.0600000"
  },
  {
    "circlename": "Tamilnadu Circle",
    "regionname": "Central Region Trichirapalli",
    "divisionname": "Pudukkottai Division",
    "officename": "Thachankurichi B.O",
    "pincode": "613301",
    "officetype": "BO",
    "delivery": "Delivery",
    "district": "PUDUKKOTTAI",
    "statename": "TAMIL NADU",
    "latitude": "10.6500000",
    "longitude": "78.9900000"
  },
  {
    "circlename": "Tamilnadu Circle",
    "regionname": "Central Region Trichirapalli",
    "divisionname": "Pudukkottai Division",
    "officename": "Veladipatti B.O",
    "pincode": "613301",
    "officetype": "BO",
    "delivery": "Delivery",
    "district": "PUDUKKOTTAI",
    "statename": "TAMIL NADU",
    "latitude": "10.5200000",
    "longitude": "79.0600000"
  },
  {
    "circlename": "Tamilnadu Circle",
    "regionname": "Central Region Trichirapalli",
    "divisionname": "Pudukkottai Division",
    "officename": "Kulandiranpattu B.O",
    "pincode": "622302",
    "officetype": "BO",
    "delivery": "Delivery",
    "district": "PUDUKKOTTAI",
    "statename": "TAMIL NADU",
    "latitude": "10.4700000",
    "longitude": "79.1500000"
  },
  {
    "circlename": "Tamilnadu Circle",
    "regionname": "Central Region Trichirapalli",
    "divisionname": "Pudukkottai Division",
    "officename": "Nagaram B.O",
    "pincode": "614624",
    "officetype": "BO",
    "delivery": "Delivery",
    "district": "PUDUKKOTTAI",
    "statename": "TAMIL NADU",
    "latitude": "10.2900000",
    "longitude": "79.0900000"
  },
  {
    "circlename": "Tamilnadu Circle",
    "regionname": "Central Region Trichirapalli",
    "divisionname": "Pudukkottai Division",
    "officename": "Periyalur B.O",
    "pincode": "614624",
    "officetype": "BO",
    "delivery": "Delivery",
    "district": "PUDUKKOTTAI",
    "statename": "TAMIL NADU",
    "latitude": "10.2700000",
    "longitude": "79.0700000"
  },
  {
    "circlename": "Tamilnadu Circle",
    "regionname": "Central Region Trichirapalli",
    "divisionname": "Pudukkottai Division",
    "officename": "Odugampatti B.O",
    "pincode": "622502",
    "officetype": "BO",
    "delivery": "Delivery",
    "district": "PUDUKKOTTAI",
    "statename": "TAMIL NADU",
    "latitude": "10.5800000",
    "longitude": "78.8600000"
  },
  {
    "circlename": "Tamilnadu Circle",
    "regionname": "Central Region Trichirapalli",
    "divisionname": "Pudukkottai Division",
    "officename": "Sengalur B.O",
    "pincode": "622502",
    "officetype": "BO",
    "delivery": "Delivery",
    "district": "PUDUKKOTTAI",
    "statename": "TAMIL NADU",
    "latitude": "10.6600000",
    "longitude": "78.9000000"
  },
  {
    "circlename": "Tamilnadu Circle",
    "regionname": "Central Region Trichirapalli",
    "divisionname": "Pudukkottai Division",
    "officename": "Valaramanickam B.O",
    "pincode": "622202",
    "officetype": "BO",
    "delivery": "Delivery",
    "district": "PUDUKKOTTAI",
    "statename": "TAMIL NADU",
    "latitude": "10.1100000",
    "longitude": "78.9200000"
  },
  {
    "circlename": "Tamilnadu Circle",
    "regionname": "Central Region Trichirapalli",
    "divisionname": "Pudukkottai Division",
    "officename": "Vambarampatti B.O",
    "pincode": "622209",
    "officetype": "BO",
    "delivery": "Delivery",
    "district": "PUDUKKOTTAI",
    "statename": "TAMIL NADU",
    "latitude": "10.1400000",
    "longitude": "78.8900000"
  },
  {
    "circlename": "Tamilnadu Circle",
    "regionname": "Central Region Trichirapalli",
    "divisionname": "Pudukkottai Division",
    "officename": "Kattubawa Pallivasal B.O",
    "pincode": "622503",
    "officetype": "BO",
    "delivery": "Delivery",
    "district": "PUDUKKOTTAI",
    "statename": "TAMIL NADU",
    "latitude": "10.1800000",
    "longitude": "78.7100000"
  },
  {
    "circlename": "Tamilnadu Circle",
    "regionname": "Central Region Trichirapalli",
    "divisionname": "Pudukkottai Division",
    "officename": "P.Alagapuri B.O",
    "pincode": "622503",
    "officetype": "BO",
    "delivery": "Non Delivery",
    "district": "PUDUKKOTTAI",
    "statename": "TAMIL NADU",
    "latitude": "10.1000000",
    "longitude": "78.8300000"
  },
  {
    "circlename": "Tamilnadu Circle",
    "regionname": "Central Region Trichirapalli",
    "divisionname": "Pudukkottai Division",
    "officename": "Karakathikottai B.O",
    "pincode": "614619",
    "officetype": "BO",
    "delivery": "Delivery",
    "district": "PUDUKKOTTAI",
    "statename": "TAMIL NADU",
    "latitude": "9.9900000",
    "longitude": "79.1900000"
  },
  {
    "circlename": "Tamilnadu Circle",
    "regionname": "Central Region Trichirapalli",
    "divisionname": "Pudukkottai Division",
    "officename": "Odukkur B.O",
    "pincode": "622504",
    "officetype": "BO",
    "delivery": "Delivery",
    "district": "PUDUKKOTTAI",
    "statename": "TAMIL NADU",
    "latitude": "10.5400000",
    "longitude": "78.7500000"
  },
  {
    "circlename": "Tamilnadu Circle",
    "regionname": "Central Region Trichirapalli",
    "divisionname": "Pudukkottai Division",
    "officename": "Puliyur B.O",
    "pincode": "622504",
    "officetype": "BO",
    "delivery": "Delivery",
    "district": "PUDUKKOTTAI",
    "statename": "TAMIL NADU",
    "latitude": "10.6300000",
    "longitude": "78.8400000"
  },
  {
    "circlename": "Tamilnadu Circle",
    "regionname": "Central Region Trichirapalli",
    "divisionname": "Pudukkottai Division",
    "officename": "Arasamalai B.O",
    "pincode": "622402",
    "officetype": "BO",
    "delivery": "Delivery",
    "district": "PUDUKKOTTAI",
    "statename": "TAMIL NADU",
    "latitude": "10.3300000",
    "longitude": "78.6400000"
  },
  {
    "circlename": "Tamilnadu Circle",
    "regionname": "Central Region Trichirapalli",
    "divisionname": "Pudukkottai Division",
    "officename": "Panayapatti B.O",
    "pincode": "622402",
    "officetype": "BO",
    "delivery": "Delivery",
    "district": "PUDUKKOTTAI",
    "statename": "TAMIL NADU",
    "latitude": "10.3100000",
    "longitude": "78.6800000"
  },
  {
    "circlename": "Tamilnadu Circle",
    "regionname": "Central Region Trichirapalli",
    "divisionname": "Pudukkottai Division",
    "officename": "Killanur B.O",
    "pincode": "622203",
    "officetype": "BO",
    "delivery": "Delivery",
    "district": "PUDUKKOTTAI",
    "statename": "TAMIL NADU",
    "latitude": "10.5400000",
    "longitude": "78.9100000"
  },
  {
    "circlename": "Tamilnadu Circle",
    "regionname": "Central Region Trichirapalli",
    "divisionname": "Pudukkottai Division",
    "officename": "Manaviduthi B.O",
    "pincode": "622203",
    "officetype": "BO",
    "delivery": "Delivery",
    "district": "PUDUKKOTTAI",
    "statename": "TAMIL NADU",
    "latitude": "10.4400000",
    "longitude": "78.9400000"
  },
  {
    "circlename": "Tamilnadu Circle",
    "regionname": "Central Region Trichirapalli",
    "divisionname": "Pudukkottai Division",
    "officename": "Varappur B.O",
    "pincode": "622203",
    "officetype": "BO",
    "delivery": "Delivery",
    "district": "PUDUKKOTTAI",
    "statename": "TAMIL NADU",
    "latitude": "10.4500000",
    "longitude": "78.9900000"
  },
  {
    "circlename": "Tamilnadu Circle",
    "regionname": "Central Region Trichirapalli",
    "divisionname": "Pudukkottai Division",
    "officename": "Adambur B.O",
    "pincode": "614629",
    "officetype": "BO",
    "delivery": "Delivery",
    "district": "PUDUKKOTTAI",
    "statename": "TAMIL NADU",
    "latitude": "9.9100000",
    "longitude": "79.0600000"
  },
  {
    "circlename": "Tamilnadu Circle",
    "regionname": "Central Region Trichirapalli",
    "divisionname": "Pudukkottai Division",
    "officename": "Thiruppunavasal B.O",
    "pincode": "614629",
    "officetype": "BO",
    "delivery": "Delivery",
    "district": "PUDUKKOTTAI",
    "statename": "TAMIL NADU",
    "latitude": "9.8400000",
    "longitude": "79.0800000"
  },
  {
    "circlename": "Tamilnadu Circle",
    "regionname": "Central Region Trichirapalli",
    "divisionname": "Pudukkottai Division",
    "officename": "Rajapatti B.O",
    "pincode": "622004",
    "officetype": "BO",
    "delivery": "Delivery",
    "district": "PUDUKKOTTAI",
    "statename": "TAMIL NADU",
    "latitude": "10.3800000",
    "longitude": "78.4100000"
  },
  {
    "circlename": "Tamilnadu Circle",
    "regionname": "Central Region Trichirapalli",
    "divisionname": "Pudukkottai Division",
    "officename": "Arputhapuram B.O",
    "pincode": "622506",
    "officetype": "BO",
    "delivery": "Delivery",
    "district": "PUDUKKOTTAI",
    "statename": "TAMIL NADU",
    "latitude": "10.2600000",
    "longitude": "78.7900000"
  },
  {
    "circlename": "Tamilnadu Circle",
    "regionname": "Central Region Trichirapalli",
    "divisionname": "Pudukkottai Division",
    "officename": "Chidambaraviduthi B.O",
    "pincode": "614622",
    "officetype": "BO",
    "delivery": "Delivery",
    "district": "PUDUKKOTTAI",
    "statename": "TAMIL NADU",
    "latitude": "10.2300000",
    "longitude": "78.9700000"
  },
  {
    "circlename": "Tamilnadu Circle",
    "regionname": "Central Region Trichirapalli",
    "divisionname": "Pudukkottai Division",
    "officename": "Amarasimhendrapuram B.O",
    "pincode": "614805",
    "officetype": "BO",
    "delivery": "Delivery",
    "district": "PUDUKKOTTAI",
    "statename": "TAMIL NADU",
    "latitude": "10.1900000",
    "longitude": "79.1800000"
  },
  {
    "circlename": "Tamilnadu Circle",
    "regionname": "Central Region Trichirapalli",
    "divisionname": "Pudukkottai Division",
    "officename": "Pandipathiram B.O",
    "pincode": "614618",
    "officetype": "BO",
    "delivery": "Delivery",
    "district": "PUDUKKOTTAI",
    "statename": "TAMIL NADU",
    "latitude": "10.0600000",
    "longitude": "79.0800000"
  },
  {
    "circlename": "Tamilnadu Circle",
    "regionname": "Central Region Trichirapalli",
    "divisionname": "Pudukkottai Division",
    "officename": "Kothakottai B.O",
    "pincode": "622303",
    "officetype": "BO",
    "delivery": "Delivery",
    "district": "PUDUKKOTTAI",
    "statename": "TAMIL NADU",
    "latitude": "10.3500000",
    "longitude": "78.8500000"
  },
  {
    "circlename": "Tamilnadu Circle",
    "regionname": "Central Region Trichirapalli",
    "divisionname": "Pudukkottai Division",
    "officename": "Vallathirakottai B.O",
    "pincode": "622303",
    "officetype": "BO",
    "delivery": "Delivery",
    "district": "PUDUKKOTTAI",
    "statename": "TAMIL NADU",
    "latitude": "10.3100000",
    "longitude": "78.9100000"
  },
  {
    "circlename": "Tamilnadu Circle",
    "regionname": "Central Region Trichirapalli",
    "divisionname": "Pudukkottai Division",
    "officename": "Parambur B.O",
    "pincode": "622104",
    "officetype": "BO",
    "delivery": "Delivery",
    "district": "PUDUKKOTTAI",
    "statename": "TAMIL NADU",
    "latitude": "10.4200000",
    "longitude": "78.6600000"
  },
  {
    "circlename": "Tamilnadu Circle",
    "regionname": "Central Region Trichirapalli",
    "divisionname": "Pudukkottai Division",
    "officename": "Erasanayakkanpatti B.O",
    "pincode": "621316",
    "officetype": "BO",
    "delivery": "Delivery",
    "district": "PUDUKKOTTAI",
    "statename": "TAMIL NADU",
    "latitude": "10.6400000",
    "longitude": "78.5900000"
  },
  {
    "circlename": "Tamilnadu Circle",
    "regionname": "Central Region Trichirapalli",
    "divisionname": "Pudukkottai Division",
    "officename": "Poruvai B.O",
    "pincode": "621316",
    "officetype": "BO",
    "delivery": "Delivery",
    "district": "PUDUKKOTTAI",
    "statename": "TAMIL NADU",
    "latitude": "10.6400000",
    "longitude": "78.5500000"
  },
  {
    "circlename": "Tamilnadu Circle",
    "regionname": "Central Region Trichirapalli",
    "divisionname": "Pudukkottai Division",
    "officename": "Velur B.O",
    "pincode": "621316",
    "officetype": "BO",
    "delivery": "Delivery",
    "district": "PUDUKKOTTAI",
    "statename": "TAMIL NADU",
    "latitude": "10.6100000",
    "longitude": "78.5900000"
  },
  {
    "circlename": "Tamilnadu Circle",
    "regionname": "Central Region Trichirapalli",
    "divisionname": "Pudukkottai Division",
    "officename": "Karuvur B.O",
    "pincode": "622204",
    "officetype": "BO",
    "delivery": "Delivery",
    "district": "PUDUKKOTTAI",
    "statename": "TAMIL NADU",
    "latitude": "9.9700000",
    "longitude": "79.0200000"
  },
  {
    "circlename": "Tamilnadu Circle",
    "regionname": "Central Region Trichirapalli",
    "divisionname": "Pudukkottai Division",
    "officename": "Cauvery Nagar S.O",
    "pincode": "622501",
    "officetype": "PO",
    "delivery": "Delivery",
    "district": "PUDUKKOTTAI",
    "statename": "TAMIL NADU",
    "latitude": "10.4700000",
    "longitude": "78.8000000"
  },
  {
    "circlename": "Tamilnadu Circle",
    "regionname": "Central Region Trichirapalli",
    "divisionname": "Pudukkottai Division",
    "officename": "Illuppur S.O",
    "pincode": "622102",
    "officetype": "PO",
    "delivery": "Delivery",
    "district": "PUDUKKOTTAI",
    "statename": "TAMIL NADU",
    "latitude": "10.5000000",
    "longitude": "78.6400000"
  },
  {
    "circlename": "Tamilnadu Circle",
    "regionname": "Central Region Trichirapalli",
    "divisionname": "Pudukkottai Division",
    "officename": "Karambakudi S.O",
    "pincode": "622302",
    "officetype": "PO",
    "delivery": "Delivery",
    "district": "PUDUKKOTTAI",
    "statename": "TAMIL NADU",
    "latitude": "10.4600000",
    "longitude": "79.1400000"
  },
  {
    "circlename": "Tamilnadu Circle",
    "regionname": "Central Region Trichirapalli",
    "divisionname": "Pudukkottai Division",
    "officename": "Keeranur S.O",
    "pincode": "622502",
    "officetype": "PO",
    "delivery": "Delivery",
    "district": "PUDUKKOTTAI",
    "statename": "TAMIL NADU",
    "latitude": "10.5700000",
    "longitude": "78.7900000"
  },
  {
    "circlename": "Tamilnadu Circle",
    "regionname": "Central Region Trichirapalli",
    "divisionname": "Pudukkottai Division",
    "officename": "Kilanilai S.O",
    "pincode": "622202",
    "officetype": "PO",
    "delivery": "Delivery",
    "district": "PUDUKKOTTAI",
    "statename": "TAMIL NADU",
    "latitude": "10.1800000",
    "longitude": "78.9100000"
  },
  {
    "circlename": "Tamilnadu Circle",
    "regionname": "Central Region Trichirapalli",
    "divisionname": "Pudukkottai Division",
    "officename": "Konapet S.O",
    "pincode": "622503",
    "officetype": "PO",
    "delivery": "Delivery",
    "district": "PUDUKKOTTAI",
    "statename": "TAMIL NADU",
    "latitude": "10.1700000",
    "longitude": "78.7400000"
  },
  {
    "circlename": "Tamilnadu Circle",
    "regionname": "Central Region Trichirapalli",
    "divisionname": "Pudukkottai Division",
    "officename": "Mathur Ind. Estate S.O",
    "pincode": "622515",
    "officetype": "PO",
    "delivery": "Delivery",
    "district": "PUDUKKOTTAI",
    "statename": "TAMIL NADU",
    "latitude": "10.7100000",
    "longitude": "78.7241389"
  },
  {
    "circlename": "Tamilnadu Circle",
    "regionname": "Central Region Trichirapalli",
    "divisionname": "Pudukkottai Division",
    "officename": "Perungalur S.O",
    "pincode": "622203",
    "officetype": "PO",
    "delivery": "Delivery",
    "district": "PUDUKKOTTAI",
    "statename": "TAMIL NADU",
    "latitude": "10.4900000",
    "longitude": "78.9300000"
  },
  {
    "circlename": "Tamilnadu Circle",
    "regionname": "Central Region Trichirapalli",
    "divisionname": "Pudukkottai Division",
    "officename": "Ponnamaravathy S.O",
    "pincode": "622407",
    "officetype": "PO",
    "delivery": "Delivery",
    "district": "PUDUKKOTTAI",
    "statename": "TAMIL NADU",
    "latitude": "10.2600000",
    "longitude": "78.5600000"
  },