[
  {
    "circlename": "Tamilnadu Circle",
    "regionname": "Southern Region Madurai",
    "divisionname": "Kovilpatti Division",
    "officename": "Gudalur B.O",
    "pincode": "627760",
    "officetype": "BO",
    "delivery": "Delivery",
    "district": "TENKASI",
    "statename": "TAMIL NADU",
    "latitude": "9.2036000",
    "longitude": "77.3867000"
  },
  {
    "circlename": "Tamilnadu Circle",
    "regionname": "Southern Region Madurai",
    "divisionname": "Kovilpatti Division",
    "officename": "Kulasekaraperi B.O",
    "pincode": "627753",
    "officetype": "BO",
    "delivery": "Delivery",
    "district": "TENKASI",
    "statename": "TAMIL NADU",
    "latitude": "9.2248000",
    "longitude": "77.5010000"
  },
  {
    "circlename": "Tamilnadu Circle",
    "regionname": "Southern Region Madurai",
    "divisionname": "Kovilpatti Division",
    "officename": "Manalur B.O",
    "pincode": "627753",
    "officetype": "BO",
    "delivery": "Delivery",
    "district": "TENKASI",
    "statename": "TAMIL NADU",
    "latitude": "9.2131000",
    "longitude": "77.5288000"
  },
  {
    "circlename": "Tamilnadu Circle",
    "regionname": "Southern Region Madurai",
    "divisionname": "Kovilpatti Division",
    "officename": "SINNIKULAM B.O",
    "pincode": "627753",
    "officetype": "BO",
    "delivery": "Delivery",
    "district": "TENKASI",
    "statename": "TAMIL NADU",
    "latitude": "9.2471999999999994",
    "longitude": "77.544300000000007"
  },
  {
    "circlename": "Tamilnadu Circle",
    "regionname": "Southern Region Madurai",
    "divisionname": "Kovilpatti Division",
    "officename": "Srigomathipuram B.O",
    "pincode": "627753",
    "officetype": "BO",
    "delivery": "Delivery",
    "district": "TENKASI",
    "statename": "TAMIL NADU",
    "latitude": "9.1875000",
    "longitude": "77.5124000"
  },
  {
    "circlename": "Tamilnadu Circle",
    "regionname": "Southern Region Madurai",
    "divisionname": "Kovilpatti Division",
    "officename": "ALAGUNATCHIARPURAM B.O",
    "pincode": "627754",
    "officetype": "BO",
    "delivery": "Delivery",
    "district": "TENKASI",
    "statename": "TAMIL NADU",
    "latitude": "9.1227999999999998",
    "longitude": "77.610100000000003"
  },
  {
    "circlename": "Tamilnadu Circle",
    "regionname": "Southern Region Madurai",
    "divisionname": "Kovilpatti Division",
    "officename": "Vagaikulam B.O",
    "pincode": "627754",
    "officetype": "BO",
    "delivery": "Delivery",
    "district": "TENKASI",
    "statename": "TAMIL NADU",
    "latitude": "9.1517000",
    "longitude": "77.6292000"
  },
  {
    "circlename": "Tamilnadu Circle",
    "regionname": "Southern Region Madurai",
    "divisionname": "Kovilpatti Division",
    "officename": "BALABATHRARAMAPURAM B.O",
    "pincode": "627953",
    "officetype": "BO",
    "delivery": "Delivery",
    "district": "TENKASI",
    "statename": "TAMIL NADU",
    "latitude": "9.0395000000000003",
    "longitude": "77.557400000000001"
  },
  {
    "circlename": "Tamilnadu Circle",
    "regionname": "Southern Region Madurai",
    "divisionname": "Kovilpatti Division",
    "officename": "Maruthankinar B.O",
    "pincode": "627953",
    "officetype": "BO",
    "delivery": "Delivery",
    "district": "TENKASI",
    "statename": "TAMIL NADU",
    "latitude": "9.0828000",
    "longitude": "77.6210000"
  },
  {
    "circlename": "Tamilnadu Circle",
    "regionname": "Southern Region Madurai",
    "divisionname": "Kovilpatti Division",
    "officename": "PERIAKOVILANKULAM B.O",
    "pincode": "627953",
    "officetype": "BO",
    "delivery": "Delivery",
    "district": "TENKASI",
    "statename": "TAMIL NADU",
    "latitude": "9.1110000000000007",
    "longitude": "77.531300000000002"
  },
  {
    "circlename": "Tamilnadu Circle",
    "regionname": "Southern Region Madurai",
    "divisionname": "Kovilpatti Division",
    "officename": "Ramanathapuram(SNL) B.O",
    "pincode": "627953",
    "officetype": "BO",
    "delivery": "Delivery",
    "district": "TENKASI",
    "statename": "TAMIL NADU",
    "latitude": "9.1399000",
    "longitude": "77.5461000"
  },
  {
    "circlename": "Tamilnadu Circle",
    "regionname": "Southern Region Madurai",
    "divisionname": "Kovilpatti Division",
    "officename": "Thalaivankottai B.O",
    "pincode": "627755",
    "officetype": "BO",
    "delivery": "Delivery",
    "district": "TENKASI",
    "statename": "TAMIL NADU",
    "latitude": "9.1789000",
    "longitude": "77.4218000"
  },
  {
    "circlename": "Tamilnadu Circle",
    "regionname": "Southern Region Madurai",
    "divisionname": "Kovilpatti Division",
    "officename": "PUNNIAPURAM B.O",
    "pincode": "627855",
    "officetype": "BO",
    "delivery": "Delivery",
    "district": "TENKASI",
    "statename": "TAMIL NADU",
    "latitude": "9.1382999999999992",
    "longitude": "77.370400000000004"
  },
  {
    "circlename": "Tamilnadu Circle",
    "regionname": "Southern Region Madurai",
    "divisionname": "Kovilpatti Division",
    "officename": "Thannuthu B.O",
    "pincode": "627857",
    "officetype": "BO",
    "delivery": "Delivery",
    "district": "TENKASI",
    "statename": "TAMIL NADU",
    "latitude": "9.0423000",
    "longitude": "77.4176000"
  },
  {
    "circlename": "Tamilnadu Circle",
    "regionname": "Southern Region Madurai",
    "divisionname": "Kovilpatti Division",
    "officename": "Valasai B.O",
    "pincode": "627857",
    "officetype": "BO",
    "delivery": "Delivery",
    "district": "TENKASI",
    "statename": "TAMIL NADU",
    "latitude": "9.0671000",
    "longitude": "77.3704000"
  },
  {
    "circlename": "Tamilnadu Circle",
    "regionname": "Southern Region Madurai",
    "divisionname": "Kovilpatti Division",
    "officename": "Duraisamypuram B.O",
    "pincode": "627764",
    "officetype": "BO",
    "delivery": "Delivery",
    "district": "TENKASI",
    "statename": "TAMIL NADU",
    "latitude": "9.2812000",
    "longitude": "77.4590000"
  },
  {
    "circlename": "Tamilnadu Circle",
    "regionname": "Southern Region Madurai",
    "divisionname": "Kovilpatti Division",
    "officename": "Tenmalai B.O",
    "pincode": "627757",
    "officetype": "BO",
    "delivery": "Delivery",
    "district": "TENKASI",
    "statename": "TAMIL NADU",
    "latitude": "9.2985000",
    "longitude": "77.4678000"
  },
  {
    "circlename": "Tamilnadu Circle",
    "regionname": "Southern Region Madurai",
    "divisionname": "Kovilpatti Division",
    "officename": "Vadugapatti B.O",
    "pincode": "627757",
    "officetype": "BO",
    "delivery": "Delivery",
    "district": "TENKASI",
    "statename": "TAMIL NADU",
    "latitude": "9.3161000",
    "longitude": "77.4376000"
  },
  {
    "circlename": "Tamilnadu Circle",
    "regionname": "Southern Region Madurai",
    "divisionname": "Kovilpatti Division",
    "officename": "Karuvanda B.O",
    "pincode": "627860",
    "officetype": "BO",
    "delivery": "Delivery",
    "district": "TENKASI",
    "statename": "TAMIL NADU",
    "latitude": "8.9530000",
    "longitude": "77.4626000"
  },
  {
    "circlename": "Tamilnadu Circle",
    "regionname": "Southern Region Madurai",
    "divisionname": "Kovilpatti Division",
    "officename": "Kilakalangal B.O",
    "pincode": "627860",
    "officetype": "BO",
    "delivery": "Delivery",
    "district": "TENKASI",
    "statename": "TAMIL NADU",
    "latitude": "9.0162000",
    "longitude": "77.4948000"
  },
  {
    "circlename": "Tamilnadu Circle",
    "regionname": "Southern Region Madurai",
    "divisionname": "Kovilpatti Division",
    "officename": "Ariyanayagipuram B.O",
    "pincode": "627862",
    "officetype": "BO",
    "delivery": "Delivery",
    "district": "TENKASI",
    "statename": "TAMIL NADU",
    "latitude": "9.0949000",
    "longitude": "77.3971000"
  },
  {
    "circlename": "Tamilnadu Circle",
    "regionname": "Southern Region Madurai",
    "divisionname": "Kovilpatti Division",
    "officename": "Kilavirasigamani B.O",
    "pincode": "627862",
    "officetype": "BO",
    "delivery": "Delivery",
    "district": "TENKASI",
    "statename": "TAMIL NADU",
    "latitude": "9.1108000",
    "longitude": "77.4438000"
  },
  {
    "circlename": "Tamilnadu Circle",
    "regionname": "Southern Region Madurai",
    "divisionname": "Kovilpatti Division",
    "officename": "PAMBUKOVILSHANDAY B.O",
    "pincode": "627862",
    "officetype": "BO",
    "delivery": "Delivery",
    "district": "TENKASI",
    "statename": "TAMIL NADU",
    "latitude": "9.1196999999999999",
    "longitude": "77.394800000000004"
  },
  {
    "circlename": "Tamilnadu Circle",
    "regionname": "Southern Region Madurai",
    "divisionname": "Kovilpatti Division",
    "officename": "Kanakkupillaivalasai B.O",
    "pincode": "627803",
    "officetype": "BO",
    "delivery": "Delivery",
    "district": "TENKASI",
    "statename": "TAMIL NADU",
    "latitude": "8.9908000",
    "longitude": "77.2519000"
  },
  {
    "circlename": "Tamilnadu Circle",
    "regionname": "Southern Region Madurai",
    "divisionname": "Kovilpatti Division",
    "officename": "Kasidharmam B.O",
    "pincode": "627751",
    "officetype": "BO",
    "delivery": "Delivery",
    "district": "TENKASI",
    "statename": "TAMIL NADU",
    "latitude": "9.0448000",
    "longitude": "77.2931000"
  },
  {
    "circlename": "Tamilnadu Circle",
    "regionname": "Southern Region Madurai",
    "divisionname": "Kovilpatti Division",
    "officename": "Sundaresapuram B.O",
    "pincode": "627751",
    "officetype": "BO",
    "delivery": "Delivery",
    "district": "TENKASI",
    "statename": "TAMIL NADU",
    "latitude": "9.0893000",
    "longitude": "77.3694000"
  },
  {
    "circlename": "Tamilnadu Circle",
    "regionname": "Southern Region Madurai",
    "divisionname": "Kovilpatti Division",
    "officename": "Ayyanarkulam B.O",
    "pincode": "627853",
    "officetype": "BO",
    "delivery": "Delivery",
    "district": "TENKASI",
    "statename": "TAMIL NADU",
    "latitude": "8.8769000",
    "longitude": "77.5096000"
  },
  {
    "circlename": "Tamilnadu Circle",
    "regionname": "Southern Region Madurai",
    "divisionname": "Kovilpatti Division",
    "officename": "Kavalakurichi B.O",
    "pincode": "627854",
    "officetype": "BO",
    "delivery": "Delivery",
    "district": "TENKASI",
    "statename": "TAMIL NADU",
    "latitude": "8.9275000",
    "longitude": "77.5318000"
  },
  {
    "circlename": "Tamilnadu Circle",
    "regionname": "Southern Region Madurai",
    "divisionname": "Kovilpatti Division",
    "officename": "KIDARAGULAM B.O",
    "pincode": "627854",
    "officetype": "BO",
    "delivery": "Delivery",
    "district": "TENKASI",
    "statename": "TAMIL NADU",
    "latitude": "8.9067000000000007",
    "longitude": "77.489599999999996"
  },
  {
    "circlename": "Tamilnadu Circle",
    "regionname": "Southern Region Madurai",
    "divisionname": "Kovilpatti Division",
    "officename": "Karisalkudiyiruppu B.O",
    "pincode": "627807",
    "officetype": "BO",
    "delivery": "Delivery",
    "district": "TENKASI",
    "statename": "TAMIL NADU",
    "latitude": "9.0148000",
    "longitude": "77.2455000"
  },
  {
    "circlename": "Tamilnadu Circle",
    "regionname": "Southern Region Madurai",
    "divisionname": "Kovilpatti Division",
    "officename": "AVADAIYANUR B.O",
    "pincode": "627808",
    "officetype": "BO",
    "delivery": "Delivery",
    "district": "TENKASI",
    "statename": "TAMIL NADU",
    "latitude": "8.8672000000000004",
    "longitude": "77.366799999999998"
  },
  {
    "circlename": "Tamilnadu Circle",
    "regionname": "Southern Region Madurai",
    "divisionname": "Kovilpatti Division",
    "officename": "Pethanadarpatti B.O",
    "pincode": "627808",
    "officetype": "BO",
    "delivery": "Delivery",
    "district": "TENKASI",
    "statename": "TAMIL NADU",
    "latitude": "8.8213000",
    "longitude": "77.3216000"
  },
  {
    "circlename": "Tamilnadu Circle",
    "regionname": "Southern Region Madurai",
    "divisionname": "Kovilpatti Division",
    "officename": "THIPPANAMPATTI B.O",
    "pincode": "627808",
    "officetype": "BO",
    "delivery": "Delivery",
    "district": "TENKASI",
    "statename": "TAMIL NADU",
    "latitude": "8.8853000000000009",
    "longitude": "77.354299999999995"
  },
  {
    "circlename": "Tamilnadu Circle",
    "regionname": "Southern Region Madurai",
    "divisionname": "Kovilpatti Division",
    "officename": "KATALAIKUDIYIRUPPU B.O",
    "pincode": "627813",
    "officetype": "BO",
    "delivery": "Delivery",
    "district": "TENKASI",
    "statename": "TAMIL NADU",
    "latitude": "8.9123999999999999",
    "longitude": "77.367400000000004"
  },
  {
    "circlename": "Tamilnadu Circle",
    "regionname": "Southern Region Madurai",
    "divisionname": "Kovilpatti Division",
    "officename": "Poolankudiyiruppu B.O",
    "pincode": "627813",
    "officetype": "BO",
    "delivery": "Delivery",
    "district": "TENKASI",
    "statename": "TAMIL NADU",
    "latitude": "8.9833000",
    "longitude": "77.2037000"
  },
  {
    "circlename": "Tamilnadu Circle",
    "regionname": "Southern Region Madurai",
    "divisionname": "Kovilpatti Division",
    "officename": "PARANKUNTRAPURAM B.O",
    "pincode": "627859",
    "officetype": "BO",
    "delivery": "Delivery",
    "district": "TENKASI",
    "statename": "TAMIL NADU",
    "latitude": "8.9513999999999996",
    "longitude": "77.435199999999995"
  },
  {
    "circlename": "Tamilnadu Circle",
    "regionname": "Southern Region Madurai",
    "divisionname": "Kovilpatti Division",
    "officename": "Achankuttam B.O",
    "pincode": "627861",
    "officetype": "BO",
    "delivery": "Delivery",
    "district": "TENKASI",
    "statename": "TAMIL NADU",
    "latitude": "8.8911000",
    "longitude": "77.3584000"
  },
  {
    "circlename": "Tamilnadu Circle",
    "regionname": "Southern Region Madurai",
    "divisionname": "Kovilpatti Division",
    "officename": "Vadi B.O",
    "pincode": "627861",
    "officetype": "BO",
    "delivery": "Delivery",
    "district": "TENKASI",
    "statename": "TAMIL NADU",
    "latitude": "8.9201000",
    "longitude": "77.3660000"
  },
  {
    "circlename": "Tamilnadu Circle",
    "regionname": "Southern Region Madurai",
    "divisionname": "Kovilpatti Division",
    "officename": "Veeranam B.O",
    "pincode": "627861",
    "officetype": "BO",
    "delivery": "Delivery",
    "district": "TENKASI",
    "statename": "TAMIL NADU",
    "latitude": "8.9234000",
    "longitude": "77.4710000"
  },
  {
    "circlename": "Tamilnadu Circle",
    "regionname": "Southern Region Madurai",
    "divisionname": "Tirunelveli Division",
    "officename": "Rengasamudram BO",
    "pincode": "627413",
    "officetype": "BO",
    "delivery": "Delivery",
    "district": "TENKASI",
    "statename": "TAMIL NADU",
    "latitude": "8.7334510",
    "longitude": "77.4851020"
  },
  {
    "circlename": "Tamilnadu Circle",
    "regionname": "Southern Region Madurai",
    "divisionname": "Tirunelveli Division",
    "officename": "Mathapuram BO",
    "pincode": "627415",
    "officetype": "BO",
    "delivery": "Delivery",
    "district": "TENKASI",
    "statename": "TAMIL NADU",
    "latitude": "8.8457660",
    "longitude": "77.3606870"
  },
  {
    "circlename": "Tamilnadu Circle",
    "regionname": "Southern Region Madurai",
    "divisionname": "Tirunelveli Division",
    "officename": "Odaimarichan BO",
    "pincode": "627602",
    "officetype": "BO",
    "delivery": "Delivery",
    "district": "TENKASI",
    "statename": "TAMIL NADU",
    "latitude": "8.7998850",
    "longitude": "77.5331450"
  },
  {
    "circlename": "Tamilnadu Circle",
    "regionname": "Southern Region Madurai",
    "divisionname": "Tirunelveli Division",
    "officename": "Ananjaperumal Nadanur BO",
    "pincode": "627423",
    "officetype": "BO",
    "delivery": "Delivery",
    "district": "TENKASI",
    "statename": "TAMIL NADU",
    "latitude": "8.8006310",
    "longitude": "77.4242920"
  },
  {
    "circlename": "Tamilnadu Circle",
    "regionname": "Southern Region Madurai",
    "divisionname": "Kovilpatti Division",
    "officename": "Karivalamvandanallur S.O",
    "pincode": "627753",
    "officetype": "PO",
    "delivery": "Delivery",
    "district": "TENKASI",
    "statename": "TAMIL NADU",
    "latitude": "9.2631000",
    "longitude": "77.5273000"
  },
  {
    "circlename": "Tamilnadu Circle",
    "regionname": "Southern Region Madurai",
    "divisionname": "Kovilpatti Division",
    "officename": "Mullikulam S.O",
    "pincode": "627755",
    "officetype": "PO",
    "delivery": "Delivery",
    "district": "TENKASI",
    "statename": "TAMIL NADU",
    "latitude": "9.1768000",
    "longitude": "77.4342000"
  },
  {
    "circlename": "Tamilnadu Circle",
    "regionname": "Southern Region Madurai",
    "divisionname": "Kovilpatti Division",
    "officename": "Puliyangudi S.O",
    "pincode": "627855",
    "officetype": "PO",
    "delivery": "Delivery",
    "district": "TENKASI",
    "statename": "TAMIL NADU",
    "latitude": "9.1625000",
    "longitude": "77.3680000"
  },
  {
    "circlename": "Tamilnadu Circle",
    "regionname": "Southern Region Madurai",
    "divisionname": "Kovilpatti Division",
    "officename": "Sivagiri S.O (Tirunelveli)",
    "pincode": "627757",
    "officetype": "PO",
    "delivery": "Delivery",
    "district": "TENKASI",
    "statename": "TAMIL NADU",
    "latitude": "9.3363000",
    "longitude": "77.4128000"
  },
  {
    "circlename": "Tamilnadu Circle",
    "regionname": "Southern Region Madurai",
    "divisionname": "Kovilpatti Division",
    "officename": "Krishnapuram (TVL) S.O",
    "pincode": "627759",
    "officetype": "PO",
    "delivery": "Delivery",
    "district": "TENKASI",
    "statename": "TAMIL NADU",
    "latitude": "9.0786000",
    "longitude": "77.3196100"
  },
  {
    "circlename": "Tamilnadu Circle",
    "regionname": "Southern Region Madurai",
    "divisionname": "Kovilpatti Division",
    "officename": "Kulakkattakurichi B.O",
    "pincode": "627713",
    "officetype": "BO",
    "delivery": "Delivery",
    "district": "TENKASI",
    "statename": "TAMIL NADU",
    "latitude": "9.1966000",
    "longitude": "77.6936000"
  },
  {
    "circlename": "Tamilnadu Circle",
    "regionname": "Southern Region Madurai",
    "divisionname": "Kovilpatti Division",
    "officename": "Vellakulam B.O",
    "pincode": "627719",
    "officetype": "BO",
    "delivery": "Delivery",
    "district": "TENKASI",
    "statename": "TAMIL NADU",
    "latitude": "9.1841000",
    "longitude": "77.5962000"
  },
  {
    "circlename": "Tamilnadu Circle",
    "regionname": "Southern Region Madurai",
    "divisionname": "Kovilpatti Division",
    "officename": "Naranapuram B.O",
    "pincode": "627760",
    "officetype": "BO",
    "delivery": "Delivery",
    "district": "TENKASI",
    "statename": "TAMIL NADU",
    "latitude": "9.2447000",
    "longitude": "77.4061000"
  },
  {
    "circlename": "Tamilnadu Circle",
    "regionname": "Southern Region Madurai",
    "divisionname": "Kovilpatti Division",
    "officename": "Pazhankottai B.O",
    "pincode": "628552",
    "officetype": "BO",
    "delivery": "Delivery",
    "district": "TENKASI",
    "statename": "TAMIL NADU",
    "latitude": "9.1214000",
    "longitude": "77.6737000"
  },
  {
    "circlename": "Tamilnadu Circle",
    "regionname": "Southern Region Madurai",
    "divisionname": "Kovilpatti Division",
    "officename": "Senthattiapuram B.O",
    "pincode": "627753",
    "officetype": "BO",
    "delivery": "Delivery",
    "district": "TENKASI",
    "statename": "TAMIL NADU",
    "latitude": "9.3308000",
    "longitude": "77.5627000"
  },
  {
    "circlename": "Tamilnadu Circle",
    "regionname": "Southern Region Madurai",
    "divisionname": "Kovilpatti Division",
    "officename": "Subbulapuram B.O",
    "pincode": "627753",
    "officetype": "BO",
    "delivery": "Delivery",
    "district": "TENKASI",
    "statename": "TAMIL NADU",
    "latitude": "9.2475000",
    "longitude": "77.5720000"
  },
  {
    "circlename": "Tamilnadu Circle",
    "regionname": "Southern Region Madurai",
    "divisionname": "Kovilpatti Division",
    "officename": "Azhaganeri B.O",
    "pincode": "627754",
    "officetype": "BO",
    "delivery": "Delivery",
    "district": "TENKASI",
    "statename": "TAMIL NADU",
    "latitude": "9.1450000",
    "longitude": "77.6130000"
  },
  {
    "circlename": "Tamilnadu Circle",
    "regionname": "Southern Region Madurai",
    "divisionname": "Kovilpatti Division",
    "officename": "Kalappakulam B.O",
    "pincode": "627754",
    "officetype": "BO",
    "delivery": "Delivery",
    "district": "TENKASI",
    "statename": "TAMIL NADU",
    "latitude": "9.1768000",
    "longitude": "77.5388000"
  },
  {
    "circlename": "Tamilnadu Circle",
    "regionname": "Southern Region Madurai",
    "divisionname": "Kovilpatti Division",
    "officename": "Perungottur B.O",
    "pincode": "627754",
    "officetype": "BO",
    "delivery": "Delivery",
    "district": "TENKASI",
    "statename": "TAMIL NADU",
    "latitude": "9.1854000",
    "longitude": "77.5662000"
  },
  {
    "circlename": "Tamilnadu Circle",
    "regionname": "Southern Region Madurai",
    "divisionname": "Kovilpatti Division",
    "officename": "KILANILIDANALLUR B.O",
    "pincode": "627953",
    "officetype": "BO",
    "delivery": "Delivery",
    "district": "TENKASI",
    "statename": "TAMIL NADU",
    "latitude": "9.1082999999999998",
    "longitude": "77.599299999999999"
  },
  {
    "circlename": "Tamilnadu Circle",
    "regionname": "Southern Region Madurai",
    "divisionname": "Kovilpatti Division",
    "officename": "MARUKKALANGULAM B.O",
    "pincode": "627953",
    "officetype": "BO",
    "delivery": "Delivery",
    "district": "TENKASI",
    "statename": "TAMIL NADU",
    "latitude": "9.0167000000000002",
    "longitude": "77.587900000000005"
  },
  {
    "circlename": "Tamilnadu Circle",
    "regionname": "Southern Region Madurai",
    "divisionname": "Kovilpatti Division",
    "officename": "Nagaram B.O",
    "pincode": "627755",
    "officetype": "BO",
    "delivery": "Delivery",
    "district": "TENKASI",
    "statename": "TAMIL NADU",
    "latitude": "9.1684000",
    "longitude": "77.4268000"
  },
  {
    "circlename": "Tamilnadu Circle",
    "regionname": "Southern Region Madurai",
    "divisionname": "Kovilpatti Division",
    "officename": "Vadamalapuram B.O",
    "pincode": "627755",
    "officetype": "BO",
    "delivery": "Delivery",
    "district": "TENKASI",
    "statename": "TAMIL NADU",
    "latitude": "9.1408000",
    "longitude": "77.4497000"
  },
  {
    "circlename": "Tamilnadu Circle",
    "regionname": "Southern Region Madurai",
    "divisionname": "Kovilpatti Division",
    "officename": "Gomathimuthupuram B.O",
    "pincode": "627761",
    "officetype": "BO",
    "delivery": "Delivery",
    "district": "TENKASI",
    "statename": "TAMIL NADU",
    "latitude": "9.2778000",
    "longitude": "77.4993000"
  },
  {
    "circlename": "Tamilnadu Circle",
    "regionname": "Southern Region Madurai",
    "divisionname": "Kovilpatti Division",
    "officename": "Chinthamani B.O",
    "pincode": "627855",
    "officetype": "BO",
    "delivery": "Non Delivery",
    "district": "TENKASI",
    "statename": "TAMIL NADU",
    "latitude": "9.1732000",
    "longitude": "77.3805000"
  },
  {
    "circlename": "Tamilnadu Circle",
    "regionname": "Southern Region Madurai",
    "divisionname": "Kovilpatti Division",
    "officename": "Inamkovilpatti B.O",
    "pincode": "627757",
    "officetype": "BO",
    "delivery": "Delivery",
    "district": "TENKASI",
    "statename": "TAMIL NADU",
    "latitude": "9.3221000",
    "longitude": "77.4642000"
  },
  {
    "circlename": "Tamilnadu Circle",
    "regionname": "Southern Region Madurai",
    "divisionname": "Kovilpatti Division",
    "officename": "Melakalangal B.O",
    "pincode": "627860",
    "officetype": "BO",
    "delivery": "Delivery",
    "district": "TENKASI",
    "statename": "TAMIL NADU",
    "latitude": "9.0147000",
    "longitude": "77.4747000"
  },
  {
    "circlename": "Tamilnadu Circle",
    "regionname": "Southern Region Madurai",
    "divisionname": "Kovilpatti Division",
    "officename": "Ariyur B.O",
    "pincode": "627758",
    "officetype": "BO",
    "delivery": "Delivery",
    "district": "TENKASI",
    "statename": "TAMIL NADU",
    "latitude": "9.1999000",
    "longitude": "77.4377000"
  },
  {
    "circlename": "Tamilnadu Circle",
    "regionname": "Southern Region Madurai",
    "divisionname": "Kovilpatti Division",
    "officename": "Nelkattumseval B.O",
    "pincode": "627758",
    "officetype": "BO",
    "delivery": "Delivery",
    "district": "TENKASI",
    "statename": "TAMIL NADU",
    "latitude": "9.2235000",
    "longitude": "77.4401000"
  },
  {
    "circlename": "Tamilnadu Circle",
    "regionname": "Southern Region Madurai",
    "divisionname": "Kovilpatti Division",
    "officename": "Vellanaikottai B.O",
    "pincode": "627758",
    "officetype": "BO",
    "delivery": "Delivery",
    "district": "TENKASI",
    "statename": "TAMIL NADU",
    "latitude": "9.2074000",
    "longitude": "77.3857000"
  },
  {
    "circlename": "Tamilnadu Circle",
    "regionname": "Southern Region Madurai",
    "divisionname": "Kovilpatti Division",
    "officename": "Alkondarkulam B.O",
    "pincode": "627862",
    "officetype": "BO",
    "delivery": "Delivery",
    "district": "TENKASI",
    "statename": "TAMIL NADU",
    "latitude": "9.1261000",
    "longitude": "77.4856000"
  },
  {
    "circlename": "Tamilnadu Circle",
    "regionname": "Southern Region Madurai",
    "divisionname": "Kovilpatti Division",
    "officename": "Naduvakurichi B.O",
    "pincode": "627862",
    "officetype": "BO",
    "delivery": "Delivery",
    "district": "TENKASI",
    "statename": "TAMIL NADU",
    "latitude": "9.0888000",
    "longitude": "77.4599000"
  },
  {
    "circlename": "Tamilnadu Circle",
    "regionname": "Southern Region Madurai",
    "divisionname": "Kovilpatti Division",
    "officename": "Poigai B.O",
    "pincode": "627862",
    "officetype": "BO",
    "delivery": "Delivery",
    "district": "TENKASI",
    "statename": "TAMIL NADU",
    "latitude": "9.1328000",
    "longitude": "77.4646000"
  },
  {
    "circlename": "Tamilnadu Circle",
    "regionname": "Southern Region Madurai",
    "divisionname": "Kovilpatti Division",
    "officename": "Andipatti B.O",
    "pincode": "627851",
    "officetype": "BO",
    "delivery": "Delivery",
    "district": "TENKASI",
    "statename": "TAMIL NADU",
    "latitude": "8.8480000",
    "longitude": "77.3697000"
  },
  {
    "circlename": "Tamilnadu Circle",
    "regionname": "Southern Region Madurai",
    "divisionname": "Kovilpatti Division",
    "officename": "Kalathimadam B.O",
    "pincode": "627851",
    "officetype": "BO",
    "delivery": "Delivery",
    "district": "TENKASI",
    "statename": "TAMIL NADU",
    "latitude": "8.8396000",
    "longitude": "77.4625000"
  },
  {
    "circlename": "Tamilnadu Circle",
    "regionname": "Southern Region Madurai",
    "divisionname": "Kovilpatti Division",
    "officename": "Kuthapanjan B.O",
    "pincode": "627851",
    "officetype": "BO",
    "delivery": "Delivery",
    "district": "TENKASI",
    "statename": "TAMIL NADU",
    "latitude": "8.8117000",
    "longitude": "77.4518000"
  },
  {
    "circlename": "Tamilnadu Circle",
    "regionname": "Southern Region Madurai",
    "divisionname": "Kovilpatti Division",
    "officename": "Maruthamputhur B.O",
    "pincode": "627851",
    "officetype": "BO",
    "delivery": "Delivery",
    "district": "TENKASI",
    "statename": "TAMIL NADU",
    "latitude": "8.8203000",
    "longitude": "77.4938000"
  },
  {
    "circlename": "Tamilnadu Circle",
    "regionname": "Southern Region Madurai",
    "divisionname": "Kovilpatti Division",
    "officename": "KILANGAD B.O",
    "pincode": "627852",
    "officetype": "BO",
    "delivery": "Delivery",
    "district": "TENKASI",
    "statename": "TAMIL NADU",
    "latitude": "9.0042000000000009",
    "longitude": "77.317700000000002"
  },
  {
    "circlename": "Tamilnadu Circle",
    "regionname": "Southern Region Madurai",
    "divisionname": "Kovilpatti Division",
    "officename": "Urmelalagian B.O",
    "pincode": "627852",
    "officetype": "BO",
    "delivery": "Delivery",
    "district": "TENKASI",
    "statename": "TAMIL NADU",
    "latitude": "9.0091000",
    "longitude": "77.3343000"
  },
  {
    "circlename": "Tamilnadu Circle",
    "regionname": "Southern Region Madurai",
    "divisionname": "Kovilpatti Division",
    "officename": "Kodikurichi B.O",
    "pincode": "627804",
    "officetype": "BO",
    "delivery": "Delivery",
    "district": "TENKASI",
    "statename": "TAMIL NADU",
    "latitude": "8.9981000",
    "longitude": "77.2838000"
  },
  {
    "circlename": "Tamilnadu Circle",
    "regionname": "Southern Region Madurai",
    "divisionname": "Kovilpatti Division",
    "officename": "Nainaragaram B.O",
    "pincode": "627804",
    "officetype": "BO",
    "delivery": "Delivery",
    "district": "TENKASI",
    "statename": "TAMIL NADU",
    "latitude": "9.0128000",
    "longitude": "77.3067000"
  },
  {
    "circlename": "Tamilnadu Circle",
    "regionname": "Southern Region Madurai",
    "divisionname": "Kovilpatti Division",
    "officename": "CHOCKAMPATTI B.O",
    "pincode": "627751",
    "officetype": "BO",
    "delivery": "Delivery",
    "district": "TENKASI",
    "statename": "TAMIL NADU",
    "latitude": "9.1118000000000006",
    "longitude": "77.341499999999996"
  },
  {
    "circlename": "Tamilnadu Circle",
    "regionname": "Southern Region Madurai",
    "divisionname": "Kovilpatti Division",
    "officename": "Kumanthapuram B.O",
    "pincode": "627751",
    "officetype": "BO",
    "delivery": "Delivery",
    "district": "TENKASI",
    "statename": "TAMIL NADU",
    "latitude": "9.0935000",
    "longitude": "77.3308000"
  },
  {
    "circlename": "Tamilnadu Circle",
    "regionname": "Southern Region Madurai",
    "divisionname": "Kovilpatti Division",
    "officename": "Rajapandi B.O",
    "pincode": "627806",
    "officetype": "BO",
    "delivery": "Delivery",
    "district": "TENKASI",
    "statename": "TAMIL NADU",
    "latitude": "8.9163000",
    "longitude": "77.4081000"
  },
  {
    "circlename": "Tamilnadu Circle",
    "regionname": "Southern Region Madurai",
    "divisionname": "Kovilpatti Division",
    "officename": "Vellakal B.O",
    "pincode": "627806",
    "officetype": "BO",
    "delivery": "Delivery",
    "district": "TENKASI",
    "statename": "TAMIL NADU",
    "latitude": "8.9255000",
    "longitude": "77.3922000"
  },
  {
    "circlename": "Tamilnadu Circle",
    "regionname": "Southern Region Madurai",
    "divisionname": "Kovilpatti Division",
    "officename": "Kadabokathi B.O",
    "pincode": "627814",
    "officetype": "BO",
    "delivery": "Delivery",
    "district": "TENKASI",
    "statename": "TAMIL NADU",
    "latitude": "8.9355000",
    "longitude": "77.3176000"
  },
  {
    "circlename": "Tamilnadu Circle",
    "regionname": "Southern Region Madurai",
    "divisionname": "Kovilpatti Division",
    "officename": "Mathalamparai B.O",
    "pincode": "627814",
    "officetype": "BO",
    "delivery": "Delivery",
    "district": "TENKASI",
    "statename": "TAMIL NADU",
    "latitude": "8.9005000",
    "longitude": "77.3071000"
  },
  {
    "circlename": "Tamilnadu Circle",
    "regionname": "Southern Region Madurai",
    "divisionname": "Kovilpatti Division",
    "officename": "Pattakurichi B.O",
    "pincode": "627814",
    "officetype": "BO",
    "delivery": "Delivery",
    "district": "TENKASI",
    "statename": "TAMIL NADU",
    "latitude": "8.9522000",
    "longitude": "77.3351000"
  },
  {
    "circlename": "Tamilnadu Circle",
    "regionname": "Southern Region Madurai",
    "divisionname": "Kovilpatti Division",
    "officename": "Kuruvankottai B.O",
    "pincode": "627853",
    "officetype": "BO",
    "delivery": "Delivery",
    "district": "TENKASI",
    "statename": "TAMIL NADU",
    "latitude": "8.8728000",
    "longitude": "77.4842000"
  },
  {
    "circlename": "Tamilnadu Circle",
    "regionname": "Southern Region Madurai",
    "divisionname": "Kovilpatti Division",
    "officename": "Sivalarkulam B.O",
    "pincode": "627853",
    "officetype": "BO",
    "delivery": "Delivery",
    "district": "TENKASI",
    "statename": "TAMIL NADU",
    "latitude": "8.8591000",
    "longitude": "77.5054000"
  },
  {
    "circlename": "Tamilnadu Circle",
    "regionname": "Southern Region Madurai",
    "divisionname": "Kovilpatti Division",
    "officename": "Sivanadanur B.O",
    "pincode": "627808",
    "officetype": "BO",
    "delivery": "Delivery",
    "district": "TENKASI",
    "statename": "TAMIL NADU",
    "latitude": "8.8428000",
    "longitude": "77.2630000"
  },
  {
    "circlename": "Tamilnadu Circle",
    "regionname": "Southern Region Madurai",
    "divisionname": "Kovilpatti Division",
    "officename": "Vallam B.O",
    "pincode": "627809",
    "officetype": "BO",
    "delivery": "Delivery",
    "district": "TENKASI",
    "statename": "TAMIL NADU",
    "latitude": "8.9471000",
    "longitude": "77.2353000"
  },
  {
    "circlename": "Tamilnadu Circle",
    "regionname": "Southern Region Madurai",
    "divisionname": "Kovilpatti Division",
    "officename": "Anaikulam B.O",
    "pincode": "627859",
    "officetype": "BO",
    "delivery": "Delivery",
    "district": "TENKASI",
    "statename": "TAMIL NADU",
    "latitude": "8.9941000",
    "longitude": "77.4286000"
  },
  {
    "circlename": "Tamilnadu Circle",
    "regionname": "Southern Region Madurai",
    "divisionname": "Kovilpatti Division",
    "officename": "Kaluneerkulam B.O",
    "pincode": "627861",
    "officetype": "BO",
    "delivery": "Delivery",
    "district": "TENKASI",
    "statename": "TAMIL NADU",
    "latitude": "8.9003000",
    "longitude": "77.4239000"
  },
  {
    "circlename": "Tamilnadu Circle",
    "regionname": "Southern Region Madurai",
    "divisionname": "Tirunelveli Division",
    "officename": "Katana Anaithittam BO",
    "pincode": "627412",
    "officetype": "BO",
    "delivery": "Delivery",
    "district": "TENKASI",
    "statename": "TAMIL NADU",
    "latitude": "8.7945440",
    "longitude": "77.3160880"
  },
  {
    "circlename": "Tamilnadu Circle",
    "regionname": "Southern Region Madurai",
    "divisionname": "Tirunelveli Division",
    "officename": "Sivasailam BO",
    "pincode": "627412",
    "officetype": "BO",
    "delivery": "Delivery",
    "district": "TENKASI",
    "statename": "TAMIL NADU",
    "latitude": "8.7827222",
    "longitude": "77.3989166"
  },
  {
    "circlename": "Tamilnadu Circle",
    "regionname": "Southern Region Madurai",
    "divisionname": "Tirunelveli Division",
    "officename": "Pungampatti BO",
    "pincode": "627415",
    "officetype": "BO",
    "delivery": "Delivery",
    "district": "TENKASI",
    "statename": "TAMIL NADU",
    "latitude": "8.8486370",
    "longitude": "77.3924680"
  },
  {
    "circlename": "Tamilnadu Circle",
    "regionname": "Southern Region Madurai",
    "divisionname": "Tirunelveli Division",
    "officename": "Venkatampatti BO",
    "pincode": "627415",
    "officetype": "BO",
    "delivery": "Delivery",
    "district": "TENKASI",
    "statename": "TAMIL NADU",
    "latitude": "8.8565690",
    "longitude": "77.4224800"
  },
  {
    "circlename": "Tamilnadu Circle",
    "regionname": "Southern Region Madurai",
    "divisionname": "Tirunelveli Division",
    "officename": "Pappangulam BO",
    "pincode": "627423",
    "officetype": "BO",
    "delivery": "Delivery",
    "district": "TENKASI",
    "statename": "TAMIL NADU",
    "latitude": "8.7939870",
    "longitude": "77.4188040"
  },
  {
    "circlename": "Tamilnadu Circle",
    "regionname": "Southern Region Madurai",
    "divisionname": "Kovilpatti Division",
    "officename": "Tiruvengadam S.O",
    "pincode": "627719",
    "officetype": "PO",
    "delivery": "Delivery",
    "district": "TENKASI",
    "statename": "TAMIL NADU",
    "latitude": "9.2468000",
    "longitude": "77.6441000"
  },
  {
    "circlename": "Tamilnadu Circle",
    "regionname": "Southern Region Madurai",
    "divisionname": "Kovilpatti Division",
    "officename": "Sankarankovil Bazaar S.O",
    "pincode": "627756",
    "officetype": "PO",
    "delivery": "Non Delivery",
    "district": "TENKASI",
    "statename": "TAMIL NADU",
    "latitude": "9.1699000",
    "longitude": "77.5060000"
  },
  {
    "circlename": "Tamilnadu Circle",
    "regionname": "Southern Region Madurai",
    "divisionname": "Kovilpatti Division",
    "officename": "VEERASIGAMANI S.O",
    "pincode": "627862",
    "officetype": "PO",
    "delivery": "Delivery",
    "district": "TENKASI",
    "statename": "TAMIL NADU",
    "latitude": "9.0841999999999992",
    "longitude": "77.435869999999994"
  },
  {
    "circlename": "Tamilnadu Circle",
    "regionname": "Southern Region Madurai",
    "divisionname": "Kovilpatti Division",
    "officename": "Kadayanallur Bazar S.O",
    "pincode": "627751",
    "officetype": "PO",
    "delivery": "Non Delivery",
    "district": "TENKASI",
    "statename": "TAMIL NADU",
    "latitude": "9.0758600",
    "longitude": "77.3350000"
  },
  {
    "circlename": "Tamilnadu Circle",
    "regionname": "Southern Region Madurai",
    "divisionname": "Kovilpatti Division",
    "officename": "Nallur S.O (Tirunelveli)",
    "pincode": "627853",
    "officetype": "PO",
    "delivery": "Delivery",
    "district": "TENKASI",
    "statename": "TAMIL NADU",
    "latitude": "8.8640000",
    "longitude": "77.5011000"
  },
  {
    "circlename": "Tamilnadu Circle",
    "regionname": "Southern Region Madurai",
    "divisionname": "Kovilpatti Division",
    "officename": "Nettur S.O (Tirunelveli)",
    "pincode": "627854",
    "officetype": "PO",
    "delivery": "Delivery",
    "district": "TENKASI",
    "statename": "TAMIL NADU",
    "latitude": "8.9039000",
    "longitude": "77.5008000"
  },
  {
    "circlename": "Tamilnadu Circle",
    "regionname": "Southern Region Madurai",
    "divisionname": "Kovilpatti Division",
    "officename": "Sambavarvadakarai S.O",
    "pincode": "627856",
    "officetype": "PO",
    "delivery": "Delivery",
    "district": "TENKASI",
    "statename": "TAMIL NADU",
    "latitude": "8.9941000",
    "longitude": "77.3767000"
  },
  {
    "circlename": "Tamilnadu Circle",
    "regionname": "Southern Region Madurai",
    "divisionname": "Kovilpatti Division",
    "officename": "Sengottai RS S.O",
    "pincode": "627809",
    "officetype": "PO",
    "delivery": "Non Delivery",
    "district": "TENKASI",
    "statename": "TAMIL NADU",
    "latitude": "8.9811000",
    "longitude": "77.2334000"
  },
  {
    "circlename": "Tamilnadu Circle",
    "regionname": "Southern Region Madurai",
    "divisionname": "Kovilpatti Division",
    "officename": "Sengottai S.O",
    "pincode": "627809",
    "officetype": "PO",
    "delivery": "Delivery",
    "district": "TENKASI",
    "statename": "TAMIL NADU",
    "latitude": "8.9693000",
    "longitude": "77.2398000"
  },
  {
    "circlename": "Tamilnadu Circle",
    "regionname": "Southern Region Madurai",
    "divisionname": "Kovilpatti Division",
    "officename": "Surandai S.O",
    "pincode": "627859",
    "officetype": "PO",
    "delivery": "Delivery",
    "district": "TENKASI",
    "statename": "TAMIL NADU",
    "latitude": "8.9682000",
    "longitude": "77.4075000"
  },
  {
    "circlename": "Tamilnadu Circle",
    "regionname": "Southern Region Madurai",
    "divisionname": "Kovilpatti Division",
    "officename": "Vadakarai S.O (Tirunelveli)",
    "pincode": "627812",
    "officetype": "PO",
    "delivery": "Delivery",
    "district": "TENKASI",
    "statename": "TAMIL NADU",
    "latitude": "9.0268000",
    "longitude": "77.2450000"
  },
  {
    "circlename": "Tamilnadu Circle",
    "regionname": "Southern Region Madurai",
    "divisionname": "Kovilpatti Division",
    "officename": "VIRAKERALAMPUDUR S.O",
    "pincode": "627861",
    "officetype": "PO",
    "delivery": "Delivery",
    "district": "TENKASI",
    "statename": "TAMIL NADU",
    "latitude": "8.9227000000000007",
    "longitude": "77.419600000000003"
  },
  {
    "circlename": "Tamilnadu Circle",
    "regionname": "Southern Region Madurai",
    "divisionname": "Tirunelveli Division",
    "officename": "Alwarkurichi SO",
    "pincode": "627412",
    "officetype": "PO",
    "delivery": "Delivery",
    "district": "TENKASI",
    "statename": "TAMIL NADU",
    "latitude": "8.7827222",
    "longitude": "77.3989167"
  },
  {
    "circlename": "Tamilnadu Circle",
    "regionname": "Southern Region Madurai",
    "divisionname": "Kovilpatti Division",
    "officename": "Maipparai B.O",
    "pincode": "627713",
    "officetype": "BO",
    "delivery": "Delivery",
    "district": "TENKASI",
    "statename": "TAMIL NADU",
    "latitude": "9.2270000",
    "longitude": "77.6985000"
  },
  {
    "circlename": "Tamilnadu Circle",
    "regionname": "Southern Region Madurai",
    "divisionname": "Kovilpatti Division",
    "officename": "Karisalkulam B.O",
    "pincode": "627719",
    "officetype": "BO",
    "delivery": "Delivery",
    "district": "TENKASI",
    "statename": "TAMIL NADU",
    "latitude": "9.3284000",
    "longitude": "77.5561000"
  },
  {
    "circlename": "Tamilnadu Circle",
    "regionname": "Southern Region Madurai",
    "divisionname": "Kovilpatti Division",
    "officename": "K.Karisalkulam B.O",
    "pincode": "628552",
    "officetype": "BO",
    "delivery": "Delivery",
    "district": "TENKASI",
    "statename": "TAMIL NADU",
    "latitude": "9.0565000",
    "longitude": "77.5792000"
  },
  {
    "circlename": "Tamilnadu Circle",
    "regionname": "Southern Region Madurai",
    "divisionname": "Kovilpatti Division",
    "officename": "Sambakulam B.O",
    "pincode": "628552",
    "officetype": "BO",
    "delivery": "Delivery",
    "district": "TENKASI",
    "statename": "TAMIL NADU",
    "latitude": "9.0424000",
    "longitude": "77.5951000"
  },
  {
    "circlename": "Tamilnadu Circle",
    "regionname": "Southern Region Madurai",
    "divisionname": "Kovilpatti Division",
    "officename": "Sayamalai B.O",
    "pincode": "628552",
    "officetype": "BO",
    "delivery": "Delivery",
    "district": "TENKASI",
    "statename": "TAMIL NADU",
    "latitude": "9.0204000",
    "longitude": "77.6019000"
  },
  {
    "circlename": "Tamilnadu Circle",
    "regionname": "Southern Region Madurai",
    "divisionname": "Kovilpatti Division",
    "officename": "Sevalkulam B.O",
    "pincode": "627754",
    "officetype": "BO",
    "delivery": "Delivery",
    "district": "TENKASI",
    "statename": "TAMIL NADU",
    "latitude": "9.1780000",
    "longitude": "77.5993000"
  },
  {
    "circlename": "Tamilnadu Circle",
    "regionname": "Southern Region Madurai",
    "divisionname": "Kovilpatti Division",
    "officename": "Kurukkalpatti B.O",
    "pincode": "627953",
    "officetype": "BO",
    "delivery": "Delivery",
    "district": "TENKASI",
    "statename": "TAMIL NADU",
    "latitude": "9.0930000",
    "longitude": "77.5639000"
  },
  {
    "circlename": "Tamilnadu Circle",
    "regionname": "Southern Region Madurai",
    "divisionname": "Kovilpatti Division",
    "officename": "Malayadikurichi B.O",
    "pincode": "627755",
    "officetype": "BO",
    "delivery": "Delivery",
    "district": "TENKASI",
    "statename": "TAMIL NADU",
    "latitude": "9.1912000",
    "longitude": "77.4128000"
  },
  {
    "circlename": "Tamilnadu Circle",
    "regionname": "Southern Region Madurai",
    "divisionname": "Kovilpatti Division",
    "officename": "Ramasamipuram B.O",
    "pincode": "627755",
    "officetype": "BO",
    "delivery": "Delivery",
    "district": "TENKASI",
    "statename": "TAMIL NADU",
    "latitude": "9.1287000",
    "longitude": "77.4251000"
  },
  {
    "circlename": "Tamilnadu Circle",
    "regionname": "Southern Region Madurai",
    "divisionname": "Kovilpatti Division",
    "officename": "Thirumalapuram B.O",
    "pincode": "627857",
    "officetype": "BO",
    "delivery": "Delivery",
    "district": "TENKASI",
    "statename": "TAMIL NADU",
    "latitude": "9.0622000",
    "longitude": "77.3931000"
  },
  {
    "circlename": "Tamilnadu Circle",
    "regionname": "Southern Region Madurai",
    "divisionname": "Kovilpatti Division",
    "officename": "UTHANGULAM B.O",
    "pincode": "627857",
    "officetype": "BO",
    "delivery": "Delivery",
    "district": "TENKASI",
    "statename": "TAMIL NADU",
    "latitude": "9.0608000000000004",
    "longitude": "77.494100000000003"
  },
  {
    "circlename": "Tamilnadu Circle",
    "regionname": "Southern Region Madurai",
    "divisionname": "Kovilpatti Division",
    "officename": "Viswanathaperi B.O",
    "pincode": "627757",
    "officetype": "BO",
    "delivery": "Delivery",
    "district": "TENKASI",
    "statename": "TAMIL NADU",
    "latitude": "9.3217000",
    "longitude": "77.4207000"
  },
  {
    "circlename": "Tamilnadu Circle",
    "regionname": "Southern Region Madurai",
    "divisionname": "Kovilpatti Division",
    "officename": "Kurichanpatti B.O",
    "pincode": "627860",
    "officetype": "BO",
    "delivery": "Delivery",
    "district": "TENKASI",
    "statename": "TAMIL NADU",
    "latitude": "8.9907000",
    "longitude": "77.4632000"
  },
  {
    "circlename": "Tamilnadu Circle",
    "regionname": "Southern Region Madurai",
    "divisionname": "Kovilpatti Division",
    "officename": "Anjankattalai B.O",
    "pincode": "627851",
    "officetype": "BO",
    "delivery": "Delivery",
    "district": "TENKASI",
    "statename": "TAMIL NADU",
    "latitude": "8.8314000",
    "longitude": "77.4269000"
  },
  {
    "circlename": "Tamilnadu Circle",
    "regionname": "Southern Region Madurai",
    "divisionname": "Kovilpatti Division",
    "officename": "Pudupatti B.O",
    "pincode": "627851",
    "officetype": "BO",
    "delivery": "Delivery",
    "district": "TENKASI",
    "statename": "TAMIL NADU",
    "latitude": "8.8218000",
    "longitude": "77.4833000"
  },
  {
    "circlename": "Tamilnadu Circle",
    "regionname": "Southern Region Madurai",
    "divisionname": "Kovilpatti Division",
    "officename": "Ayyapuram B.O",
    "pincode": "627805",
    "officetype": "BO",
    "delivery": "Delivery",
    "district": "TENKASI",
    "statename": "TAMIL NADU",
    "latitude": "8.9660000",
    "longitude": "77.2587000"
  },
  {
    "circlename": "Tamilnadu Circle",
    "regionname": "Southern Region Madurai",
    "divisionname": "Kovilpatti Division",
    "officename": "Boganallur B.O",
    "pincode": "627751",
    "officetype": "BO",
    "delivery": "Delivery",
    "district": "TENKASI",
    "statename": "TAMIL NADU",
    "latitude": "9.0735000",
    "longitude": "77.3498000"
  },
  {
    "circlename": "Tamilnadu Circle",
    "regionname": "Southern Region Madurai",
    "divisionname": "Kovilpatti Division",
    "officename": "Kambapacheri B.O",
    "pincode": "627751",
    "officetype": "BO",
    "delivery": "Delivery",
    "district": "TENKASI",
    "statename": "TAMIL NADU",
    "latitude": "9.0614000",
    "longitude": "77.3543000"
  },
  {
    "circlename": "Tamilnadu Circle",
    "regionname": "Southern Region Madurai",
    "divisionname": "Kovilpatti Division",
    "officename": "Kulasekarapatti B.O",
    "pincode": "627806",
    "officetype": "BO",
    "delivery": "Delivery",
    "district": "TENKASI",
    "statename": "TAMIL NADU",
    "latitude": "8.9321000",
    "longitude": "77.3557000"
  },
  {
    "circlename": "Tamilnadu Circle",
    "regionname": "Southern Region Madurai",
    "divisionname": "Kovilpatti Division",
    "officename": "Melapavur B.O",
    "pincode": "627806",
    "officetype": "BO",
    "delivery": "Delivery",
    "district": "TENKASI",
    "statename": "TAMIL NADU",
    "latitude": "8.9335000",
    "longitude": "77.3641000"
  },
  {
    "circlename": "Tamilnadu Circle",
    "regionname": "Southern Region Madurai",
    "divisionname": "Kovilpatti Division",
    "officename": "Ayiraperi B.O",
    "pincode": "627814",
    "officetype": "BO",
    "delivery": "Delivery",
    "district": "TENKASI",
    "statename": "TAMIL NADU",
    "latitude": "8.9238000",
    "longitude": "77.2834000"
  },
  {
    "circlename": "Tamilnadu Circle",
    "regionname": "Southern Region Madurai",
    "divisionname": "Kovilpatti Division",
    "officename": "Kidanganeri B.O",
    "pincode": "627854",
    "officetype": "BO",
    "delivery": "Delivery",
    "district": "TENKASI",
    "statename": "TAMIL NADU",
    "latitude": "8.9099000",
    "longitude": "77.5289000"
  },
  {
    "circlename": "Tamilnadu Circle",
    "regionname": "Southern Region Madurai",
    "divisionname": "Kovilpatti Division",
    "officename": "Mettur B.O",
    "pincode": "627808",
    "officetype": "BO",
    "delivery": "Delivery",
    "district": "TENKASI",
    "statename": "TAMIL NADU",
    "latitude": "8.8534000",
    "longitude": "77.3450000"
  },
  {
    "circlename": "Tamilnadu Circle",
    "regionname": "Southern Region Madurai",
    "divisionname": "Kovilpatti Division",
    "officename": "Karkudi B.O",
    "pincode": "627813",
    "officetype": "BO",
    "delivery": "Delivery",
    "district": "TENKASI",
    "statename": "TAMIL NADU",
    "latitude": "8.9701000",
    "longitude": "77.1884000"
  },
  {
    "circlename": "Tamilnadu Circle",
    "regionname": "Southern Region Madurai",
    "divisionname": "Kovilpatti Division",
    "officename": "Piranur B.O",
    "pincode": "627809",
    "officetype": "BO",
    "delivery": "Non Delivery",
    "district": "TENKASI",
    "statename": "TAMIL NADU",
    "latitude": "8.9577000",
    "longitude": "77.2425000"
  },
  {
    "circlename": "Tamilnadu Circle",
    "regionname": "Southern Region Madurai",
    "divisionname": "Kovilpatti Division",
    "officename": "Kulayaneri B.O",
    "pincode": "627859",
    "officetype": "BO",
    "delivery": "Delivery",
    "district": "TENKASI",
    "statename": "TAMIL NADU",
    "latitude": "8.9928000",
    "longitude": "77.4090000"
  },
  {
    "circlename": "Tamilnadu Circle",
    "regionname": "Southern Region Madurai",
    "divisionname": "Kovilpatti Division",
    "officename": "Vavanagaram B.O",
    "pincode": "627812",
    "officetype": "BO",
    "delivery": "Delivery",
    "district": "TENKASI",
    "statename": "TAMIL NADU",
    "latitude": "9.0328000",
    "longitude": "77.2673000"
  },
  {
    "circlename": "Tamilnadu Circle",
    "regionname": "Southern Region Madurai",
    "divisionname": "Kovilpatti Division",
    "officename": "Rajagopalaperi B.O",
    "pincode": "627861",
    "officetype": "BO",
    "delivery": "Delivery",
    "district": "TENKASI",
    "statename": "TAMIL NADU",
    "latitude": "8.9202000",
    "longitude": "77.4288000"
  },
  {
    "circlename": "Tamilnadu Circle",
    "regionname": "Southern Region Madurai",
    "divisionname": "Tirunelveli Division",
    "officename": "Koviluthu BO",
    "pincode": "627415",
    "officetype": "BO",
    "delivery": "Delivery",
    "district": "TENKASI",
    "statename": "TAMIL NADU",
    "latitude": "8.8547380",
    "longitude": "77.4282880"
  },
  {
    "circlename": "Tamilnadu Circle",
    "regionname": "Southern Region Madurai",
    "divisionname": "Tirunelveli Division",
    "officename": "Poolankulam BO",
    "pincode": "627415",
    "officetype": "BO",
    "delivery": "Delivery",
    "district": "TENKASI",
    "statename": "TAMIL NADU",
    "latitude": "8.8654260",
    "longitude": "77.4276540"
  },
  {
    "circlename": "Tamilnadu Circle",
    "regionname": "Southern Region Madurai",
    "divisionname": "Tirunelveli Division",
    "officename": "Servaikaranpatti BO",
    "pincode": "627415",
    "officetype": "BO",
    "delivery": "Delivery",
    "district": "TENKASI",
    "statename": "TAMIL NADU",
    "latitude": "8.8346060",
    "longitude": "77.3834220"
  },
  {
    "circlename": "Tamilnadu Circle",
    "regionname": "Southern Region Madurai",
    "divisionname": "Tirunelveli Division",
    "officename": "Karuthapillaiyur BO",
    "pincode": "627418",
    "officetype": "BO",
    "delivery": "Delivery",
    "district": "TENKASI",
    "statename": "TAMIL NADU",
    "latitude": "8.7693480",
    "longitude": "77.3606580"
  },
  {
    "circlename": "Tamilnadu Circle",
    "regionname": "Southern Region Madurai",
    "divisionname": "Tirunelveli Division",
    "officename": "Mudaliarpatti BO",
    "pincode": "627423",
    "officetype": "BO",
    "delivery": "Delivery",
    "district": "TENKASI",
    "statename": "TAMIL NADU",
    "latitude": "8.8116130",
    "longitude": "77.3807570"
  },
  {
    "circlename": "Tamilnadu Circle",
    "regionname": "Southern Region Madurai",
    "divisionname": "Tirunelveli Division",
    "officename": "Thuppakudi BO",
    "pincode": "627423",
    "officetype": "BO",
    "delivery": "Delivery",
    "district": "TENKASI",
    "statename": "TAMIL NADU",
    "latitude": "8.7744730",
    "longitude": "77.4450980"
  },
  {
    "circlename": "Tamilnadu Circle",
    "regionname": "Southern Region Madurai",
    "divisionname": "Tirunelveli Division",
    "officename": "Govindaperi BO",
    "pincode": "627424",
    "officetype": "BO",
    "delivery": "Delivery",
    "district": "TENKASI",
    "statename": "TAMIL NADU",
    "latitude": "8.8160780",
    "longitude": "77.3416710"
  },
  {
    "circlename": "Tamilnadu Circle",
    "regionname": "Southern Region Madurai",
    "divisionname": "Kovilpatti Division",
    "officename": "Sankarankovil H.O",
    "pincode": "627756",
    "officetype": "HO",
    "delivery": "Delivery",
    "district": "TENKASI",
    "statename": "TAMIL NADU",
    "latitude": "9.1634000",
    "longitude": "77.5064000"
  },
  {
    "circlename": "Tamilnadu Circle",
    "regionname": "Southern Region Madurai",
    "divisionname": "Kovilpatti Division",
    "officename": "Vasudevanallur S.O",
    "pincode": "627758",
    "officetype": "PO",
    "delivery": "Delivery",
    "district": "TENKASI",
    "statename": "TAMIL NADU",
    "latitude": "9.2306000",
    "longitude": "77.3982000"
  },
  {
    "circlename": "Tamilnadu Circle",
    "regionname": "Southern Region Madurai",
    "divisionname": "Kovilpatti Division",
    "officename": "Rayagiri S.O",
    "pincode": "627764",
    "officetype": "PO",
    "delivery": "Delivery",
    "district": "TENKASI",
    "statename": "TAMIL NADU",
    "latitude": "9.2914000",
    "longitude": "77.4166000"
  },
  {
    "circlename": "Tamilnadu Circle",
    "regionname": "Southern Region Madurai",
    "divisionname": "Kovilpatti Division",
    "officename": "Elathur S.O (Tirunelveli)",
    "pincode": "627803",
    "officetype": "PO",
    "delivery": "Delivery",
    "district": "TENKASI",
    "statename": "TAMIL NADU",
    "latitude": "9.0011000",
    "longitude": "77.2604000"
  },
  {
    "circlename": "Tamilnadu Circle",
    "regionname": "Southern Region Madurai",
    "divisionname": "Kovilpatti Division",
    "officename": "Idaikal(TKS) S.O",
    "pincode": "627804",
    "officetype": "PO",
    "delivery": "Delivery",
    "district": "TENKASI",
    "statename": "TAMIL NADU",
    "latitude": "9.0201000",
    "longitude": "77.3036000"
  },
  {
    "circlename": "Tamilnadu Circle",
    "regionname": "Southern Region Madurai",
    "divisionname": "Kovilpatti Division",
    "officename": "Kilapavur S.O",
    "pincode": "627806",
    "officetype": "PO",
    "delivery": "Delivery",
    "district": "TENKASI",
    "statename": "TAMIL NADU",
    "latitude": "8.9173000",
    "longitude": "77.3810000"
  },
  {
    "circlename": "Tamilnadu Circle",
    "regionname": "Southern Region Madurai",
    "divisionname": "Kovilpatti Division",
    "officename": "Naickerpatti B.O",
    "pincode": "628552",
    "officetype": "BO",
    "delivery": "Delivery",
    "district": "TENKASI",
    "statename": "TAMIL NADU",
    "latitude": "9.0859000",
    "longitude": "77.7155000"
  },
  {
    "circlename": "Tamilnadu Circle",
    "regionname": "Southern Region Madurai",
    "divisionname": "Kovilpatti Division",
    "officename": "Karisathan B.O",
    "pincode": "627753",
    "officetype": "BO",
    "delivery": "Delivery",
    "district": "TENKASI",
    "statename": "TAMIL NADU",
    "latitude": "9.2745000",
    "longitude": "77.5385000"
  },
  {
    "circlename": "Tamilnadu Circle",
    "regionname": "Southern Region Madurai",
    "divisionname": "Kovilpatti Division",
    "officename": "PARUVAKUDI B.O",
    "pincode": "627753",
    "officetype": "BO",
    "delivery": "Delivery",
    "district": "TENKASI",
    "statename": "TAMIL NADU",
    "latitude": "9.2782999999999998",
    "longitude": "77.526700000000005"
  },
  {
    "circlename": "Tamilnadu Circle",
    "regionname": "Southern Region Madurai",
    "divisionname": "Kovilpatti Division",
    "officename": "PERUMBATTUR B.O",
    "pincode": "627753",
    "officetype": "BO",
    "delivery": "Delivery",
    "district": "TENKASI",
    "statename": "TAMIL NADU",
    "latitude": "9.2149000000000001",
    "longitude": "77.509900000000002"
  },
  {
    "circlename": "Tamilnadu Circle",
    "regionname": "Southern Region Madurai",
    "divisionname": "Kovilpatti Division",
    "officename": "Sathirakondan B.O",
    "pincode": "627754",
    "officetype": "BO",
    "delivery": "Delivery",
    "district": "TENKASI",
    "statename": "TAMIL NADU",
    "latitude": "9.2080000",
    "longitude": "77.5727000"
  },
  {
    "circlename": "Tamilnadu Circle",
    "regionname": "Southern Region Madurai",
    "divisionname": "Kovilpatti Division",
    "officename": "KO-MARUTHAPPAPURAM B.O",
    "pincode": "627953",
    "officetype": "BO",
    "delivery": "Delivery",
    "district": "TENKASI",
    "statename": "TAMIL NADU",
    "latitude": "9.0765999999999991",
    "longitude": "77.483900000000006"
  },
  {
    "circlename": "Tamilnadu Circle",
    "regionname": "Southern Region Madurai",
    "divisionname": "Kovilpatti Division",
    "officename": "Nochikulam B.O",
    "pincode": "627755",
    "officetype": "BO",
    "delivery": "Delivery",
    "district": "TENKASI",
    "statename": "TAMIL NADU",
    "latitude": "9.1481000",
    "longitude": "77.4651000"
  },
  {
    "circlename": "Tamilnadu Circle",
    "regionname": "Southern Region Madurai",
    "divisionname": "Kovilpatti Division",
    "officename": "Periyur B.O",
    "pincode": "627761",
    "officetype": "BO",
    "delivery": "Delivery",
    "district": "TENKASI",
    "statename": "TAMIL NADU",
    "latitude": "9.2147000",
    "longitude": "77.4643000"
  },
  {
    "circlename": "Tamilnadu Circle",
    "regionname": "Southern Region Madurai",
    "divisionname": "Kovilpatti Division",
    "officename": "Thiruvettanallur B.O",
    "pincode": "627855",
    "officetype": "BO",
    "delivery": "Delivery",
    "district": "TENKASI",
    "statename": "TAMIL NADU",
    "latitude": "9.1248000",
    "longitude": "77.3882000"
  },
  {
    "circlename": "Tamilnadu Circle",
    "regionname": "Southern Region Madurai",
    "divisionname": "Kovilpatti Division",
    "officename": "Ichanda B.O",
    "pincode": "627857",
    "officetype": "BO",
    "delivery": "Delivery",
    "district": "TENKASI",
    "statename": "TAMIL NADU",
    "latitude": "9.0462000",
    "longitude": "77.4694000"
  },
  {
    "circlename": "Tamilnadu Circle",
    "regionname": "Southern Region Madurai",
    "divisionname": "Kovilpatti Division",
    "officename": "Vellalankulam B.O",
    "pincode": "627857",
    "officetype": "BO",
    "delivery": "Delivery",
    "district": "TENKASI",
    "statename": "TAMIL NADU",
    "latitude": "9.0381000",
    "longitude": "77.4493000"
  },
  {
    "circlename": "Tamilnadu Circle",
    "regionname": "Southern Region Madurai",
    "divisionname": "Kovilpatti Division",
    "officename": "Arugankulam B.O",
    "pincode": "627757",
    "officetype": "BO",
    "delivery": "Delivery",
    "district": "TENKASI",
    "statename": "TAMIL NADU",
    "latitude": "9.3158000",
    "longitude": "77.4988000"
  },
  {
    "circlename": "Tamilnadu Circle",
    "regionname": "Southern Region Madurai",
    "divisionname": "Kovilpatti Division",
    "officename": "MELAMARUTHAPPAPURAM B.O",
    "pincode": "627860",
    "officetype": "BO",
    "delivery": "Delivery",
    "district": "TENKASI",
    "statename": "TAMIL NADU",
    "latitude": "9.0047999999999995",
    "longitude": "77.513900000000007"
  },
  {
    "circlename": "Tamilnadu Circle",
    "regionname": "Southern Region Madurai",
    "divisionname": "Kovilpatti Division",
    "officename": "SANGANAPERI B.O",
    "pincode": "627758",
    "officetype": "BO",
    "delivery": "Delivery",
    "district": "TENKASI",
    "statename": "TAMIL NADU",
    "latitude": "9.2288999999999994",
    "longitude": "77.409199999999998"
  },
  {
    "circlename": "Tamilnadu Circle",
    "regionname": "Southern Region Madurai",
    "divisionname": "Kovilpatti Division",
    "officename": "Kulasekaramangalam B.O",
    "pincode": "627862",
    "officetype": "BO",
    "delivery": "Delivery",
    "district": "TENKASI",
    "statename": "TAMIL NADU",
    "latitude": "9.0651000",
    "longitude": "77.4341000"
  },
  {
    "circlename": "Tamilnadu Circle",
    "regionname": "Southern Region Madurai",
    "divisionname": "Kovilpatti Division",
    "officename": "Vadanathampatti B.O",
    "pincode": "627862",
    "officetype": "BO",
    "delivery": "Delivery",
    "district": "TENKASI",
    "statename": "TAMIL NADU",
    "latitude": "9.1019000",
    "longitude": "77.4127000"
  },
  {
    "circlename": "Tamilnadu Circle",
    "regionname": "Southern Region Madurai",
    "divisionname": "Kovilpatti Division",
    "officename": "Marandai B.O",
    "pincode": "627851",
    "officetype": "BO",
    "delivery": "Delivery",
    "district": "TENKASI",
    "statename": "TAMIL NADU",
    "latitude": "8.8126000",
    "longitude": "77.5480000"
  },
  {
    "circlename": "Tamilnadu Circle",
    "regionname": "Southern Region Madurai",
    "divisionname": "Kovilpatti Division",
    "officename": "Kuthukalvalasai B.O",
    "pincode": "627803",
    "officetype": "BO",
    "delivery": "Delivery",
    "district": "TENKASI",
    "statename": "TAMIL NADU",
    "latitude": "8.9788000",
    "longitude": "77.2674000"
  },
  {
    "circlename": "Tamilnadu Circle",
    "regionname": "Southern Region Madurai",
    "divisionname": "Kovilpatti Division",
    "officename": "Kottakulam B.O",
    "pincode": "627805",
    "officetype": "BO",
    "delivery": "Delivery",
    "district": "TENKASI",
    "statename": "TAMIL NADU",
    "latitude": "8.9549000",
    "longitude": "77.2519000"
  },
  {
    "circlename": "Tamilnadu Circle",
    "regionname": "Southern Region Madurai",
    "divisionname": "Kovilpatti Division",
    "officename": "Gunaramanallur B.O",
    "pincode": "627814",
    "officetype": "BO",
    "delivery": "Delivery",
    "district": "TENKASI",
    "statename": "TAMIL NADU",
    "latitude": "8.9070000",
    "longitude": "77.3196000"
  },
  {
    "circlename": "Tamilnadu Circle",
    "regionname": "Southern Region Madurai",
    "divisionname": "Kovilpatti Division",
    "officename": "Venkateswarapuram B.O",
    "pincode": "627854",
    "officetype": "BO",
    "delivery": "Delivery",
    "district": "TENKASI",
    "statename": "TAMIL NADU",
    "latitude": "8.8574000",
    "longitude": "77.4741000"
  },
  {
    "circlename": "Tamilnadu Circle",
    "regionname": "Southern Region Madurai",
    "divisionname": "Kovilpatti Division",
    "officename": "Melakrishnaperi B.O",
    "pincode": "627808",
    "officetype": "BO",
    "delivery": "Delivery",
    "district": "TENKASI",
    "statename": "TAMIL NADU",
    "latitude": "8.872421",
    "longitude": "77.416765"
  },
  {
    "circlename": "Tamilnadu Circle",
    "regionname": "Southern Region Madurai",
    "divisionname": "Kovilpatti Division",
    "officename": "Poigai B.O",
    "pincode": "627856",
    "officetype": "BO",
    "delivery": "Delivery",
    "district": "TENKASI",
    "statename": "TAMIL NADU",
    "latitude": "9.0190000",
    "longitude": "77.3672000"
  },
  {
    "circlename": "Tamilnadu Circle",
    "regionname": "Southern Region Madurai",
    "divisionname": "Kovilpatti Division",
    "officename": "E.Meenakshipuram B.O",
    "pincode": "627859",
    "officetype": "BO",
    "delivery": "Delivery",
    "district": "TENKASI",
    "statename": "TAMIL NADU",
    "latitude": "8.9493000",
    "longitude": "77.4249000"
  },
  {
    "circlename": "Tamilnadu Circle",
    "regionname": "Southern Region Madurai",
    "divisionname": "Kovilpatti Division",
    "officename": "Kadayalurutti B.O",
    "pincode": "627859",
    "officetype": "BO",
    "delivery": "Delivery",
    "district": "TENKASI",
    "statename": "TAMIL NADU",
    "latitude": "9.0145000",
    "longitude": "77.4129000"
  },
  {
    "circlename": "Tamilnadu Circle",
    "regionname": "Southern Region Madurai",
    "divisionname": "Kovilpatti Division",
    "officename": "Vadakaraikilpidagai B.O",
    "pincode": "627812",
    "officetype": "BO",
    "delivery": "Non Delivery",
    "district": "TENKASI",
    "statename": "TAMIL NADU",
    "latitude": "9.0321000",
    "longitude": "77.2493000"
  },
  {
    "circlename": "Tamilnadu Circle",
    "regionname": "Southern Region Madurai",
    "divisionname": "Tirunelveli Division",
    "officename": "Merku Alwarkurichi BO",
    "pincode": "627412",
    "officetype": "BO",
    "delivery": "Non Delivery",
    "district": "TENKASI",
    "statename": "TAMIL NADU",
    "latitude": "8.7839830",
    "longitude": "77.3896520"
  },
  {
    "circlename": "Tamilnadu Circle",
    "regionname": "Southern Region Madurai",
    "divisionname": "Tirunelveli Division",
    "officename": "Idaikal BO",
    "pincode": "627602",
    "officetype": "BO",
    "delivery": "Delivery",
    "district": "TENKASI",
    "statename": "TAMIL NADU",
    "latitude": "8.7556590",
    "longitude": "77.4624360"
  },
  {
    "circlename": "Tamilnadu Circle",
    "regionname": "Southern Region Madurai",
    "divisionname": "Tirunelveli Division",
    "officename": "Theertharappapuram BO",
    "pincode": "627423",
    "officetype": "BO",
    "delivery": "Delivery",
    "district": "TENKASI",
    "statename": "TAMIL NADU",
    "latitude": "8.8077220",
    "longitude": "77.4404360"
  },
  {
    "circlename": "Tamilnadu Circle",
    "regionname": "Southern Region Madurai",
    "divisionname": "Tirunelveli Division",
    "officename": "Therku Madathur BO",
    "pincode": "627423",
    "officetype": "BO",
    "delivery": "Delivery",
    "district": "TENKASI",
    "statename": "TAMIL NADU",
    "latitude": "8.8407570",
    "longitude": "77.4060100"
  },
  {
    "circlename": "Tamilnadu Circle",
    "regionname": "Southern Region Madurai",
    "divisionname": "Tirunelveli Division",
    "officename": "Manthiyur BO",
    "pincode": "627424",
    "officetype": "BO",
    "delivery": "Delivery",
    "district": "TENKASI",
    "statename": "TAMIL NADU",
    "latitude": "8.8080940",
    "longitude": "77.3612300"
  },
  {
    "circlename": "Tamilnadu Circle",
    "regionname": "Southern Region Madurai",
    "divisionname": "Kovilpatti Division",
    "officename": "Alagapuri B.O",
    "pincode": "627719",
    "officetype": "BO",
    "delivery": "Delivery",
    "district": "TENKASI",
    "statename": "TAMIL NADU",
    "latitude": "9.1764000",
    "longitude": "77.5201000"
  },
  {
    "circlename": "Tamilnadu Circle",
    "regionname": "Southern Region Madurai",
    "divisionname": "Kovilpatti Division",
    "officename": "Umaithalaivanpatti B.O",
    "pincode": "627719",
    "officetype": "BO",
    "delivery": "Delivery",
    "district": "TENKASI",
    "statename": "TAMIL NADU",
    "latitude": "9.1888000",
    "longitude": "77.5725000"
  },
  {
    "circlename": "Tamilnadu Circle",
    "regionname": "Southern Region Madurai",
    "divisionname": "Kovilpatti Division",
    "officename": "Muthammalpuram B.O",
    "pincode": "627951",
    "officetype": "BO",
    "delivery": "Delivery",
    "district": "TENKASI",
    "statename": "TAMIL NADU",
    "latitude": "8.9343000",
    "longitude": "77.5931000"
  },
  {
    "circlename": "Tamilnadu Circle",
    "regionname": "Southern Region Madurai",
    "divisionname": "Kovilpatti Division",
    "officename": "Tenkasi H.O",
    "pincode": "627811",
    "officetype": "HO",
    "delivery": "Delivery",
    "district": "TENKASI",
    "statename": "TAMIL NADU",
    "latitude": "8.9425000",
    "longitude": "77.2796200"
  },
  {
    "circlename": "Tamilnadu Circle",
    "regionname": "Southern Region Madurai",
    "divisionname": "Kovilpatti Division",
    "officename": "Athuvazhi S.O",
    "pincode": "627760",
    "officetype": "PO",
    "delivery": "Delivery",
    "district": "TENKASI",
    "statename": "TAMIL NADU",
    "latitude": "9.2522000",
    "longitude": "77.3818000"
  },
  {
    "circlename": "Tamilnadu Circle",
    "regionname": "Southern Region Madurai",
    "divisionname": "Kovilpatti Division",
    "officename": "MELANILIDANALLUR S.O",
    "pincode": "627953",
    "officetype": "PO",
    "delivery": "Delivery",
    "district": "TENKASI",
    "statename": "TAMIL NADU",
    "latitude": "9.1031999999999993",
    "longitude": "77.584100000000007"
  },
  {
    "circlename": "Tamilnadu Circle",
    "regionname": "Southern Region Madurai",
    "divisionname": "Kovilpatti Division",
    "officename": "Panaiyur S.O",
    "pincode": "627761",
    "officetype": "PO",
    "delivery": "Delivery",
    "district": "TENKASI",
    "statename": "TAMIL NADU",
    "latitude": "9.2471000",
    "longitude": "77.4636000"
  },
  {
    "circlename": "Tamilnadu Circle",
    "regionname": "Southern Region Madurai",
    "divisionname": "Kovilpatti Division",
    "officename": "Serndamangalam S.O",
    "pincode": "627857",
    "officetype": "PO",
    "delivery": "Delivery",
    "district": "TENKASI",
    "statename": "TAMIL NADU",
    "latitude": "9.0590000",
    "longitude": "77.4220000"
  },
  {
    "circlename": "Tamilnadu Circle",
    "regionname": "Southern Region Madurai",
    "divisionname": "Kovilpatti Division",
    "officename": "Uthumalai S.O",
    "pincode": "627860",
    "officetype": "PO",
    "delivery": "Delivery",
    "district": "TENKASI",
    "statename": "TAMIL NADU",
    "latitude": "8.9797000",
    "longitude": "77.5155100"
  },
  {
    "circlename": "Tamilnadu Circle",
    "regionname": "Southern Region Madurai",
    "divisionname": "Kovilpatti Division",
    "officename": "Ayikudi S.O",
    "pincode": "627852",
    "officetype": "PO",
    "delivery": "Delivery",
    "district": "TENKASI",
    "statename": "TAMIL NADU",
    "latitude": "8.9986000",
    "longitude": "77.3304000"
  },
  {
    "circlename": "Tamilnadu Circle",
    "regionname": "Southern Region Madurai",
    "divisionname": "Kovilpatti Division",
    "officename": "Courtallam S.O",
    "pincode": "627802",
    "officetype": "PO",
    "delivery": "Delivery",
    "district": "TENKASI",
    "statename": "TAMIL NADU",
    "latitude": "8.9174199999999999",
    "longitude": "77.240700000000004"
  },
  {
    "circlename": "Tamilnadu Circle",
    "regionname": "Southern Region Madurai",
    "divisionname": "Kovilpatti Division",
    "officename": "Kadayanallur S.O",
    "pincode": "627751",
    "officetype": "PO",
    "delivery": "Delivery",
    "district": "TENKASI",
    "statename": "TAMIL NADU",
    "latitude": "9.0644000",
    "longitude": "77.3118000"
  },
  {
    "circlename": "Tamilnadu Circle",
    "regionname": "Southern Region Madurai",
    "divisionname": "Kovilpatti Division",
    "officename": "Melagaram S.O",
    "pincode": "627818",
    "officetype": "PO",
    "delivery": "Delivery",
    "district": "TENKASI",
    "statename": "TAMIL NADU",
    "latitude": "8.9428000",
    "longitude": "77.2839000"
  },
  {
    "circlename": "Tamilnadu Circle",
    "regionname": "Southern Region Madurai",
    "divisionname": "Kovilpatti Division",
    "officename": "SUNDARAPANDIAPURAM",
    "pincode": "627858",
    "officetype": "PO",
    "delivery": "Delivery",
    "district": "TENKASI",
    "statename": "TAMIL NADU",
    "latitude": "8.9619",
    "longitude": "77.361500000000007"
  },
  {
    "circlename": "Tamilnadu Circle",
    "regionname": "Southern Region Madurai",
    "divisionname": "Tirunelveli Division",
    "officename": "Kila Ambur SO",
    "pincode": "627418",
    "officetype": "PO",
    "delivery": "Delivery",
    "district": "TENKASI",
    "statename": "TAMIL NADU",
    "latitude": "8.7627222",
    "longitude": "77.4040278"
  },
  {
    "circlename": "Tamilnadu Circle",
    "regionname": "Southern Region Madurai",
    "divisionname": "Tirunelveli Division",
    "officename": "Pottalpudur SO",
    "pincode": "627423",
    "officetype": "PO",
    "delivery": "Delivery",
    "district": "TENKASI",
    "statename": "TAMIL NADU",
    "latitude": "8.7976667",
    "longitude": "77.3882222"
  },
  {
    "circlename": "Tamilnadu Circle",
    "regionname": "Southern Region Madurai",
    "divisionname": "Kovilpatti Division",
    "officename": "Chatrapatti B.O",
    "pincode": "627719",
    "officetype": "BO",
    "delivery": "Delivery",
    "district": "TENKASI",
    "statename": "TAMIL NADU",
    "latitude": "9.1971000",
    "longitude": "77.5684000"
  },
  {
    "circlename": "Tamilnadu Circle",
    "regionname": "Southern Region Madurai",
    "divisionname": "Kovilpatti Division",
    "officename": "Kalingapatti B.O",
    "pincode": "627719",
    "officetype": "BO",
    "delivery": "Delivery",
    "district": "TENKASI",
    "statename": "TAMIL NADU",
    "latitude": "8.8981000",
    "longitude": "77.3538000"
  },
  {
    "circlename": "Tamilnadu Circle",
    "regionname": "Southern Region Madurai",
    "divisionname": "Kovilpatti Division",
    "officename": "Kurinjakulam B.O",
    "pincode": "627719",
    "officetype": "BO",
    "delivery": "Delivery",
    "district": "TENKASI",
    "statename": "TAMIL NADU",
    "latitude": "9.1690000",
    "longitude": "77.5862000"
  },
  {
    "circlename": "Tamilnadu Circle",
    "regionname": "Southern Region Madurai",
    "divisionname": "Kovilpatti Division",
    "officename": "Ramanathapuram(VSD) B.O",
    "pincode": "627760",
    "officetype": "BO",
    "delivery": "Delivery",
    "district": "TENKASI",
    "statename": "TAMIL NADU",
    "latitude": "9.2680000",
    "longitude": "77.4118000"
  },
  {
    "circlename": "Tamilnadu Circle",
    "regionname": "Southern Region Madurai",
    "divisionname": "Kovilpatti Division",
    "officename": "Kuvalaikanni B.O",
    "pincode": "627753",
    "officetype": "BO",
    "delivery": "Delivery",
    "district": "TENKASI",
    "statename": "TAMIL NADU",
    "latitude": "9.1897000",
    "longitude": "77.4334000"
  },
  {
    "circlename": "Tamilnadu Circle",
    "regionname": "Southern Region Madurai",
    "divisionname": "Kovilpatti Division",
    "officename": "Pandapuli B.O",
    "pincode": "627753",
    "officetype": "BO",
    "delivery": "Delivery",
    "district": "TENKASI",
    "statename": "TAMIL NADU",
    "latitude": "9.3083000",
    "longitude": "77.5446000"
  },
  {
    "circlename": "Tamilnadu Circle",
    "regionname": "Southern Region Madurai",
    "divisionname": "Kovilpatti Division",
    "officename": "Perumalpatti B.O",
    "pincode": "627753",
    "officetype": "BO",
    "delivery": "Delivery",
    "district": "TENKASI",
    "statename": "TAMIL NADU",
    "latitude": "9.3334000",
    "longitude": "77.5235000"
  },
  {
    "circlename": "Tamilnadu Circle",
    "regionname": "Southern Region Madurai",
    "divisionname": "Kovilpatti Division",
    "officename": "Reddiapatti B.O",
    "pincode": "627753",
    "officetype": "BO",
    "delivery": "Delivery",
    "district": "TENKASI",
    "statename": "TAMIL NADU",
    "latitude": "9.2996000",
    "longitude": "77.5359000"
  },
  {
    "circlename": "Tamilnadu Circle",
    "regionname": "Southern Region Madurai",
    "divisionname": "Kovilpatti Division",
    "officename": "CHIDAMBARAPURAM B.O",
    "pincode": "627754",
    "officetype": "BO",
    "delivery": "Delivery",
    "district": "TENKASI",
    "statename": "TAMIL NADU",
    "latitude": "9.1302000000000003",
    "longitude": "77.590800000000002"
  },
  {
    "circlename": "Tamilnadu Circle",
    "regionname": "Southern Region Madurai",
    "divisionname": "Kovilpatti Division",
    "officename": "K. ALANGULAM B.O",
    "pincode": "627754",
    "officetype": "BO",
    "delivery": "Delivery",
    "district": "TENKASI",
    "statename": "TAMIL NADU",
    "latitude": "9.1367999999999991",
    "longitude": "77.506299999999996"
  },
  {
    "circlename": "Tamilnadu Circle",
    "regionname": "Southern Region Madurai",
    "divisionname": "Kovilpatti Division",
    "officename": "Panavadalichatram B.O",
    "pincode": "627953",
    "officetype": "BO",
    "delivery": "Delivery",
    "district": "TENKASI",
    "statename": "TAMIL NADU",
    "latitude": "9.0380000",
    "longitude": "77.5892000"
  },
  {
    "circlename": "Tamilnadu Circle",
    "regionname": "Southern Region Madurai",
    "divisionname": "Kovilpatti Division",
    "officename": "Vadakkupudur B.O",
    "pincode": "627755",
    "officetype": "BO",
    "delivery": "Delivery",
    "district": "TENKASI",
    "statename": "TAMIL NADU",
    "latitude": "9.1692000",
    "longitude": "77.4757000"
  },
  {
    "circlename": "Tamilnadu Circle",
    "regionname": "Southern Region Madurai",
    "divisionname": "Kovilpatti Division",
    "officename": "Veeriruppu B.O",
    "pincode": "627755",
    "officetype": "BO",
    "delivery": "Delivery",
    "district": "TENKASI",
    "statename": "TAMIL NADU",
    "latitude": "9.1753000",
    "longitude": "77.4458000"
  },
  {
    "circlename": "Tamilnadu Circle",
    "regionname": "Southern Region Madurai",
    "divisionname": "Kovilpatti Division",
    "officename": "Sangupuram B.O",
    "pincode": "627761",
    "officetype": "BO",
    "delivery": "Delivery",
    "district": "TENKASI",
    "statename": "TAMIL NADU",
    "latitude": "9.2463000",
    "longitude": "77.4412000"
  },
  {
    "circlename": "Tamilnadu Circle",
    "regionname": "Southern Region Madurai",
    "divisionname": "Kovilpatti Division",
    "officename": "Ayyapuram B.O",
    "pincode": "627855",
    "officetype": "BO",
    "delivery": "Delivery",
    "district": "TENKASI",
    "statename": "TAMIL NADU",
    "latitude": "9.1442000",
    "longitude": "77.3991000"
  },
  {
    "circlename": "Tamilnadu Circle",
    "regionname": "Southern Region Madurai",
    "divisionname": "Kovilpatti Division",
    "officename": "DEVIPATINAM B.O",
    "pincode": "627757",
    "officetype": "BO",
    "delivery": "Delivery",
    "district": "TENKASI",
    "statename": "TAMIL NADU",
    "latitude": "9.3606999999999996",
    "longitude": "77.396699999999996"
  },
  {
    "circlename": "Tamilnadu Circle",
    "regionname": "Southern Region Madurai",
    "divisionname": "Kovilpatti Division",
    "officename": "Rukmaniammalpuram B.O",
    "pincode": "627860",
    "officetype": "BO",
    "delivery": "Delivery",
    "district": "TENKASI",
    "statename": "TAMIL NADU",
    "latitude": "8.9592000",
    "longitude": "77.5395000"
  },
  {
    "circlename": "Tamilnadu Circle",
    "regionname": "Southern Region Madurai",
    "divisionname": "Kovilpatti Division",
    "officename": "Agarakattu B.O",
    "pincode": "627852",
    "officetype": "BO",
    "delivery": "Delivery",
    "district": "TENKASI",
    "statename": "TAMIL NADU",
    "latitude": "8.9878000",
    "longitude": "77.3115000"
  },
  {
    "circlename": "Tamilnadu Circle",
    "regionname": "Southern Region Madurai",
    "divisionname": "Kovilpatti Division",
    "officename": "Kasimajorpuram B.O",
    "pincode": "627802",
    "officetype": "BO",
    "delivery": "Non Delivery",
    "district": "TENKASI",
    "statename": "TAMIL NADU",
    "latitude": "8.9268000",
    "longitude": "77.2503000"
  },
  {
    "circlename": "Tamilnadu Circle",
    "regionname": "Southern Region Madurai",
    "divisionname": "Kovilpatti Division",
    "officename": "ACHANPUTHUR B.O",
    "pincode": "627803",
    "officetype": "BO",
    "delivery": "Delivery",
    "district": "TENKASI",
    "statename": "TAMIL NADU",
    "latitude": "9.0241000000000007",
    "longitude": "77.277500000000003"
  },
  {
    "circlename": "Tamilnadu Circle",
    "regionname": "Southern Region Madurai",
    "divisionname": "Kovilpatti Division",
    "officename": "Mangalapuram B.O",
    "pincode": "627751",
    "officetype": "BO",
    "delivery": "Delivery",
    "district": "TENKASI",
    "statename": "TAMIL NADU",
    "latitude": "9.0432000",
    "longitude": "77.3325000"
  },
  {
    "circlename": "Tamilnadu Circle",
    "regionname": "Southern Region Madurai",
    "divisionname": "Kovilpatti Division",
    "officename": "Mayamankurichi B.O",
    "pincode": "627853",
    "officetype": "BO",
    "delivery": "Delivery",
    "district": "TENKASI",
    "statename": "TAMIL NADU",
    "latitude": "8.8960000",
    "longitude": "77.4740000"
  },
  {
    "circlename": "Tamilnadu Circle",
    "regionname": "Southern Region Madurai",
    "divisionname": "Kovilpatti Division",
    "officename": "ADAIKALAPATANAM B.O",
    "pincode": "627808",
    "officetype": "BO",
    "delivery": "Delivery",
    "district": "TENKASI",
    "statename": "TAMIL NADU",
    "latitude": "8.8741000000000003",
    "longitude": "77.4084"
  },
  {
    "circlename": "Tamilnadu Circle",
    "regionname": "Southern Region Madurai",
    "divisionname": "Kovilpatti Division",
    "officename": "Melur B.O",
    "pincode": "627809",
    "officetype": "BO",
    "delivery": "Non Delivery",
    "district": "TENKASI",
    "statename": "TAMIL NADU",
    "latitude": "8.9559000",
    "longitude": "77.2241000"
  },
  {
    "circlename": "Tamilnadu Circle",
    "regionname": "Southern Region Madurai",
    "divisionname": "Kovilpatti Division",
    "officename": "PERIAPILLAIVALASAI B.O",
    "pincode": "627809",
    "officetype": "BO",
    "delivery": "Delivery",
    "district": "TENKASI",
    "statename": "TAMIL NADU",
    "latitude": "8.9770000000000003",
    "longitude": "77.232600000000005"
  },
  {
    "circlename": "Tamilnadu Circle",
    "regionname": "Southern Region Madurai",
    "divisionname": "Kovilpatti Division",
    "officename": "Thenpothai B.O",
    "pincode": "627809",
    "officetype": "BO",
    "delivery": "Delivery",
    "district": "TENKASI",
    "statename": "TAMIL NADU",
    "latitude": "8.9921000",
    "longitude": "77.2273000"
  },
  {
    "circlename": "Tamilnadu Circle",
    "regionname": "Southern Region Madurai",
    "divisionname": "Kovilpatti Division",
    "officename": "Bungalowsurandai B.O",
    "pincode": "627859",
    "officetype": "BO",
    "delivery": "Delivery",
    "district": "TENKASI",
    "statename": "TAMIL NADU",
    "latitude": "8.9557000",
    "longitude": "77.4094000"
  },
  {
    "circlename": "Tamilnadu Circle",
    "regionname": "Southern Region Madurai",
    "divisionname": "Tirunelveli Division",
    "officename": "Sambankulam BO",
    "pincode": "627412",
    "officetype": "BO",
    "delivery": "Delivery",
    "district": "TENKASI",
    "statename": "TAMIL NADU",
    "latitude": "8.7972910",
    "longitude": "77.3401210"
  },
  {
    "circlename": "Tamilnadu Circle",
    "regionname": "Southern Region Madurai",
    "divisionname": "Tirunelveli Division",
    "officename": "Adaichani BO",
    "pincode": "627413",
    "officetype": "BO",
    "delivery": "Delivery",
    "district": "TENKASI",
    "statename": "TAMIL NADU",
    "latitude": "8.7508530",
    "longitude": "77.4533380"
  },
  {
    "circlename": "Tamilnadu Circle",
    "regionname": "Southern Region Madurai",
    "divisionname": "Tirunelveli Division",
    "officename": "Kaduvetti BO",
    "pincode": "627202",
    "officetype": "BO",
    "delivery": "Delivery",
    "district": "TENKASI",
    "statename": "TAMIL NADU",
    "latitude": "8.9117940",
    "longitude": "77.6004080"
  },
  {
    "circlename": "Tamilnadu Circle",
    "regionname": "Southern Region Madurai",
    "divisionname": "Virudhunagar Division",
    "officename": "Varaganur BO",
    "pincode": "626140",
    "officetype": "BO",
    "delivery": "Delivery",
    "district": "TENKASI",
    "statename": "TAMIL NADU",
    "latitude": "9.2700000",
    "longitude": "77.7300000"
  },
  {
    "circlename": "Tamilnadu Circle",
    "regionname": "Southern Region Madurai",
    "divisionname": "Kovilpatti Division",
    "officename": "ILAYARASANENDAL S.O",
    "pincode": "627713",
    "officetype": "PO",
    "delivery": "Delivery",
    "district": "TENKASI",
    "statename": "TAMIL NADU",
    "latitude": "9.2052999999999994",
    "longitude": "77.757000000000005"
  },
  {
    "circlename": "Tamilnadu Circle",
    "regionname": "Southern Region Madurai",
    "divisionname": "Kovilpatti Division",
    "officename": "Kuruvikulam S.O",
    "pincode": "627754",
    "officetype": "PO",
    "delivery": "Delivery",
    "district": "TENKASI",
    "statename": "TAMIL NADU",
    "latitude": "9.1699000",
    "longitude": "77.6607000"
  },
  {
    "circlename": "Tamilnadu Circle",
    "regionname": "Southern Region Madurai",
    "divisionname": "Kovilpatti Division",
    "officename": "Alangulam S.O",
    "pincode": "627851",
    "officetype": "PO",
    "delivery": "Delivery",
    "district": "TENKASI",
    "statename": "TAMIL NADU",
    "latitude": "8.8619000",
    "longitude": "77.4772000"
  },
  {
    "circlename": "Tamilnadu Circle",
    "regionname": "Southern Region Madurai",
    "divisionname": "Kovilpatti Division",
    "officename": "Ilanji S.O",
    "pincode": "627805",
    "officetype": "PO",
    "delivery": "Delivery",
    "district": "TENKASI",
    "statename": "TAMIL NADU",
    "latitude": "8.9457000",
    "longitude": "77.2513000"
  },
  {
    "circlename": "Tamilnadu Circle",
    "regionname": "Southern Region Madurai",
    "divisionname": "Kovilpatti Division",
    "officename": "Kizhapuliyur S.O",
    "pincode": "627814",
    "officetype": "PO",
    "delivery": "Delivery",
    "district": "TENKASI",
    "statename": "TAMIL NADU",
    "latitude": "8.9457000",
    "longitude": "77.2999000"
  },
  {
    "circlename": "Tamilnadu Circle",
    "regionname": "Southern Region Madurai",
    "divisionname": "Kovilpatti Division",
    "officename": "Panpuli S.O",
    "pincode": "627807",
    "officetype": "PO",
    "delivery": "Delivery",
    "district": "TENKASI",
    "statename": "TAMIL NADU",
    "latitude": "9.0170000",
    "longitude": "77.2375000"
  },
  {
    "circlename": "Tamilnadu Circle",
    "regionname": "Southern Region Madurai",
    "divisionname": "Kovilpatti Division",
    "officename": "Pavoorchatram S.O",
    "pincode": "627808",
    "officetype": "PO",
    "delivery": "Delivery",
    "district": "TENKASI",
    "statename": "TAMIL NADU",
    "latitude": "8.9012000",
    "longitude": "77.3555300"
  },
  {
    "circlename": "Tamilnadu Circle",
    "regionname": "Southern Region Madurai",
    "divisionname": "Kovilpatti Division",
    "officename": "PULIYARAI S.O",
    "pincode": "627813",
    "officetype": "PO",
    "delivery": "Delivery",
    "district": "TENKASI",
    "statename": "TAMIL NADU",
    "latitude": "8.9895999999999994",
    "longitude": "77.160700000000006"
  },
  {
    "circlename": "Tamilnadu Circle",
    "regionname": "Southern Region Madurai",
    "divisionname": "Tirunelveli Division",
    "officename": "Kadayam SO",
    "pincode": "627415",
    "officetype": "PO",
    "delivery": "Delivery",
    "district": "TENKASI",
    "statename": "TAMIL NADU",
    "latitude": "8.8239444",
    "longitude": "77.3741944"
  },
  {
    "circlename": "Tamilnadu Circle",
    "regionname": "Southern Region Madurai",
    "divisionname": "Tirunelveli Division",
    "officename": "Ravanasamudram SO",
    "pincode": "627424",
    "officetype": "PO",
    "delivery": "Delivery",
    "district": "TENKASI",
    "statename": "TAMIL NADU",
    "latitude": "8.8024257",
    "longitude": "77.3785583"
  }
]