[
  {
    "circlename": "Tamilnadu Circle",
    "regionname": "Chennai City Region",
    "divisionname": "Kanchipuram Division",
    "officename": "Tirupandiyur B.O",
    "pincode": "602108",
    "officetype": "BO",
    "delivery": "Delivery",
    "district": "THIRUVALLUR",
    "statename": "TAMIL NADU",
    "latitude": "12.9674730",
    "longitude": "79.9418120"
  },
  {
    "circlename": "Tamilnadu Circle",
    "regionname": "Chennai City Region",
    "divisionname": "Kanchipuram Division",
    "officename": "Kadananagaram B.O",
    "pincode": "631301",
    "officetype": "BO",
    "delivery": "Delivery",
    "district": "THIRUVALLUR",
    "statename": "TAMIL NADU",
    "latitude": "13.1336600",
    "longitude": "79.3550900"
  },
  {
    "circlename": "Tamilnadu Circle",
    "regionname": "Chennai City Region",
    "divisionname": "Kanchipuram Division",
    "officename": "Nemili B.O",
    "pincode": "631201",
    "officetype": "BO",
    "delivery": "Delivery",
    "district": "THIRUVALLUR",
    "statename": "TAMIL NADU",
    "latitude": "12.8270000",
    "longitude": "79.6873000"
  },
  {
    "circlename": "Tamilnadu Circle",
    "regionname": "Chennai City Region",
    "divisionname": "Kanchipuram Division",
    "officename": "Athimanjeri B.O",
    "pincode": "631202",
    "officetype": "BO",
    "delivery": "Delivery",
    "district": "THIRUVALLUR",
    "statename": "TAMIL NADU",
    "latitude": "13.1733110",
    "longitude": "79.6167569"
  },
  {
    "circlename": "Tamilnadu Circle",
    "regionname": "Chennai City Region",
    "divisionname": "Kanchipuram Division",
    "officename": "Balakrishnapuram B.O",
    "pincode": "631202",
    "officetype": "BO",
    "delivery": "Delivery",
    "district": "THIRUVALLUR",
    "statename": "TAMIL NADU",
    "latitude": "13.2658400",
    "longitude": "79.4614900"
  },
  {
    "circlename": "Tamilnadu Circle",
    "regionname": "Chennai City Region",
    "divisionname": "Kanchipuram Division",
    "officename": "Myladumparai B.O",
    "pincode": "631302",
    "officetype": "BO",
    "delivery": "Delivery",
    "district": "THIRUVALLUR",
    "statename": "TAMIL NADU",
    "latitude": "13.1161000",
    "longitude": "79.8716000"
  },
  {
    "circlename": "Tamilnadu Circle",
    "regionname": "Chennai City Region",
    "divisionname": "Kanchipuram Division",
    "officename": "Veeramangalam B.O",
    "pincode": "631302",
    "officetype": "BO",
    "delivery": "Delivery",
    "district": "THIRUVALLUR",
    "statename": "TAMIL NADU",
    "latitude": "13.1161000",
    "longitude": "79.8716000"
  },
  {
    "circlename": "Tamilnadu Circle",
    "regionname": "Chennai City Region",
    "divisionname": "Kanchipuram Division",
    "officename": "Monnavedu B.O",
    "pincode": "602021",
    "officetype": "BO",
    "delivery": "Delivery",
    "district": "THIRUVALLUR",
    "statename": "TAMIL NADU",
    "latitude": "13.0685872",
    "longitude": "80.0356274"
  },
  {
    "circlename": "Tamilnadu Circle",
    "regionname": "Chennai City Region",
    "divisionname": "Kanchipuram Division",
    "officename": "Pattaraiperumbudur B.O",
    "pincode": "631203",
    "officetype": "BO",
    "delivery": "Delivery",
    "district": "THIRUVALLUR",
    "statename": "TAMIL NADU",
    "latitude": "13.0815000",
    "longitude": "79.8716500"
  },
  {
    "circlename": "Tamilnadu Circle",
    "regionname": "Chennai City Region",
    "divisionname": "Kanchipuram Division",
    "officename": "Tirupasur B.O",
    "pincode": "631203",
    "officetype": "BO",
    "delivery": "Delivery",
    "district": "THIRUVALLUR",
    "statename": "TAMIL NADU",
    "latitude": "13.0815000",
    "longitude": "79.8716500"
  },
  {
    "circlename": "Tamilnadu Circle",
    "regionname": "Chennai City Region",
    "divisionname": "Kanchipuram Division",
    "officename": "Koramangalam B.O",
    "pincode": "631205",
    "officetype": "BO",
    "delivery": "Delivery",
    "district": "THIRUVALLUR",
    "statename": "TAMIL NADU",
    "latitude": "13.1066500",
    "longitude": "79.9104500"
  },
  {
    "circlename": "Tamilnadu Circle",
    "regionname": "Chennai City Region",
    "divisionname": "Kanchipuram Division",
    "officename": "V.K.N.Kandigai B.O",
    "pincode": "631205",
    "officetype": "BO",
    "delivery": "Delivery",
    "district": "THIRUVALLUR",
    "statename": "TAMIL NADU",
    "latitude": "13.1733140",
    "longitude": "79.6167539"
  },
  {
    "circlename": "Tamilnadu Circle",
    "regionname": "Chennai City Region",
    "divisionname": "Kanchipuram Division",
    "officename": "Buchireddipalli B.O",
    "pincode": "631206",
    "officetype": "BO",
    "delivery": "Delivery",
    "district": "THIRUVALLUR",
    "statename": "TAMIL NADU",
    "latitude": "13.1733150",
    "longitude": "79.6167529"
  },
  {
    "circlename": "Tamilnadu Circle",
    "regionname": "Chennai City Region",
    "divisionname": "Kanchipuram Division",
    "officename": "Melnallathur B.O",
    "pincode": "602002",
    "officetype": "BO",
    "delivery": "Delivery",
    "district": "THIRUVALLUR",
    "statename": "TAMIL NADU",
    "latitude": "13.0857942",
    "longitude": "79.9079369"
  },
  {
    "circlename": "Tamilnadu Circle",
    "regionname": "Chennai City Region",
    "divisionname": "Kanchipuram Division",
    "officename": "Nungambakkam B.O",
    "pincode": "602002",
    "officetype": "BO",
    "delivery": "Delivery",
    "district": "THIRUVALLUR",
    "statename": "TAMIL NADU",
    "latitude": "13.0610797",
    "longitude": "80.2404839"
  },
  {
    "circlename": "Tamilnadu Circle",
    "regionname": "Chennai City Region",
    "divisionname": "Kanchipuram Division",
    "officename": "Kumararajupeta B.O",
    "pincode": "631207",
    "officetype": "BO",
    "delivery": "Delivery",
    "district": "THIRUVALLUR",
    "statename": "TAMIL NADU",
    "latitude": "13.3389000",
    "longitude": "79.4428300"
  },
  {
    "circlename": "Tamilnadu Circle",
    "regionname": "Chennai City Region",
    "divisionname": "Kanchipuram Division",
    "officename": "Majankaranai B.O",
    "pincode": "601102",
    "officetype": "BO",
    "delivery": "Delivery",
    "district": "THIRUVALLUR",
    "statename": "TAMIL NADU",
    "latitude": "13.3710500",
    "longitude": "80.0756000"
  },
  {
    "circlename": "Tamilnadu Circle",
    "regionname": "Chennai City Region",
    "divisionname": "Kanchipuram Division",
    "officename": "Mukkarambakkam B.O",
    "pincode": "601102",
    "officetype": "BO",
    "delivery": "Delivery",
    "district": "THIRUVALLUR",
    "statename": "TAMIL NADU",
    "latitude": "13.3288129",
    "longitude": "80.0143516"
  },
  {
    "circlename": "Tamilnadu Circle",
    "regionname": "Chennai City Region",
    "divisionname": "Kanchipuram Division",
    "officename": "Nedigallu B.O",
    "pincode": "631208",
    "officetype": "BO",
    "delivery": "Delivery",
    "district": "THIRUVALLUR",
    "statename": "TAMIL NADU",
    "latitude": "13.1381500",
    "longitude": "79.8231000"
  },
  {
    "circlename": "Tamilnadu Circle",
    "regionname": "Chennai City Region",
    "divisionname": "Kanchipuram Division",
    "officename": "Pettaikandigai B.O",
    "pincode": "631208",
    "officetype": "BO",
    "delivery": "Delivery",
    "district": "THIRUVALLUR",
    "statename": "TAMIL NADU",
    "latitude": "13.1381500",
    "longitude": "79.8231000"
  },
  {
    "circlename": "Tamilnadu Circle",
    "regionname": "Chennai City Region",
    "divisionname": "Kanchipuram Division",
    "officename": "Alamelumangapuram B.O",
    "pincode": "631213",
    "officetype": "BO",
    "delivery": "Delivery",
    "district": "THIRUVALLUR",
    "statename": "TAMIL NADU",
    "latitude": "13.1733170",
    "longitude": "79.6167509"
  },
  {
    "circlename": "Tamilnadu Circle",
    "regionname": "Chennai City Region",
    "divisionname": "Kanchipuram Division",
    "officename": "Ponpadi B.O",
    "pincode": "631213",
    "officetype": "BO",
    "delivery": "Non Delivery",
    "district": "THIRUVALLUR",
    "statename": "TAMIL NADU",
    "latitude": "13.1733070",
    "longitude": "79.6167609"
  },
  {
    "circlename": "Tamilnadu Circle",
    "regionname": "Chennai City Region",
    "divisionname": "Kanchipuram Division",
    "officename": "Neiveli B.O",
    "pincode": "602023",
    "officetype": "BO",
    "delivery": "Delivery",
    "district": "THIRUVALLUR",
    "statename": "TAMIL NADU",
    "latitude": "13.2013928",
    "longitude": "79.8922640"
  },
  {
    "circlename": "Tamilnadu Circle",
    "regionname": "Chennai City Region",
    "divisionname": "Kanchipuram Division",
    "officename": "Adivaragapuram B.O",
    "pincode": "631303",
    "officetype": "BO",
    "delivery": "Delivery",
    "district": "THIRUVALLUR",
    "statename": "TAMIL NADU",
    "latitude": "12.9998500",
    "longitude": "79.6185200"
  },
  {
    "circlename": "Tamilnadu Circle",
    "regionname": "Chennai City Region",
    "divisionname": "Kanchipuram Division",
    "officename": "Karthikeyapuram B.O",
    "pincode": "631211",
    "officetype": "BO",
    "delivery": "Delivery",
    "district": "THIRUVALLUR",
    "statename": "TAMIL NADU",
    "latitude": "13.1733150",
    "longitude": "79.6167529"
  },
  {
    "circlename": "Tamilnadu Circle",
    "regionname": "Chennai City Region",
    "divisionname": "Kanchipuram Division",
    "officename": "Kasavarajpetta B.O",
    "pincode": "631211",
    "officetype": "BO",
    "delivery": "Delivery",
    "district": "THIRUVALLUR",
    "statename": "TAMIL NADU",
    "latitude": "13.1733140",
    "longitude": "79.6167539"
  },
  {
    "circlename": "Tamilnadu Circle",
    "regionname": "Chennai City Region",
    "divisionname": "Kanchipuram Division",
    "officename": "Sivanvoyal B.O",
    "pincode": "602024",
    "officetype": "BO",
    "delivery": "Delivery",
    "district": "THIRUVALLUR",
    "statename": "TAMIL NADU",
    "latitude": "13.1287000",
    "longitude": "79.9008000"
  },
  {
    "circlename": "Tamilnadu Circle",
    "regionname": "Chennai City Region",
    "divisionname": "Kanchipuram Division",
    "officename": "Kalambakkam B.O",
    "pincode": "602025",
    "officetype": "BO",
    "delivery": "Delivery",
    "district": "THIRUVALLUR",
    "statename": "TAMIL NADU",
    "latitude": "13.1161500",
    "longitude": "79.9784500"
  },
  {
    "circlename": "Tamilnadu Circle",
    "regionname": "Chennai City Region",
    "divisionname": "Kanchipuram Division",
    "officename": "Papparambakkam B.O",
    "pincode": "602025",
    "officetype": "BO",
    "delivery": "Delivery",
    "district": "THIRUVALLUR",
    "statename": "TAMIL NADU",
    "latitude": "13.1425630",
    "longitude": "79.9090390"
  },
  {
    "circlename": "Tamilnadu Circle",
    "regionname": "Chennai City Region",
    "divisionname": "Kanchipuram Division",
    "officename": "Putlur B.O",
    "pincode": "602025",
    "officetype": "BO",
    "delivery": "Delivery",
    "district": "THIRUVALLUR",
    "statename": "TAMIL NADU",
    "latitude": "13.1125631",
    "longitude": "79.9391406"
  },
  {
    "circlename": "Tamilnadu Circle",
    "regionname": "Chennai City Region",
    "divisionname": "Kanchipuram Division",
    "officename": "Pattabiramapuram B.O",
    "pincode": "631209",
    "officetype": "BO",
    "delivery": "Delivery",
    "district": "THIRUVALLUR",
    "statename": "TAMIL NADU",
    "latitude": "13.1435285",
    "longitude": "79.8932038"
  },
  {
    "circlename": "Tamilnadu Circle",
    "regionname": "Chennai City Region",
    "divisionname": "Kanchipuram Division",
    "officename": "Velanjeri B.O",
    "pincode": "631209",
    "officetype": "BO",
    "delivery": "Delivery",
    "district": "THIRUVALLUR",
    "statename": "TAMIL NADU",
    "latitude": "13.1435215",
    "longitude": "79.8932108"
  },
  {
    "circlename": "Tamilnadu Circle",
    "regionname": "Chennai City Region",
    "divisionname": "Kanchipuram Division",
    "officename": "Chinnammapet B.O",
    "pincode": "631210",
    "officetype": "BO",
    "delivery": "Delivery",
    "district": "THIRUVALLUR",
    "statename": "TAMIL NADU",
    "latitude": "13.1667600",
    "longitude": "79.7484100"
  },
  {
    "circlename": "Tamilnadu Circle",
    "regionname": "Chennai City Region",
    "divisionname": "Kanchipuram Division",
    "officename": "Kunnavalam B.O",
    "pincode": "631210",
    "officetype": "BO",
    "delivery": "Delivery",
    "district": "THIRUVALLUR",
    "statename": "TAMIL NADU",
    "latitude": "13.1733100",
    "longitude": "79.6167579"
  },
  {
    "circlename": "Tamilnadu Circle",
    "regionname": "Chennai City Region",
    "divisionname": "Kanchipuram Division",
    "officename": "Tharakshi B.O",
    "pincode": "602026",
    "officetype": "BO",
    "delivery": "Delivery",
    "district": "THIRUVALLUR",
    "statename": "TAMIL NADU",
    "latitude": "13.3270000",
    "longitude": "79.9212600"
  },
  {
    "circlename": "Tamilnadu Circle",
    "regionname": "Chennai City Region",
    "divisionname": "Kanchipuram Division",
    "officename": "Enambakkam B.O",
    "pincode": "601103",
    "officetype": "BO",
    "delivery": "Delivery",
    "district": "THIRUVALLUR",
    "statename": "TAMIL NADU",
    "latitude": "13.1425590",
    "longitude": "79.9090430"
  },
  {
    "circlename": "Tamilnadu Circle",
    "regionname": "Chennai City Region",
    "divisionname": "Kanchipuram Division",
    "officename": "Meyyur B.O",
    "pincode": "601103",
    "officetype": "BO",
    "delivery": "Delivery",
    "district": "THIRUVALLUR",
    "statename": "TAMIL NADU",
    "latitude": "13.2955000",
    "longitude": "80.0335000"
  },
  {
    "circlename": "Tamilnadu Circle",
    "regionname": "Chennai City Region",
    "divisionname": "Kanchipuram Division",
    "officename": "Poorivakkam B.O",
    "pincode": "601103",
    "officetype": "BO",
    "delivery": "Delivery",
    "district": "THIRUVALLUR",
    "statename": "TAMIL NADU",
    "latitude": "13.0676781",
    "longitude": "79.9129625"
  },
  {
    "circlename": "Tamilnadu Circle",
    "regionname": "Chennai City Region",
    "divisionname": "Tambaram Division",
    "officename": "Devampattu BO",
    "pincode": "601201",
    "officetype": "BO",
    "delivery": "Delivery",
    "district": "THIRUVALLUR",
    "statename": "TAMIL NADU",
    "latitude": "13.4380000",
    "longitude": "80.1690000"
  },
  {
    "circlename": "Tamilnadu Circle",
    "regionname": "Chennai City Region",
    "divisionname": "Tambaram Division",
    "officename": "Kallur BO",
    "pincode": "601201",
    "officetype": "BO",
    "delivery": "Delivery",
    "district": "THIRUVALLUR",
    "statename": "TAMIL NADU",
    "latitude": "13.4770000",
    "longitude": "80.2060000"
  },
  {
    "circlename": "Tamilnadu Circle",
    "regionname": "Chennai City Region",
    "divisionname": "Tambaram Division",
    "officename": "Mangavaram BO",
    "pincode": "601201",
    "officetype": "BO",
    "delivery": "Delivery",
    "district": "THIRUVALLUR",
    "statename": "TAMIL NADU",
    "latitude": "13.4310000",
    "longitude": "80.1310000"
  },
  {
    "circlename": "Tamilnadu Circle",
    "regionname": "Chennai City Region",
    "divisionname": "Tambaram Division",
    "officename": "Sirupulalpettai BO",
    "pincode": "601201",
    "officetype": "BO",
    "delivery": "Delivery",
    "district": "THIRUVALLUR",
    "statename": "TAMIL NADU",
    "latitude": "13.3850000",
    "longitude": "80.0600000"
  },
  {
    "circlename": "Tamilnadu Circle",
    "regionname": "Chennai City Region",
    "divisionname": "Tambaram Division",
    "officename": "Tervali BO",
    "pincode": "601201",
    "officetype": "BO",
    "delivery": "Delivery",
    "district": "THIRUVALLUR",
    "statename": "TAMIL NADU",
    "latitude": "13.4080000",
    "longitude": "80.1070000"
  },
  {
    "circlename": "Tamilnadu Circle",
    "regionname": "Chennai City Region",
    "divisionname": "Tambaram Division",
    "officename": "Kilmudalambedu BO",
    "pincode": "601206",
    "officetype": "BO",
    "delivery": "Delivery",
    "district": "THIRUVALLUR",
    "statename": "TAMIL NADU",
    "latitude": "13.3400000",
    "longitude": "80.1020000"
  },
  {
    "circlename": "Tamilnadu Circle",
    "regionname": "Chennai City Region",
    "divisionname": "Tambaram Division",
    "officename": "Puduvoyal BO",
    "pincode": "601206",
    "officetype": "BO",
    "delivery": "Delivery",
    "district": "THIRUVALLUR",
    "statename": "TAMIL NADU",
    "latitude": "13.3160000",
    "longitude": "80.1170000"
  },
  {
    "circlename": "Tamilnadu Circle",
    "regionname": "Chennai City Region",
    "divisionname": "Tambaram Division",
    "officename": "Jothi Nagar BO",
    "pincode": "601203",
    "officetype": "BO",
    "delivery": "Delivery",
    "district": "THIRUVALLUR",
    "statename": "TAMIL NADU",
    "latitude": "13.2790000",
    "longitude": "80.1880000"
  },
  {
    "circlename": "Tamilnadu Circle",
    "regionname": "Chennai City Region",
    "divisionname": "Tambaram Division",
    "officename": "Neidavoyal BO",
    "pincode": "601203",
    "officetype": "BO",
    "delivery": "Delivery",
    "district": "THIRUVALLUR",
    "statename": "TAMIL NADU",
    "latitude": "13.2960000",
    "longitude": "80.2440000"
  },
  {
    "circlename": "Tamilnadu Circle",
    "regionname": "Chennai City Region",
    "divisionname": "Tambaram Division",
    "officename": "Aladu BO",
    "pincode": "601204",
    "officetype": "BO",
    "delivery": "Delivery",
    "district": "THIRUVALLUR",
    "statename": "TAMIL NADU",
    "latitude": "13.3200000",
    "longitude": "80.1820000"
  },
  {
    "circlename": "Tamilnadu Circle",
    "regionname": "Chennai City Region",
    "divisionname": "Tambaram Division",
    "officename": "Amoor BO",
    "pincode": "601204",
    "officetype": "BO",
    "delivery": "Delivery",
    "district": "THIRUVALLUR",
    "statename": "TAMIL NADU",
    "latitude": "13.2860000",
    "longitude": "80.1560000"
  },
  {
    "circlename": "Tamilnadu Circle",
    "regionname": "Chennai City Region",
    "divisionname": "Tambaram Division",
    "officename": "Arasur BO",
    "pincode": "601204",
    "officetype": "BO",
    "delivery": "Delivery",
    "district": "THIRUVALLUR",
    "statename": "TAMIL NADU",
    "latitude": "13.3680000",
    "longitude": "80.1610000"
  },
  {
    "circlename": "Tamilnadu Circle",
    "regionname": "Chennai City Region",
    "divisionname": "Tambaram Division",
    "officename": "Perumbedu BO",
    "pincode": "601204",
    "officetype": "BO",
    "delivery": "Delivery",
    "district": "THIRUVALLUR",
    "statename": "TAMIL NADU",
    "latitude": "13.3450000",
    "longitude": "80.2130000"
  },
  {
    "circlename": "Tamilnadu Circle",
    "regionname": "Chennai City Region",
    "divisionname": "Tambaram Division",
    "officename": "Kolur BO",
    "pincode": "601205",
    "officetype": "BO",
    "delivery": "Delivery",
    "district": "THIRUVALLUR",
    "statename": "TAMIL NADU",
    "latitude": "13.4180000",
    "longitude": "80.1980000"
  },
  {
    "circlename": "Tamilnadu Circle",
    "regionname": "Chennai City Region",
    "divisionname": "Tambaram Division",
    "officename": "Thirupalavanam BO",
    "pincode": "601205",
    "officetype": "BO",
    "delivery": "Delivery",
    "district": "THIRUVALLUR",
    "statename": "TAMIL NADU",
    "latitude": "13.3880000",
    "longitude": "80.2200000"
  },
  {
    "circlename": "Tamilnadu Circle",
    "regionname": "Chennai City Region",
    "divisionname": "Tambaram Division",
    "officename": "Boochiathipattu BO",
    "pincode": "600052",
    "officetype": "BO",
    "delivery": "Delivery",
    "district": "THIRUVALLUR",
    "statename": "TAMIL NADU",
    "latitude": "13.2000000",
    "longitude": "80.0590000"
  },
  {
    "circlename": "Tamilnadu Circle",
    "regionname": "Chennai City Region",
    "divisionname": "Tambaram Division",
    "officename": "Guruvoyal BO",
    "pincode": "600052",
    "officetype": "BO",
    "delivery": "Delivery",
    "district": "THIRUVALLUR",
    "statename": "TAMIL NADU",
    "latitude": "13.2240000",
    "longitude": "80.0530000"
  },
  {
    "circlename": "Tamilnadu Circle",
    "regionname": "Chennai City Region",
    "divisionname": "Tambaram Division",
    "officename": "Budur BO",
    "pincode": "600067",
    "officetype": "BO",
    "delivery": "Delivery",
    "district": "THIRUVALLUR",
    "statename": "TAMIL NADU",
    "latitude": "13.2240000",
    "longitude": "80.1740000"
  },
  {
    "circlename": "Tamilnadu Circle",
    "regionname": "Chennai City Region",
    "divisionname": "Tambaram Division",
    "officename": "Orakadu BO",
    "pincode": "600067",
    "officetype": "BO",
    "delivery": "Delivery",
    "district": "THIRUVALLUR",
    "statename": "TAMIL NADU",
    "latitude": "13.2300000",
    "longitude": "80.1530000"
  },
  {
    "circlename": "Tamilnadu Circle",
    "regionname": "Chennai City Region",
    "divisionname": "Tambaram Division",
    "officename": "Koduvalli BO",
    "pincode": "600055",
    "officetype": "BO",
    "delivery": "Delivery",
    "district": "THIRUVALLUR",
    "statename": "TAMIL NADU",
    "latitude": "12.8570000",
    "longitude": "79.7100000"
  },
  {
    "circlename": "Tamilnadu Circle",
    "regionname": "Chennai City Region",
    "divisionname": "Tambaram Division",
    "officename": "Pandeeswaram BO",
    "pincode": "600055",
    "officetype": "BO",
    "delivery": "Delivery",
    "district": "THIRUVALLUR",
    "statename": "TAMIL NADU",
    "latitude": "13.1770000",
    "longitude": "80.0360000"
  },
  {
    "circlename": "Tamilnadu Circle",
    "regionname": "Chennai City Region",
    "divisionname": "Tambaram Division",
    "officename": "Paruthipattu BO",
    "pincode": "600071",
    "officetype": "BO",
    "delivery": "Non Delivery",
    "district": "THIRUVALLUR",
    "statename": "TAMIL NADU",
    "latitude": "13.0860000",
    "longitude": "80.0790000"
  },
  {
    "circlename": "Tamilnadu Circle",
    "regionname": "Chennai City Region",
    "divisionname": "Tambaram Division",
    "officename": "Malayambakkam BO",
    "pincode": "600123",
    "officetype": "BO",
    "delivery": "Delivery",
    "district": "THIRUVALLUR",
    "statename": "TAMIL NADU",
    "latitude": "13.0190000",
    "longitude": "80.0570000"
  },
  {
    "circlename": "Tamilnadu Circle",
    "regionname": "Chennai City Region",
    "divisionname": "Tambaram Division",
    "officename": "Sembarambakkam BO",
    "pincode": "600123",
    "officetype": "BO",
    "delivery": "Delivery",
    "district": "THIRUVALLUR",
    "statename": "TAMIL NADU",
    "latitude": "13.0200000",
    "longitude": "80.0260000"
  },
  {
    "circlename": "Tamilnadu Circle",
    "regionname": "Chennai City Region",
    "divisionname": "Tambaram Division",
    "officename": "Kattupakkam BO",
    "pincode": "600056",
    "officetype": "BO",
    "delivery": "Non Delivery",
    "district": "THIRUVALLUR",
    "statename": "TAMIL NADU",
    "latitude": "13.0310000",
    "longitude": "80.0710000"
  },
  {
    "circlename": "Tamilnadu Circle",
    "regionname": "Chennai City Region",
    "divisionname": "Tambaram Division",
    "officename": "Nemam BO",
    "pincode": "600124",
    "officetype": "BO",
    "delivery": "Delivery",
    "district": "THIRUVALLUR",
    "statename": "TAMIL NADU",
    "latitude": "13.0540000",
    "longitude": "79.9890000"
  },
  {
    "circlename": "Tamilnadu Circle",
    "regionname": "Chennai City Region",
    "divisionname": "Tambaram Division",
    "officename": "Udayarkoil BO",
    "pincode": "600124",
    "officetype": "BO",
    "delivery": "Non Delivery",
    "district": "THIRUVALLUR",
    "statename": "TAMIL NADU",
    "latitude": "13.0410000",
    "longitude": "80.0290000"
  },
  {
    "circlename": "Tamilnadu Circle",
    "regionname": "Chennai City Region",
    "divisionname": "Tambaram Division",
    "officename": "Vellanur BO",
    "pincode": "600062",
    "officetype": "BO",
    "delivery": "Non Delivery",
    "district": "THIRUVALLUR",
    "statename": "TAMIL NADU",
    "latitude": "13.1460000",
    "longitude": "80.0760000"
  },
  {
    "circlename": "Tamilnadu Circle",
    "regionname": "Chennai City Region",
    "divisionname": "Tambaram Division",
    "officename": "Avadi Camp HO",
    "pincode": "600054",
    "officetype": "HO",
    "delivery": "Delivery",
    "district": "THIRUVALLUR",
    "statename": "TAMIL NADU",
    "latitude": "13.1269444",
    "longitude": "80.1037500"
  },
  {
    "circlename": "Tamilnadu Circle",
    "regionname": "Chennai City Region",
    "divisionname": "Kanchipuram Division",
    "officename": "Pannur S.O (Kanchipuram)",
    "pincode": "602108",
    "officetype": "PO",
    "delivery": "Delivery",
    "district": "THIRUVALLUR",
    "statename": "TAMIL NADU",
    "latitude": "12.967468",
    "longitude": "79.941817"
  },
  {
    "circlename": "Tamilnadu Circle",
    "regionname": "Chennai City Region",
    "divisionname": "Kanchipuram Division",
    "officename": "Vanganur S.O",
    "pincode": "631304",
    "officetype": "PO",
    "delivery": "Delivery",
    "district": "THIRUVALLUR",
    "statename": "TAMIL NADU",
    "latitude": "12.9156667",
    "longitude": "79.7656111"
  },
  {
    "circlename": "Tamilnadu Circle",
    "regionname": "Chennai City Region",
    "divisionname": "Kanchipuram Division",
    "officename": "Vengal S.O",
    "pincode": "601103",
    "officetype": "PO",
    "delivery": "Delivery",
    "district": "THIRUVALLUR",
    "statename": "TAMIL NADU",
    "latitude": "13.251561",
    "longitude": "80.011772"
  },
  {
    "circlename": "Tamilnadu Circle",
    "regionname": "Chennai City Region",
    "divisionname": "Tambaram Division",
    "officename": "North Chennai Thermal PP SO",
    "pincode": "600120",
    "officetype": "PO",
    "delivery": "Delivery",
    "district": "THIRUVALLUR",
    "statename": "TAMIL NADU",
    "latitude": "13.2565240",
    "longitude": "80.2769910"
  },
  {
    "circlename": "Tamilnadu Circle",
    "regionname": "Chennai City Region",
    "divisionname": "Tambaram Division",
    "officename": "Ponneri Public Office SO",
    "pincode": "601204",
    "officetype": "PO",
    "delivery": "Non Delivery",
    "district": "THIRUVALLUR",
    "statename": "TAMIL NADU",
    "latitude": "13.3334167",
    "longitude": "80.2001667"
  },
  {
    "circlename": "Tamilnadu Circle",
    "regionname": "Chennai City Region",
    "divisionname": "Tambaram Division",
    "officename": "Ponniammanmedu SO",
    "pincode": "600110",
    "officetype": "PO",
    "delivery": "Delivery",
    "district": "THIRUVALLUR",
    "statename": "TAMIL NADU",
    "latitude": "13.2277222",
    "longitude": "80.3966944"
  },
  {
    "circlename": "Tamilnadu Circle",
    "regionname": "Chennai City Region",
    "divisionname": "Tambaram Division",
    "officename": "Avadi SO",
    "pincode": "600054",
    "officetype": "PO",
    "delivery": "Non Delivery",
    "district": "THIRUVALLUR",
    "statename": "TAMIL NADU",
    "latitude": "13.0701400",
    "longitude": "80.0609300"
  },
  {
    "circlename": "Tamilnadu Circle",
    "regionname": "Chennai City Region",
    "divisionname": "Tambaram Division",
    "officename": "CRP camp SO Tiruvallur",
    "pincode": "600055",
    "officetype": "PO",
    "delivery": "Non Delivery",
    "district": "THIRUVALLUR",
    "statename": "TAMIL NADU",
    "latitude": "13.1271389",
    "longitude": "79.9108889"
  },
  {
    "circlename": "Tamilnadu Circle",
    "regionname": "Chennai City Region",
    "divisionname": "Tambaram Division",
    "officename": "Poonamallee SO",
    "pincode": "600056",
    "officetype": "PO",
    "delivery": "Delivery",
    "district": "THIRUVALLUR",
    "statename": "TAMIL NADU",
    "latitude": "13.0512222",
    "longitude": "80.1030000"
  },
  {
    "circlename": "Tamilnadu Circle",
    "regionname": "Chennai City Region",
    "divisionname": "Tambaram Division",
    "officename": "Tank Factory Avadi SO",
    "pincode": "600054",
    "officetype": "PO",
    "delivery": "Non Delivery",
    "district": "THIRUVALLUR",
    "statename": "TAMIL NADU",
    "latitude": "13.1090000",
    "longitude": "80.0951111"
  },
  {
    "circlename": "Tamilnadu Circle",
    "regionname": "Chennai City Region",
    "divisionname": "Kanchipuram Division",
    "officename": "Chivada B.O",
    "pincode": "631201",
    "officetype": "BO",
    "delivery": "Delivery",
    "district": "THIRUVALLUR",
    "statename": "TAMIL NADU",
    "latitude": "12.8270000",
    "longitude": "79.6873000"
  },
  {
    "circlename": "Tamilnadu Circle",
    "regionname": "Chennai City Region",
    "divisionname": "Kanchipuram Division",
    "officename": "Thamaraikulam B.O",
    "pincode": "631302",
    "officetype": "BO",
    "delivery": "Delivery",
    "district": "THIRUVALLUR",
    "statename": "TAMIL NADU",
    "latitude": "13.1161000",
    "longitude": "79.8716000"
  },
  {
    "circlename": "Tamilnadu Circle",
    "regionname": "Chennai City Region",
    "divisionname": "Kanchipuram Division",
    "officename": "Vediyangadu B.O",
    "pincode": "631302",
    "officetype": "BO",
    "delivery": "Delivery",
    "district": "THIRUVALLUR",
    "statename": "TAMIL NADU",
    "latitude": "13.1161000",
    "longitude": "79.8716000"
  },
  {
    "circlename": "Tamilnadu Circle",
    "regionname": "Chennai City Region",
    "divisionname": "Kanchipuram Division",
    "officename": "Odikkadu B.O",
    "pincode": "602021",
    "officetype": "BO",
    "delivery": "Delivery",
    "district": "THIRUVALLUR",
    "statename": "TAMIL NADU",
    "latitude": "13.1885000",
    "longitude": "79.9396000"
  },
  {
    "circlename": "Tamilnadu Circle",
    "regionname": "Chennai City Region",
    "divisionname": "Kanchipuram Division",
    "officename": "Egattur B.O",
    "pincode": "631203",
    "officetype": "BO",
    "delivery": "Delivery",
    "district": "THIRUVALLUR",
    "statename": "TAMIL NADU",
    "latitude": "13.1068970",
    "longitude": "79.8838770"
  },
  {
    "circlename": "Tamilnadu Circle",
    "regionname": "Chennai City Region",
    "divisionname": "Kanchipuram Division",
    "officename": "Pudumavilangai B.O",
    "pincode": "631203",
    "officetype": "BO",
    "delivery": "Delivery",
    "district": "THIRUVALLUR",
    "statename": "TAMIL NADU",
    "latitude": "13.0815000",
    "longitude": "79.8716500"
  },
  {
    "circlename": "Tamilnadu Circle",
    "regionname": "Chennai City Region",
    "divisionname": "Kanchipuram Division",
    "officename": "Vidaiyur B.O",
    "pincode": "631203",
    "officetype": "BO",
    "delivery": "Delivery",
    "district": "THIRUVALLUR",
    "statename": "TAMIL NADU",
    "latitude": "13.1425570",
    "longitude": "79.9090450"
  },
  {
    "circlename": "Tamilnadu Circle",
    "regionname": "Chennai City Region",
    "divisionname": "Kanchipuram Division",
    "officename": "Arcot B.O",
    "pincode": "631204",
    "officetype": "BO",
    "delivery": "Delivery",
    "district": "THIRUVALLUR",
    "statename": "TAMIL NADU",
    "latitude": "13.1435175",
    "longitude": "79.8932148"
  },
  {
    "circlename": "Tamilnadu Circle",
    "regionname": "Chennai City Region",
    "divisionname": "Kanchipuram Division",
    "officename": "Illuppur B.O",
    "pincode": "631204",
    "officetype": "BO",
    "delivery": "Delivery",
    "district": "THIRUVALLUR",
    "statename": "TAMIL NADU",
    "latitude": "13.1435205",
    "longitude": "79.8932118"
  },
  {
    "circlename": "Tamilnadu Circle",
    "regionname": "Chennai City Region",
    "divisionname": "Kanchipuram Division",
    "officename": "Muthukondapuram B.O",
    "pincode": "631204",
    "officetype": "BO",
    "delivery": "Delivery",
    "district": "THIRUVALLUR",
    "statename": "TAMIL NADU",
    "latitude": "13.1435275",
    "longitude": "79.8932048"
  },
  {
    "circlename": "Tamilnadu Circle",
    "regionname": "Chennai City Region",
    "divisionname": "Kanchipuram Division",
    "officename": "Nedambaram B.O",
    "pincode": "631204",
    "officetype": "BO",
    "delivery": "Delivery",
    "district": "THIRUVALLUR",
    "statename": "TAMIL NADU",
    "latitude": "13.1435225",
    "longitude": "79.8932098"
  },
  {
    "circlename": "Tamilnadu Circle",
    "regionname": "Chennai City Region",
    "divisionname": "Kanchipuram Division",
    "officename": "Ramanjeri B.O",
    "pincode": "631204",
    "officetype": "BO",
    "delivery": "Delivery",
    "district": "THIRUVALLUR",
    "statename": "TAMIL NADU",
    "latitude": "13.1435215",
    "longitude": "79.8932108"
  },
  {
    "circlename": "Tamilnadu Circle",
    "regionname": "Chennai City Region",
    "divisionname": "Kanchipuram Division",
    "officename": "Beerakuppam B.O",
    "pincode": "631205",
    "officetype": "BO",
    "delivery": "Delivery",
    "district": "THIRUVALLUR",
    "statename": "TAMIL NADU",
    "latitude": "13.1066500",
    "longitude": "79.9104500"
  },
  {
    "circlename": "Tamilnadu Circle",
    "regionname": "Chennai City Region",
    "divisionname": "Kanchipuram Division",
    "officename": "S.Agraharam B.O",
    "pincode": "631205",
    "officetype": "BO",
    "delivery": "Delivery",
    "district": "THIRUVALLUR",
    "statename": "TAMIL NADU",
    "latitude": "13.1733110",
    "longitude": "79.6167569"
  },
  {
    "circlename": "Tamilnadu Circle",
    "regionname": "Chennai City Region",
    "divisionname": "Kanchipuram Division",
    "officename": "Sirugumi B.O",
    "pincode": "631205",
    "officetype": "BO",
    "delivery": "Delivery",
    "district": "THIRUVALLUR",
    "statename": "TAMIL NADU",
    "latitude": "13.1733080",
    "longitude": "79.6167599"
  },
  {
    "circlename": "Tamilnadu Circle",
    "regionname": "Chennai City Region",
    "divisionname": "Kanchipuram Division",
    "officename": "Thadur B.O",
    "pincode": "631205",
    "officetype": "BO",
    "delivery": "Delivery",
    "district": "THIRUVALLUR",
    "statename": "TAMIL NADU",
    "latitude": "13.1733060",
    "longitude": "79.6167619"
  },
  {
    "circlename": "Tamilnadu Circle",
    "regionname": "Chennai City Region",
    "divisionname": "Kanchipuram Division",
    "officename": "Kolathur B.O",
    "pincode": "631207",
    "officetype": "BO",
    "delivery": "Delivery",
    "district": "THIRUVALLUR",
    "statename": "TAMIL NADU",
    "latitude": "13.3389000",
    "longitude": "79.4428300"
  },
  {
    "circlename": "Tamilnadu Circle",
    "regionname": "Chennai City Region",
    "divisionname": "Kanchipuram Division",
    "officename": "Punyam B.O",
    "pincode": "631207",
    "officetype": "BO",
    "delivery": "Delivery",
    "district": "THIRUVALLUR",
    "statename": "TAMIL NADU",
    "latitude": "13.3389000",
    "longitude": "79.4428300"
  },
  {
    "circlename": "Tamilnadu Circle",
    "regionname": "Chennai City Region",
    "divisionname": "Kanchipuram Division",
    "officename": "Kilacheri B.O",
    "pincode": "631402",
    "officetype": "BO",
    "delivery": "Delivery",
    "district": "THIRUVALLUR",
    "statename": "TAMIL NADU",
    "latitude": "13.0248500",
    "longitude": "79.8263000"
  },
  {
    "circlename": "Tamilnadu Circle",
    "regionname": "Chennai City Region",
    "divisionname": "Kanchipuram Division",
    "officename": "Kuvam B.O",
    "pincode": "631402",
    "officetype": "BO",
    "delivery": "Delivery",
    "district": "THIRUVALLUR",
    "statename": "TAMIL NADU",
    "latitude": "13.0248500",
    "longitude": "79.8263000"
  },
  {
    "circlename": "Tamilnadu Circle",
    "regionname": "Chennai City Region",
    "divisionname": "Kanchipuram Division",
    "officename": "Thandalam B.O",
    "pincode": "601102",
    "officetype": "BO",
    "delivery": "Delivery",
    "district": "THIRUVALLUR",
    "statename": "TAMIL NADU",
    "latitude": "13.3710500",
    "longitude": "80.0756000"
  },
  {
    "circlename": "Tamilnadu Circle",
    "regionname": "Chennai City Region",
    "divisionname": "Kanchipuram Division",
    "officename": "Bommarajupeta B.O",
    "pincode": "631208",
    "officetype": "BO",
    "delivery": "Delivery",
    "district": "THIRUVALLUR",
    "statename": "TAMIL NADU",
    "latitude": "13.1381500",
    "longitude": "79.8231000"
  },
  {
    "circlename": "Tamilnadu Circle",
    "regionname": "Chennai City Region",
    "divisionname": "Kanchipuram Division",
    "officename": "Kakalur B.O",
    "pincode": "631208",
    "officetype": "BO",
    "delivery": "Delivery",
    "district": "THIRUVALLUR",
    "statename": "TAMIL NADU",
    "latitude": "13.1381500",
    "longitude": "79.8231000"
  },
  {
    "circlename": "Tamilnadu Circle",
    "regionname": "Chennai City Region",
    "divisionname": "Kanchipuram Division",
    "officename": "Perumanallur B.O",
    "pincode": "631208",
    "officetype": "BO",
    "delivery": "Delivery",
    "district": "THIRUVALLUR",
    "statename": "TAMIL NADU",
    "latitude": "13.1381500",
    "longitude": "79.8231000"
  },
  {
    "circlename": "Tamilnadu Circle",
    "regionname": "Chennai City Region",
    "divisionname": "Kanchipuram Division",
    "officename": "Odappai B.O",
    "pincode": "602023",
    "officetype": "BO",
    "delivery": "Delivery",
    "district": "THIRUVALLUR",
    "statename": "TAMIL NADU",
    "latitude": "13.2105500",
    "longitude": "79.7965800"
  },
  {
    "circlename": "Tamilnadu Circle",
    "regionname": "Chennai City Region",
    "divisionname": "Kanchipuram Division",
    "officename": "Pullarambakkam B.O",
    "pincode": "602023",
    "officetype": "BO",
    "delivery": "Delivery",
    "district": "THIRUVALLUR",
    "statename": "TAMIL NADU",
    "latitude": "13.1704584",
    "longitude": "79.8915279"
  },
  {
    "circlename": "Tamilnadu Circle",
    "regionname": "Chennai City Region",
    "divisionname": "Kanchipuram Division",
    "officename": "Sandarayanpalayam B.O",
    "pincode": "602023",
    "officetype": "BO",
    "delivery": "Delivery",
    "district": "THIRUVALLUR",
    "statename": "TAMIL NADU",
    "latitude": "13.1425660",
    "longitude": "79.9090360"
  },
  {
    "circlename": "Tamilnadu Circle",
    "regionname": "Chennai City Region",
    "divisionname": "Kanchipuram Division",
    "officename": "Nallathur B.O",
    "pincode": "631212",
    "officetype": "BO",
    "delivery": "Delivery",
    "district": "THIRUVALLUR",
    "statename": "TAMIL NADU",
    "latitude": "13.1733090",
    "longitude": "79.6167589"
  },
  {
    "circlename": "Tamilnadu Circle",
    "regionname": "Chennai City Region",
    "divisionname": "Kanchipuram Division",
    "officename": "Thalavedu B.O",
    "pincode": "631212",
    "officetype": "BO",
    "delivery": "Delivery",
    "district": "THIRUVALLUR",
    "statename": "TAMIL NADU",
    "latitude": "13.2432300",
    "longitude": "79.6623700"
  },
  {
    "circlename": "Tamilnadu Circle",
    "regionname": "Chennai City Region",
    "divisionname": "Kanchipuram Division",
    "officename": "Agooru B.O",
    "pincode": "631209",
    "officetype": "BO",
    "delivery": "Delivery",
    "district": "THIRUVALLUR",
    "statename": "TAMIL NADU",
    "latitude": "13.1733060",
    "longitude": "79.6167619"
  },
  {
    "circlename": "Tamilnadu Circle",
    "regionname": "Chennai City Region",
    "divisionname": "Kanchipuram Division",
    "officename": "Tirutani Hills B.O",
    "pincode": "631209",
    "officetype": "BO",
    "delivery": "Non Delivery",
    "district": "THIRUVALLUR",
    "statename": "TAMIL NADU",
    "latitude": "13.1733140",
    "longitude": "79.6167539"
  },
  {
    "circlename": "Tamilnadu Circle",
    "regionname": "Chennai City Region",
    "divisionname": "Kanchipuram Division",
    "officename": "Palayanur B.O",
    "pincode": "631210",
    "officetype": "BO",
    "delivery": "Delivery",
    "district": "THIRUVALLUR",
    "statename": "TAMIL NADU",
    "latitude": "13.1667600",
    "longitude": "79.7484100"
  },
  {
    "circlename": "Tamilnadu Circle",
    "regionname": "Chennai City Region",
    "divisionname": "Kanchipuram Division",
    "officename": "Pennaluripeta B.O",
    "pincode": "602026",
    "officetype": "BO",
    "delivery": "Delivery",
    "district": "THIRUVALLUR",
    "statename": "TAMIL NADU",
    "latitude": "12.9749500",
    "longitude": "79.9845500"
  },
  {
    "circlename": "Tamilnadu Circle",
    "regionname": "Chennai City Region",
    "divisionname": "Kanchipuram Division",
    "officename": "Pondavakkam B.O",
    "pincode": "602026",
    "officetype": "BO",
    "delivery": "Delivery",
    "district": "THIRUVALLUR",
    "statename": "TAMIL NADU",
    "latitude": "13.3378411",
    "longitude": "80.1928903"
  },
  {
    "circlename": "Tamilnadu Circle",
    "regionname": "Chennai City Region",
    "divisionname": "Kanchipuram Division",
    "officename": "Seethanjeri B.O",
    "pincode": "602026",
    "officetype": "BO",
    "delivery": "Delivery",
    "district": "THIRUVALLUR",
    "statename": "TAMIL NADU",
    "latitude": "13.2297411",
    "longitude": "79.8946609"
  },
  {
    "circlename": "Tamilnadu Circle",
    "regionname": "Chennai City Region",
    "divisionname": "Kanchipuram Division",
    "officename": "Sulaimeni B.O",
    "pincode": "602026",
    "officetype": "BO",
    "delivery": "Delivery",
    "district": "THIRUVALLUR",
    "statename": "TAMIL NADU",
    "latitude": "13.3270000",
    "longitude": "79.9212600"
  },
  {
    "circlename": "Tamilnadu Circle",
    "regionname": "Chennai City Region",
    "divisionname": "Kanchipuram Division",
    "officename": "Rajanagaram B.O",
    "pincode": "631304",
    "officetype": "BO",
    "delivery": "Delivery",
    "district": "THIRUVALLUR",
    "statename": "TAMIL NADU",
    "latitude": "13.1733110",
    "longitude": "79.6167569"
  },
  {
    "circlename": "Tamilnadu Circle",
    "regionname": "Chennai City Region",
    "divisionname": "Kanchipuram Division",
    "officename": "Sembedu B.O",
    "pincode": "601103",
    "officetype": "BO",
    "delivery": "Delivery",
    "district": "THIRUVALLUR",
    "statename": "TAMIL NADU",
    "latitude": "13.1425560",
    "longitude": "79.9090460"
  },
  {
    "circlename": "Tamilnadu Circle",
    "regionname": "Chennai City Region",
    "divisionname": "Tambaram Division",
    "officename": "Kamarajnagar BO",
    "pincode": "600057",
    "officetype": "BO",
    "delivery": "Non Delivery",
    "district": "THIRUVALLUR",
    "statename": "TAMIL NADU",
    "latitude": "13.2070000",
    "longitude": "80.2930000"
  },
  {
    "circlename": "Tamilnadu Circle",
    "regionname": "Chennai City Region",
    "divisionname": "Tambaram Division",
    "officename": "Edoor BO",
    "pincode": "601201",
    "officetype": "BO",
    "delivery": "Delivery",
    "district": "THIRUVALLUR",
    "statename": "TAMIL NADU",
    "latitude": "13.4650000",
    "longitude": "80.0370000"
  },
  {
    "circlename": "Tamilnadu Circle",
    "regionname": "Chennai City Region",
    "divisionname": "Tambaram Division",
    "officename": "Periaobulapuam BO",
    "pincode": "601201",
    "officetype": "BO",
    "delivery": "Delivery",
    "district": "THIRUVALLUR",
    "statename": "TAMIL NADU",
    "latitude": "13.4440000",
    "longitude": "80.0670000"
  },
  {
    "circlename": "Tamilnadu Circle",
    "regionname": "Chennai City Region",
    "divisionname": "Tambaram Division",
    "officename": "Podiyarankulam BO",
    "pincode": "601201",
    "officetype": "BO",
    "delivery": "Delivery",
    "district": "THIRUVALLUR",
    "statename": "TAMIL NADU",
    "latitude": "13.3310000",
    "longitude": "80.2110000"
  },
  {
    "circlename": "Tamilnadu Circle",
    "regionname": "Chennai City Region",
    "divisionname": "Tambaram Division",
    "officename": "Kilikodi BO",
    "pincode": "601206",
    "officetype": "BO",
    "delivery": "Delivery",
    "district": "THIRUVALLUR",
    "statename": "TAMIL NADU",
    "latitude": "13.3580000",
    "longitude": "80.1240000"
  },
  {
    "circlename": "Tamilnadu Circle",
    "regionname": "Chennai City Region",
    "divisionname": "Tambaram Division",
    "officename": "Thervoy BO",
    "pincode": "601202",
    "officetype": "BO",
    "delivery": "Delivery",
    "district": "THIRUVALLUR",
    "statename": "TAMIL NADU",
    "latitude": "13.3620000",
    "longitude": "79.9680000"
  },
  {
    "circlename": "Tamilnadu Circle",
    "regionname": "Chennai City Region",
    "divisionname": "Tambaram Division",
    "officename": "Vellivoyalchavadi BO",
    "pincode": "600103",
    "officetype": "BO",
    "delivery": "Delivery",
    "district": "THIRUVALLUR",
    "statename": "TAMIL NADU",
    "latitude": "13.2190000",
    "longitude": "80.2440000"
  },
  {
    "circlename": "Tamilnadu Circle",
    "regionname": "Chennai City Region",
    "divisionname": "Tambaram Division",
    "officename": "Vichoor BO",
    "pincode": "600103",
    "officetype": "BO",
    "delivery": "Delivery",
    "district": "THIRUVALLUR",
    "statename": "TAMIL NADU",
    "latitude": "13.2040000",
    "longitude": "80.2190000"
  },
  {
    "circlename": "Tamilnadu Circle",
    "regionname": "Chennai City Region",
    "divisionname": "Tambaram Division",
    "officename": "Oragadam BO",
    "pincode": "600053",
    "officetype": "BO",
    "delivery": "Non Delivery",
    "district": "THIRUVALLUR",
    "statename": "TAMIL NADU",
    "latitude": "13.1180000",
    "longitude": "80.1260000"
  },
  {
    "circlename": "Tamilnadu Circle",
    "regionname": "Chennai City Region",
    "divisionname": "Tambaram Division",
    "officename": "Devadanam BO",
    "pincode": "601203",
    "officetype": "BO",
    "delivery": "Delivery",
    "district": "THIRUVALLUR",
    "statename": "TAMIL NADU",
    "latitude": "13.3000000",
    "longitude": "80.2170000"
  },
  {
    "circlename": "Tamilnadu Circle",
    "regionname": "Chennai City Region",
    "divisionname": "Tambaram Division",
    "officename": "Alamathi BO",
    "pincode": "600052",
    "officetype": "BO",
    "delivery": "Delivery",
    "district": "THIRUVALLUR",
    "statename": "TAMIL NADU",
    "latitude": "13.1950000",
    "longitude": "80.0800000"
  },
  {
    "circlename": "Tamilnadu Circle",
    "regionname": "Chennai City Region",
    "divisionname": "Tambaram Division",
    "officename": "Alinjivakkam BO",
    "pincode": "600067",
    "officetype": "BO",
    "delivery": "Delivery",
    "district": "THIRUVALLUR",
    "statename": "TAMIL NADU",
    "latitude": "13.5300000",
    "longitude": "80.1250000"
  },
  {
    "circlename": "Tamilnadu Circle",
    "regionname": "Chennai City Region",
    "divisionname": "Tambaram Division",
    "officename": "Erumaivettipalayam BO",
    "pincode": "600067",
    "officetype": "BO",
    "delivery": "Delivery",
    "district": "THIRUVALLUR",
    "statename": "TAMIL NADU",
    "latitude": "13.2200000",
    "longitude": "80.1118000"
  },
  {
    "circlename": "Tamilnadu Circle",
    "regionname": "Chennai City Region",
    "divisionname": "Tambaram Division",
    "officename": "Gandhinagar BO",
    "pincode": "600054",
    "officetype": "BO",
    "delivery": "Non Delivery",
    "district": "THIRUVALLUR",
    "statename": "TAMIL NADU",
    "latitude": "13.1050000",
    "longitude": "80.0720000"
  },
  {
    "circlename": "Tamilnadu Circle",
    "regionname": "Chennai City Region",
    "divisionname": "Tambaram Division",
    "officename": "Voyalanallur BO",
    "pincode": "600072",
    "officetype": "BO",
    "delivery": "Delivery",
    "district": "THIRUVALLUR",
    "statename": "TAMIL NADU",
    "latitude": "13.0720000",
    "longitude": "80.0390000"
  },
  {
    "circlename": "Tamilnadu Circle",
    "regionname": "Chennai City Region",
    "divisionname": "Tambaram Division",
    "officename": "Puduchatram BO",
    "pincode": "600124",
    "officetype": "BO",
    "delivery": "Delivery",
    "district": "THIRUVALLUR",
    "statename": "TAMIL NADU",
    "latitude": "13.0760000",
    "longitude": "79.9790000"
  },
  {
    "circlename": "Tamilnadu Circle",
    "regionname": "Chennai City Region",
    "divisionname": "Kanchipuram Division",
    "officename": "Athimanjeripeta S.O",
    "pincode": "631202",
    "officetype": "PO",
    "delivery": "Delivery",
    "district": "THIRUVALLUR",
    "statename": "TAMIL NADU",
    "latitude": "13.2554560",
    "longitude": "79.4347830"
  },
  {
    "circlename": "Tamilnadu Circle",
    "regionname": "Chennai City Region",
    "divisionname": "Kanchipuram Division",
    "officename": "Erumbi S.O",
    "pincode": "631302",
    "officetype": "PO",
    "delivery": "Delivery",
    "district": "THIRUVALLUR",
    "statename": "TAMIL NADU",
    "latitude": "12.8604167",
    "longitude": "79.4289444"
  },
  {
    "circlename": "Tamilnadu Circle",
    "regionname": "Chennai City Region",
    "divisionname": "Kanchipuram Division",
    "officename": "Kanakammachatram S.O",
    "pincode": "631204",
    "officetype": "PO",
    "delivery": "Delivery",
    "district": "THIRUVALLUR",
    "statename": "TAMIL NADU",
    "latitude": "13.204038",
    "longitude": "79.755507"
  },
  {
    "circlename": "Tamilnadu Circle",
    "regionname": "Chennai City Region",
    "divisionname": "Kanchipuram Division",
    "officename": "Madduru S.O",
    "pincode": "631206",
    "officetype": "PO",
    "delivery": "Delivery",
    "district": "THIRUVALLUR",
    "statename": "TAMIL NADU",
    "latitude": "13.22863",
    "longitude": "79.50975"
  },
  {
    "circlename": "Tamilnadu Circle",
    "regionname": "Chennai City Region",
    "divisionname": "Kanchipuram Division",
    "officename": "Nggo Colony Tiruvallur S.O",
    "pincode": "602001",
    "officetype": "PO",
    "delivery": "Non Delivery",
    "district": "THIRUVALLUR",
    "statename": "TAMIL NADU",
    "latitude": "13.1507500",
    "longitude": "79.9169500"
  },
  {
    "circlename": "Tamilnadu Circle",
    "regionname": "Chennai City Region",
    "divisionname": "Kanchipuram Division",
    "officename": "Pallipat S.O",
    "pincode": "631207",
    "officetype": "PO",
    "delivery": "Delivery",
    "district": "THIRUVALLUR",
    "statename": "TAMIL NADU",
    "latitude": "13.3373611",
    "longitude": "79.4443056"
  },
  {
    "circlename": "Tamilnadu Circle",
    "regionname": "Chennai City Region",
    "divisionname": "Kanchipuram Division",
    "officename": "Periapalayam S.O",
    "pincode": "601102",
    "officetype": "PO",
    "delivery": "Delivery",
    "district": "THIRUVALLUR",
    "statename": "TAMIL NADU",
    "latitude": "11.13248",
    "longitude": "77.40165"
  },
  {
    "circlename": "Tamilnadu Circle",
    "regionname": "Chennai City Region",
    "divisionname": "Kanchipuram Division",
    "officename": "Uttukottai S.O",
    "pincode": "602026",
    "officetype": "PO",
    "delivery": "Delivery",
    "district": "THIRUVALLUR",
    "statename": "TAMIL NADU",
    "latitude": "13.2000000",
    "longitude": "79.5300000"
  },
  {
    "circlename": "Tamilnadu Circle",
    "regionname": "Chennai City Region",
    "divisionname": "Kanchipuram Division",
    "officename": "Combined Court S.O",
    "pincode": "602001",
    "officetype": "PO",
    "delivery": "Non Delivery",
    "district": "THIRUVALLUR",
    "statename": "TAMIL NADU",
    "latitude": "13.1444",
    "longitude": "79.89401"
  },
  {
    "circlename": "Tamilnadu Circle",
    "regionname": "Chennai City Region",
    "divisionname": "Tambaram Division",
    "officename": "Kavarapettai SO",
    "pincode": "601206",
    "officetype": "PO",
    "delivery": "Delivery",
    "district": "THIRUVALLUR",
    "statename": "TAMIL NADU",
    "latitude": "13.3707778",
    "longitude": "80.1452500"
  },
  {
    "circlename": "Tamilnadu Circle",
    "regionname": "Chennai City Region",
    "divisionname": "Tambaram Division",
    "officename": "Menambedu SO",
    "pincode": "600053",
    "officetype": "PO",
    "delivery": "Non Delivery",
    "district": "THIRUVALLUR",
    "statename": "TAMIL NADU",
    "latitude": "13.2118056",
    "longitude": "80.2512222"
  },
  {
    "circlename": "Tamilnadu Circle",
    "regionname": "Chennai City Region",
    "divisionname": "Tambaram Division",
    "officename": "Pulicat SO",
    "pincode": "601205",
    "officetype": "PO",
    "delivery": "Delivery",
    "district": "THIRUVALLUR",
    "statename": "TAMIL NADU",
    "latitude": "13.4163560",
    "longitude": "80.3173730"
  },
  {
    "circlename": "Tamilnadu Circle",
    "regionname": "Chennai City Region",
    "divisionname": "Tambaram Division",
    "officename": "Avadi IAF SO",
    "pincode": "600055",
    "officetype": "PO",
    "delivery": "Delivery",
    "district": "THIRUVALLUR",
    "statename": "TAMIL NADU",
    "latitude": "13.1467778",
    "longitude": "80.0727500"
  },
  {
    "circlename": "Tamilnadu Circle",
    "regionname": "Chennai City Region",
    "divisionname": "Tambaram Division",
    "officename": "Senthilnagar SO",
    "pincode": "600062",
    "officetype": "PO",
    "delivery": "Non Delivery",
    "district": "THIRUVALLUR",
    "statename": "TAMIL NADU",
    "latitude": "13.1832778",
    "longitude": "80.2093333"
  },
  {
    "circlename": "Tamilnadu Circle",
    "regionname": "Chennai City Region",
    "divisionname": "Tambaram Division",
    "officename": "Tirumullaivoyal SO",
    "pincode": "600062",
    "officetype": "PO",
    "delivery": "Delivery",
    "district": "THIRUVALLUR",
    "statename": "TAMIL NADU",
    "latitude": "13.115046",
    "longitude": "80.136952"
  },
  {
    "circlename": "Tamilnadu Circle",
    "regionname": "Chennai City Region",
    "divisionname": "Kanchipuram Division",
    "officename": "Kannur B.O",
    "pincode": "602108",
    "officetype": "BO",
    "delivery": "Delivery",
    "district": "THIRUVALLUR",
    "statename": "TAMIL NADU",
    "latitude": "12.9674670",
    "longitude": "79.9418180"
  },
  {
    "circlename": "Tamilnadu Circle",
    "regionname": "Chennai City Region",
    "divisionname": "Kanchipuram Division",
    "officename": "Ulundai B.O",
    "pincode": "602105",
    "officetype": "BO",
    "delivery": "Delivery",
    "district": "THIRUVALLUR",
    "statename": "TAMIL NADU",
    "latitude": "12.9674680",
    "longitude": "79.9418170"
  },
  {
    "circlename": "Tamilnadu Circle",
    "regionname": "Chennai City Region",
    "divisionname": "Kanchipuram Division",
    "officename": "Balapuram B.O",
    "pincode": "631301",
    "officetype": "BO",
    "delivery": "Delivery",
    "district": "THIRUVALLUR",
    "statename": "TAMIL NADU",
    "latitude": "13.1733090",
    "longitude": "79.6167589"
  },
  {
    "circlename": "Tamilnadu Circle",
    "regionname": "Chennai City Region",
    "divisionname": "Kanchipuram Division",
    "officename": "Karlambakkam B.O",
    "pincode": "631202",
    "officetype": "BO",
    "delivery": "Delivery",
    "district": "THIRUVALLUR",
    "statename": "TAMIL NADU",
    "latitude": "13.2658400",
    "longitude": "79.4614900"
  },
  {
    "circlename": "Tamilnadu Circle",
    "regionname": "Chennai City Region",
    "divisionname": "Kanchipuram Division",
    "officename": "Kodivalasa B.O",
    "pincode": "631202",
    "officetype": "BO",
    "delivery": "Delivery",
    "district": "THIRUVALLUR",
    "statename": "TAMIL NADU",
    "latitude": "13.1733100",
    "longitude": "79.6167579"
  },
  {
    "circlename": "Tamilnadu Circle",
    "regionname": "Chennai City Region",
    "divisionname": "Kanchipuram Division",
    "officename": "Peddanagapudi B.O",
    "pincode": "631302",
    "officetype": "BO",
    "delivery": "Delivery",
    "district": "THIRUVALLUR",
    "statename": "TAMIL NADU",
    "latitude": "13.1161000",
    "longitude": "79.8716000"
  },
  {
    "circlename": "Tamilnadu Circle",
    "regionname": "Chennai City Region",
    "divisionname": "Kanchipuram Division",
    "officename": "Rangapuram B.O",
    "pincode": "631302",
    "officetype": "BO",
    "delivery": "Delivery",
    "district": "THIRUVALLUR",
    "statename": "TAMIL NADU",
    "latitude": "13.1161000",
    "longitude": "79.8716000"
  },
  {
    "circlename": "Tamilnadu Circle",
    "regionname": "Chennai City Region",
    "divisionname": "Kanchipuram Division",
    "officename": "T.C.Kandigai B.O",
    "pincode": "631205",
    "officetype": "BO",
    "delivery": "Delivery",
    "district": "THIRUVALLUR",
    "statename": "TAMIL NADU",
    "latitude": "13.1733120",
    "longitude": "79.6167559"
  },
  {
    "circlename": "Tamilnadu Circle",
    "regionname": "Chennai City Region",
    "divisionname": "Kanchipuram Division",
    "officename": "Krishnasamudram B.O",
    "pincode": "631206",
    "officetype": "BO",
    "delivery": "Delivery",
    "district": "THIRUVALLUR",
    "statename": "TAMIL NADU",
    "latitude": "13.2672000",
    "longitude": "79.5381000"
  },
  {
    "circlename": "Tamilnadu Circle",
    "regionname": "Chennai City Region",
    "divisionname": "Kanchipuram Division",
    "officename": "Ramasamudram B.O",
    "pincode": "631206",
    "officetype": "BO",
    "delivery": "Delivery",
    "district": "THIRUVALLUR",
    "statename": "TAMIL NADU",
    "latitude": "13.1733120",
    "longitude": "79.6167559"
  },
  {
    "circlename": "Tamilnadu Circle",
    "regionname": "Chennai City Region",
    "divisionname": "Kanchipuram Division",
    "officename": "Sanakuppam B.O",
    "pincode": "631207",
    "officetype": "BO",
    "delivery": "Delivery",
    "district": "THIRUVALLUR",
    "statename": "TAMIL NADU",
    "latitude": "13.3389000",
    "longitude": "79.4428300"
  },
  {
    "circlename": "Tamilnadu Circle",
    "regionname": "Chennai City Region",
    "divisionname": "Kanchipuram Division",
    "officename": "Narasingapuram B.O",
    "pincode": "631402",
    "officetype": "BO",
    "delivery": "Delivery",
    "district": "THIRUVALLUR",
    "statename": "TAMIL NADU",
    "latitude": "13.0248500",
    "longitude": "79.8263000"
  },
  {
    "circlename": "Tamilnadu Circle",
    "regionname": "Chennai City Region",
    "divisionname": "Kanchipuram Division",
    "officename": "Kannigaipair B.O",
    "pincode": "601102",
    "officetype": "BO",
    "delivery": "Delivery",
    "district": "THIRUVALLUR",
    "statename": "TAMIL NADU",
    "latitude": "13.2734663",
    "longitude": "80.0939858"
  },
  {
    "circlename": "Tamilnadu Circle",
    "regionname": "Chennai City Region",
    "divisionname": "Kanchipuram Division",
    "officename": "Vadamadurai B.O",
    "pincode": "601102",
    "officetype": "BO",
    "delivery": "Delivery",
    "district": "THIRUVALLUR",
    "statename": "TAMIL NADU",
    "latitude": "13.2864418",
    "longitude": "80.0430027"
  },
  {
    "circlename": "Tamilnadu Circle",
    "regionname": "Chennai City Region",
    "divisionname": "Kanchipuram Division",
    "officename": "Savattur B.O",
    "pincode": "631208",
    "officetype": "BO",
    "delivery": "Delivery",
    "district": "THIRUVALLUR",
    "statename": "TAMIL NADU",
    "latitude": "13.1381500",
    "longitude": "79.8231000"
  },
  {
    "circlename": "Tamilnadu Circle",
    "regionname": "Chennai City Region",
    "divisionname": "Kanchipuram Division",
    "officename": "Placepalayam B.O",
    "pincode": "602023",
    "officetype": "BO",
    "delivery": "Delivery",
    "district": "THIRUVALLUR",
    "statename": "TAMIL NADU",
    "latitude": "13.2105500",
    "longitude": "79.7965800"
  },
  {
    "circlename": "Tamilnadu Circle",
    "regionname": "Chennai City Region",
    "divisionname": "Kanchipuram Division",
    "officename": "Veeranathur B.O",
    "pincode": "631303",
    "officetype": "BO",
    "delivery": "Delivery",
    "district": "THIRUVALLUR",
    "statename": "TAMIL NADU",
    "latitude": "12.9998500",
    "longitude": "79.6185200"
  },
  {
    "circlename": "Tamilnadu Circle",
    "regionname": "Chennai City Region",
    "divisionname": "Kanchipuram Division",
    "officename": "Koppur B.O",
    "pincode": "602025",
    "officetype": "BO",
    "delivery": "Delivery",
    "district": "THIRUVALLUR",
    "statename": "TAMIL NADU",
    "latitude": "13.1161500",
    "longitude": "79.9784500"
  },
  {
    "circlename": "Tamilnadu Circle",
    "regionname": "Chennai City Region",
    "divisionname": "Kanchipuram Division",
    "officename": "Thozhur B.O",
    "pincode": "602025",
    "officetype": "BO",
    "delivery": "Delivery",
    "district": "THIRUVALLUR",
    "statename": "TAMIL NADU",
    "latitude": "13.1079436",
    "longitude": "79.9428573"
  },
  {
    "circlename": "Tamilnadu Circle",
    "regionname": "Chennai City Region",
    "divisionname": "Kanchipuram Division",
    "officename": "Suryanagaram B.O",
    "pincode": "631209",
    "officetype": "BO",
    "delivery": "Delivery",
    "district": "THIRUVALLUR",
    "statename": "TAMIL NADU",
    "latitude": "13.1641500",
    "longitude": "79.5823900"
  },
  {
    "circlename": "Tamilnadu Circle",
    "regionname": "Chennai City Region",
    "divisionname": "Kanchipuram Division",
    "officename": "Harichandrapuram B.O",
    "pincode": "631210",
    "officetype": "BO",
    "delivery": "Delivery",
    "district": "THIRUVALLUR",
    "statename": "TAMIL NADU",
    "latitude": "13.1667600",
    "longitude": "79.7484100"
  },
  {
    "circlename": "Tamilnadu Circle",
    "regionname": "Chennai City Region",
    "divisionname": "Kanchipuram Division",
    "officename": "Kaverirajapuram B.O",
    "pincode": "631210",
    "officetype": "BO",
    "delivery": "Delivery",
    "district": "THIRUVALLUR",
    "statename": "TAMIL NADU",
    "latitude": "13.1667600",
    "longitude": "79.7484100"
  },
  {
    "circlename": "Tamilnadu Circle",
    "regionname": "Chennai City Region",
    "divisionname": "Kanchipuram Division",
    "officename": "Pakasala B.O",
    "pincode": "631210",
    "officetype": "BO",
    "delivery": "Delivery",
    "district": "THIRUVALLUR",
    "statename": "TAMIL NADU",
    "latitude": "13.1733080",
    "longitude": "79.6167599"
  },
  {
    "circlename": "Tamilnadu Circle",
    "regionname": "Chennai City Region",
    "divisionname": "Kanchipuram Division",
    "officename": "Peddakalakattur B.O",
    "pincode": "631210",
    "officetype": "BO",
    "delivery": "Delivery",
    "district": "THIRUVALLUR",
    "statename": "TAMIL NADU",
    "latitude": "13.1667600",
    "longitude": "79.7484100"
  },
  {
    "circlename": "Tamilnadu Circle",
    "regionname": "Chennai City Region",
    "divisionname": "Kanchipuram Division",
    "officename": "Veeraraghavapuram B.O",
    "pincode": "631210",
    "officetype": "BO",
    "delivery": "Delivery",
    "district": "THIRUVALLUR",
    "statename": "TAMIL NADU",
    "latitude": "13.0853977",
    "longitude": "80.1086508"
  },
  {
    "circlename": "Tamilnadu Circle",
    "regionname": "Chennai City Region",
    "divisionname": "Kanchipuram Division",
    "officename": "Goonipalayam B.O",
    "pincode": "602026",
    "officetype": "BO",
    "delivery": "Delivery",
    "district": "THIRUVALLUR",
    "statename": "TAMIL NADU",
    "latitude": "13.3270000",
    "longitude": "79.9212600"
  },
  {
    "circlename": "Tamilnadu Circle",
    "regionname": "Chennai City Region",
    "divisionname": "Kanchipuram Division",
    "officename": "Mambakkam B.O",
    "pincode": "602026",
    "officetype": "BO",
    "delivery": "Delivery",
    "district": "THIRUVALLUR",
    "statename": "TAMIL NADU",
    "latitude": "13.2297391",
    "longitude": "79.8946629"
  },
  {
    "circlename": "Tamilnadu Circle",
    "regionname": "Chennai City Region",
    "divisionname": "Kanchipuram Division",
    "officename": "Palavakkam S.O (TiruvallB.O",
    "pincode": "602026",
    "officetype": "BO",
    "delivery": "Delivery",
    "district": "THIRUVALLUR",
    "statename": "TAMIL NADU",
    "latitude": "12.9859853",
    "longitude": "80.2298122"
  },
  {
    "circlename": "Tamilnadu Circle",
    "regionname": "Chennai City Region",
    "divisionname": "Kanchipuram Division",
    "officename": "Perandur B.O",
    "pincode": "602026",
    "officetype": "BO",
    "delivery": "Delivery",
    "district": "THIRUVALLUR",
    "statename": "TAMIL NADU",
    "latitude": "13.3172576",
    "longitude": "79.9388491"
  },
  {
    "circlename": "Tamilnadu Circle",
    "regionname": "Chennai City Region",
    "divisionname": "Kanchipuram Division",
    "officename": "Emrkandigai B.O",
    "pincode": "631304",
    "officetype": "BO",
    "delivery": "Delivery",
    "district": "THIRUVALLUR",
    "statename": "TAMIL NADU",
    "latitude": "13.1684900",
    "longitude": "79.4733500"
  },
  {
    "circlename": "Tamilnadu Circle",
    "regionname": "Chennai City Region",
    "divisionname": "Kanchipuram Division",
    "officename": "Velliyur B.O",
    "pincode": "601103",
    "officetype": "BO",
    "delivery": "Delivery",
    "district": "THIRUVALLUR",
    "statename": "TAMIL NADU",
    "latitude": "13.2696011",
    "longitude": "79.8900932"
  },
  {
    "circlename": "Tamilnadu Circle",
    "regionname": "Chennai City Region",
    "divisionname": "Tambaram Division",
    "officename": "Arambakkam BO",
    "pincode": "601201",
    "officetype": "BO",
    "delivery": "Delivery",
    "district": "THIRUVALLUR",
    "statename": "TAMIL NADU",
    "latitude": "13.5250000",
    "longitude": "80.0390000"
  },
  {
    "circlename": "Tamilnadu Circle",
    "regionname": "Chennai City Region",
    "divisionname": "Tambaram Division",
    "officename": "Sunnambukulam BO",
    "pincode": "601201",
    "officetype": "BO",
    "delivery": "Delivery",
    "district": "THIRUVALLUR",
    "statename": "TAMIL NADU",
    "latitude": "13.4740000",
    "longitude": "80.1180000"
  },
  {
    "circlename": "Tamilnadu Circle",
    "regionname": "Chennai City Region",
    "divisionname": "Tambaram Division",
    "officename": "Chinnambedu BO",
    "pincode": "601206",
    "officetype": "BO",
    "delivery": "Delivery",
    "district": "THIRUVALLUR",
    "statename": "TAMIL NADU",
    "latitude": "13.3070000",
    "longitude": "80.0910000"
  },
  {
    "circlename": "Tamilnadu Circle",
    "regionname": "Chennai City Region",
    "divisionname": "Tambaram Division",
    "officename": "Kannankottai BO",
    "pincode": "601202",
    "officetype": "BO",
    "delivery": "Delivery",
    "district": "THIRUVALLUR",
    "statename": "TAMIL NADU",
    "latitude": "13.3830000",
    "longitude": "79.9510000"
  },
  {
    "circlename": "Tamilnadu Circle",
    "regionname": "Chennai City Region",
    "divisionname": "Tambaram Division",
    "officename": "Manellore BO",
    "pincode": "601202",
    "officetype": "BO",
    "delivery": "Non Delivery",
    "district": "THIRUVALLUR",
    "statename": "TAMIL NADU",
    "latitude": "13.4340000",
    "longitude": "79.9750000"
  },
  {
    "circlename": "Tamilnadu Circle",
    "regionname": "Chennai City Region",
    "divisionname": "Tambaram Division",
    "officename": "Pallavada BO",
    "pincode": "601202",
    "officetype": "BO",
    "delivery": "Delivery",
    "district": "THIRUVALLUR",
    "statename": "TAMIL NADU",
    "latitude": "13.4630000",
    "longitude": "79.9910000"
  },
  {
    "circlename": "Tamilnadu Circle",
    "regionname": "Chennai City Region",
    "divisionname": "Tambaram Division",
    "officename": "Roshanagaram BO",
    "pincode": "601202",
    "officetype": "BO",
    "delivery": "Delivery",
    "district": "THIRUVALLUR",
    "statename": "TAMIL NADU",
    "latitude": "13.4250000",
    "longitude": "79.9540000"
  },
  {
    "circlename": "Tamilnadu Circle",
    "regionname": "Chennai City Region",
    "divisionname": "Tambaram Division",
    "officename": "Thanipoondi BO",
    "pincode": "601202",
    "officetype": "BO",
    "delivery": "Delivery",
    "district": "THIRUVALLUR",
    "statename": "TAMIL NADU",
    "latitude": "13.4030000",
    "longitude": "79.9850000"
  },
  {
    "circlename": "Tamilnadu Circle",
    "regionname": "Chennai City Region",
    "divisionname": "Tambaram Division",
    "officename": "Anuppampattu BO",
    "pincode": "601203",
    "officetype": "BO",
    "delivery": "Delivery",
    "district": "THIRUVALLUR",
    "statename": "TAMIL NADU",
    "latitude": "13.2880000",
    "longitude": "80.1960000"
  },
  {
    "circlename": "Tamilnadu Circle",
    "regionname": "Chennai City Region",
    "divisionname": "Tambaram Division",
    "officename": "Thiruvellavoyal BO",
    "pincode": "601203",
    "officetype": "BO",
    "delivery": "Delivery",
    "district": "THIRUVALLUR",
    "statename": "TAMIL NADU",
    "latitude": "13.318",
    "longitude": "80.254000000000005"
  },
  {
    "circlename": "Tamilnadu Circle",
    "regionname": "Chennai City Region",
    "divisionname": "Tambaram Division",
    "officename": "Subbareddypalayam BO",
    "pincode": "600120",
    "officetype": "BO",
    "delivery": "Delivery",
    "district": "THIRUVALLUR",
    "statename": "TAMIL NADU",
    "latitude": "13.2290000",
    "longitude": "80.0238000"
  },
  {
    "circlename": "Tamilnadu Circle",
    "regionname": "Chennai City Region",
    "divisionname": "Tambaram Division",
    "officename": "Medur BO",
    "pincode": "601204",
    "officetype": "BO",
    "delivery": "Delivery",
    "district": "THIRUVALLUR",
    "statename": "TAMIL NADU",
    "latitude": "13.3700000",
    "longitude": "80.1890000"
  },
  {
    "circlename": "Tamilnadu Circle",
    "regionname": "Chennai City Region",
    "divisionname": "Tambaram Division",
    "officename": "Panjetti BO",
    "pincode": "601204",
    "officetype": "BO",
    "delivery": "Delivery",
    "district": "THIRUVALLUR",
    "statename": "TAMIL NADU",
    "latitude": "13.2740000",
    "longitude": "80.1200000"
  },
  {
    "circlename": "Tamilnadu Circle",
    "regionname": "Chennai City Region",
    "divisionname": "Tambaram Division",
    "officename": "Edapalayam BO",
    "pincode": "600052",
    "officetype": "BO",
    "delivery": "Delivery",
    "district": "THIRUVALLUR",
    "statename": "TAMIL NADU",
    "latitude": "13.1890000",
    "longitude": "80.1120000"
  },
  {
    "circlename": "Tamilnadu Circle",
    "regionname": "Chennai City Region",
    "divisionname": "Tambaram Division",
    "officename": "Mittanamalli BO",
    "pincode": "600055",
    "officetype": "BO",
    "delivery": "Non Delivery",
    "district": "THIRUVALLUR",
    "statename": "TAMIL NADU",
    "latitude": "13.1450000",
    "longitude": "80.0450000"
  },
  {
    "circlename": "Tamilnadu Circle",
    "regionname": "Chennai City Region",
    "divisionname": "Tambaram Division",
    "officename": "Ayanambakkam BO",
    "pincode": "600095",
    "officetype": "BO",
    "delivery": "Non Delivery",
    "district": "THIRUVALLUR",
    "statename": "TAMIL NADU",
    "latitude": "13.0660000",
    "longitude": "80.1230000"
  },
  {
    "circlename": "Tamilnadu Circle",
    "regionname": "Chennai City Region",
    "divisionname": "Tambaram Division",
    "officename": "Arignar Anna Nagar BO",
    "pincode": "600072",
    "officetype": "BO",
    "delivery": "Non Delivery",
    "district": "THIRUVALLUR",
    "statename": "TAMIL NADU",
    "latitude": "13.1020000",
    "longitude": "80.0390000"
  },
  {
    "circlename": "Tamilnadu Circle",
    "regionname": "Chennai City Region",
    "divisionname": "Tambaram Division",
    "officename": "Soranjeri BO",
    "pincode": "600072",
    "officetype": "BO",
    "delivery": "Delivery",
    "district": "THIRUVALLUR",
    "statename": "TAMIL NADU",
    "latitude": "13.0870000",
    "longitude": "80.0460000"
  },
  {
    "circlename": "Tamilnadu Circle",
    "regionname": "Chennai City Region",
    "divisionname": "Tambaram Division",
    "officename": "Senneerkuppam BO",
    "pincode": "600056",
    "officetype": "BO",
    "delivery": "Non Delivery",
    "district": "THIRUVALLUR",
    "statename": "TAMIL NADU",
    "latitude": "13.0420000",
    "longitude": "80.0860000"
  },
  {
    "circlename": "Tamilnadu Circle",
    "regionname": "Chennai City Region",
    "divisionname": "Tambaram Division",
    "officename": "Numbal BO",
    "pincode": "600077",
    "officetype": "BO",
    "delivery": "Non Delivery",
    "district": "THIRUVALLUR",
    "statename": "TAMIL NADU",
    "latitude": "13.0480000",
    "longitude": "80.1080000"
  },
  {
    "circlename": "Tamilnadu Circle",
    "regionname": "Chennai City Region",
    "divisionname": "Tambaram Division",
    "officename": "Veeraraghavapuram BO",
    "pincode": "600077",
    "officetype": "BO",
    "delivery": "Non Delivery",
    "district": "THIRUVALLUR",
    "statename": "TAMIL NADU",
    "latitude": "13.0570000",
    "longitude": "80.0830000"
  },
  {
    "circlename": "Tamilnadu Circle",
    "regionname": "Chennai City Region",
    "divisionname": "Tambaram Division",
    "officename": "Kovilpadagai BO",
    "pincode": "600062",
    "officetype": "BO",
    "delivery": "Non Delivery",
    "district": "THIRUVALLUR",
    "statename": "TAMIL NADU",
    "latitude": "13.1290000",
    "longitude": "80.0780000"
  },
  {
    "circlename": "Tamilnadu Circle",
    "regionname": "Chennai City Region",
    "divisionname": "Kanchipuram Division",
    "officename": "Ammavarikuppam S.O",
    "pincode": "631301",
    "officetype": "PO",
    "delivery": "Delivery",
    "district": "THIRUVALLUR",
    "statename": "TAMIL NADU",
    "latitude": "13.1773333",
    "longitude": "79.4183889"
  },
  {
    "circlename": "Tamilnadu Circle",
    "regionname": "Chennai City Region",
    "divisionname": "Kanchipuram Division",
    "officename": "Arungolam S.O",
    "pincode": "631201",
    "officetype": "PO",
    "delivery": "Delivery",
    "district": "THIRUVALLUR",
    "statename": "TAMIL NADU",
    "latitude": "13.23109",
    "longitude": "79.67407"
  },
  {
    "circlename": "Tamilnadu Circle",
    "regionname": "Chennai City Region",
    "divisionname": "Kanchipuram Division",
    "officename": "Ikkadu S.O",
    "pincode": "602021",
    "officetype": "PO",
    "delivery": "Delivery",
    "district": "THIRUVALLUR",
    "statename": "TAMIL NADU",
    "latitude": "13.16504",
    "longitude": "79.908852"
  },
  {
    "circlename": "Tamilnadu Circle",
    "regionname": "Chennai City Region",
    "divisionname": "Kanchipuram Division",
    "officename": "Kakalur Ind Estate S.O",
    "pincode": "602003",
    "officetype": "PO",
    "delivery": "Delivery",
    "district": "THIRUVALLUR",
    "statename": "TAMIL NADU",
    "latitude": "13.12667",
    "longitude": "79.91882"
  },
  {
    "circlename": "Tamilnadu Circle",
    "regionname": "Chennai City Region",
    "divisionname": "Kanchipuram Division",
    "officename": "Kg Kandigai S.O",
    "pincode": "631205",
    "officetype": "PO",
    "delivery": "Delivery",
    "district": "THIRUVALLUR",
    "statename": "TAMIL NADU",
    "latitude": "13.1736110",
    "longitude": "79.5172220"
  },
  {
    "circlename": "Tamilnadu Circle",
    "regionname": "Chennai City Region",
    "divisionname": "Kanchipuram Division",
    "officename": "Manavalanagar S.O",
    "pincode": "602002",
    "officetype": "PO",
    "delivery": "Delivery",
    "district": "THIRUVALLUR",
    "statename": "TAMIL NADU",
    "latitude": "13.1015280",
    "longitude": "79.9017670"
  },
  {
    "circlename": "Tamilnadu Circle",
    "regionname": "Chennai City Region",
    "divisionname": "Kanchipuram Division",
    "officename": "Tiruninravur Rs S.O",
    "pincode": "602024",
    "officetype": "PO",
    "delivery": "Delivery",
    "district": "THIRUVALLUR",
    "statename": "TAMIL NADU",
    "latitude": "13.1181",
    "longitude": "80.0336"
  },
  {
    "circlename": "Tamilnadu Circle",
    "regionname": "Chennai City Region",
    "divisionname": "Kanchipuram Division",
    "officename": "Tirur Cpt S.O",
    "pincode": "602025",
    "officetype": "PO",
    "delivery": "Delivery",
    "district": "THIRUVALLUR",
    "statename": "TAMIL NADU",
    "latitude": "13.1017962",
    "longitude": "79.9668308"
  },
  {
    "circlename": "Tamilnadu Circle",
    "regionname": "Chennai City Region",
    "divisionname": "Kanchipuram Division",
    "officename": "Tiruttani S.O",
    "pincode": "631209",
    "officetype": "PO",
    "delivery": "Delivery",
    "district": "THIRUVALLUR",
    "statename": "TAMIL NADU",
    "latitude": "12.9292500",
    "longitude": "79.7656389"
  },
  {
    "circlename": "Tamilnadu Circle",
    "regionname": "Chennai City Region",
    "divisionname": "Kanchipuram Division",
    "officename": "Tiruttanieast S.O",
    "pincode": "631209",
    "officetype": "PO",
    "delivery": "Non Delivery",
    "district": "THIRUVALLUR",
    "statename": "TAMIL NADU",
    "latitude": "NA",
    "longitude": "NA"
  },
  {
    "circlename": "Tamilnadu Circle",
    "regionname": "Chennai City Region",
    "divisionname": "Tambaram Division",
    "officename": "Madarpakkam SO",
    "pincode": "601202",
    "officetype": "PO",
    "delivery": "Delivery",
    "district": "THIRUVALLUR",
    "statename": "TAMIL NADU",
    "latitude": "13.4448390",
    "longitude": "80.0030390"
  },
  {
    "circlename": "Tamilnadu Circle",
    "regionname": "Chennai City Region",
    "divisionname": "Tambaram Division",
    "officename": "Padianallur SO",
    "pincode": "600052",
    "officetype": "PO",
    "delivery": "Non Delivery",
    "district": "THIRUVALLUR",
    "statename": "TAMIL NADU",
    "latitude": "13.2131944",
    "longitude": "80.1753611"
  },
  {
    "circlename": "Tamilnadu Circle",
    "regionname": "Chennai City Region",
    "divisionname": "Tambaram Division",
    "officename": "Tirumangalam Road SO",
    "pincode": "600049",
    "officetype": "PO",
    "delivery": "Non Delivery",
    "district": "THIRUVALLUR",
    "statename": "TAMIL NADU",
    "latitude": "13.1097778",
    "longitude": "80.2030000"
  },
  {
    "circlename": "Tamilnadu Circle",
    "regionname": "Chennai City Region",
    "divisionname": "Tambaram Division",
    "officename": "Nazarethpettai SO",
    "pincode": "600123",
    "officetype": "PO",
    "delivery": "Delivery",
    "district": "THIRUVALLUR",
    "statename": "TAMIL NADU",
    "latitude": "12.0420760",
    "longitude": "80.0794870"
  },
  {
    "circlename": "Tamilnadu Circle",
    "regionname": "Chennai City Region",
    "divisionname": "Tambaram Division",
    "officename": "Sriramachandra Deemed Uty SO",
    "pincode": "600116",
    "officetype": "PO",
    "delivery": "Non Delivery",
    "district": "THIRUVALLUR",
    "statename": "TAMIL NADU",
    "latitude": "13.0396389",
    "longitude": "80.1482778"
  },
  {
    "circlename": "Tamilnadu Circle",
    "regionname": "Chennai City Region",
    "divisionname": "Tambaram Division",
    "officename": "Thandarai SO",
    "pincode": "600072",
    "officetype": "PO",
    "delivery": "Non Delivery",
    "district": "THIRUVALLUR",
    "statename": "TAMIL NADU",
    "latitude": "13.1187500",
    "longitude": "80.0614167"
  },
  {
    "circlename": "Tamilnadu Circle",
    "regionname": "Chennai City Region",
    "divisionname": "Tambaram Division",
    "officename": "Thiruverkadu SO",
    "pincode": "600077",
    "officetype": "PO",
    "delivery": "Delivery",
    "district": "THIRUVALLUR",
    "statename": "TAMIL NADU",
    "latitude": "13.0786667",
    "longitude": "80.1252222"
  },
  {
    "circlename": "Tamilnadu Circle",
    "regionname": "Chennai City Region",
    "divisionname": "Kanchipuram Division",
    "officename": "Vayalur B.O",
    "pincode": "602105",
    "officetype": "BO",
    "delivery": "Delivery",
    "district": "THIRUVALLUR",
    "statename": "TAMIL NADU",
    "latitude": "12.4942504",
    "longitude": "80.1233105"
  },
  {
    "circlename": "Tamilnadu Circle",
    "regionname": "Chennai City Region",
    "divisionname": "Kanchipuram Division",
    "officename": "Thyagapuram B.O",
    "pincode": "631301",
    "officetype": "BO",
    "delivery": "Delivery",
    "district": "THIRUVALLUR",
    "statename": "TAMIL NADU",
    "latitude": "13.1733110",
    "longitude": "79.6167569"
  },
  {
    "circlename": "Tamilnadu Circle",
    "regionname": "Chennai City Region",
    "divisionname": "Kanchipuram Division",
    "officename": "Kothakuppam B.O",
    "pincode": "631202",
    "officetype": "BO",
    "delivery": "Delivery",
    "district": "THIRUVALLUR",
    "statename": "TAMIL NADU",
    "latitude": "13.1733110",
    "longitude": "79.6167569"
  },
  {
    "circlename": "Tamilnadu Circle",
    "regionname": "Chennai City Region",
    "divisionname": "Kanchipuram Division",
    "officename": "Chanurmallavaram B.O",
    "pincode": "631302",
    "officetype": "BO",
    "delivery": "Delivery",
    "district": "THIRUVALLUR",
    "statename": "TAMIL NADU",
    "latitude": "13.1161000",
    "longitude": "79.8716000"
  },
  {
    "circlename": "Tamilnadu Circle",
    "regionname": "Chennai City Region",
    "divisionname": "Kanchipuram Division",
    "officename": "Srikalikapuram B.O",
    "pincode": "631302",
    "officetype": "BO",
    "delivery": "Delivery",
    "district": "THIRUVALLUR",
    "statename": "TAMIL NADU",
    "latitude": "13.1161000",
    "longitude": "79.8716000"
  },
  {
    "circlename": "Tamilnadu Circle",
    "regionname": "Chennai City Region",
    "divisionname": "Kanchipuram Division",
    "officename": "Karikalavakkam B.O",
    "pincode": "602021",
    "officetype": "BO",
    "delivery": "Delivery",
    "district": "THIRUVALLUR",
    "statename": "TAMIL NADU",
    "latitude": "13.1885000",
    "longitude": "79.9396000"
  },
  {
    "circlename": "Tamilnadu Circle",
    "regionname": "Chennai City Region",
    "divisionname": "Kanchipuram Division",
    "officename": "Kilanur B.O",
    "pincode": "602021",
    "officetype": "BO",
    "delivery": "Delivery",
    "district": "THIRUVALLUR",
    "statename": "TAMIL NADU",
    "latitude": "13.1885000",
    "longitude": "79.9396000"
  },
  {
    "circlename": "Tamilnadu Circle",
    "regionname": "Chennai City Region",
    "divisionname": "Kanchipuram Division",
    "officename": "Thalakancheri B.O",
    "pincode": "602021",
    "officetype": "BO",
    "delivery": "Delivery",
    "district": "THIRUVALLUR",
    "statename": "TAMIL NADU",
    "latitude": "13.1885000",
    "longitude": "79.9396000"
  },
  {
    "circlename": "Tamilnadu Circle",
    "regionname": "Chennai City Region",
    "divisionname": "Kanchipuram Division",
    "officename": "Kanchipadi B.O",
    "pincode": "631204",
    "officetype": "BO",
    "delivery": "Delivery",
    "district": "THIRUVALLUR",
    "statename": "TAMIL NADU",
    "latitude": "13.0972500",
    "longitude": "79.8360000"
  },
  {
    "circlename": "Tamilnadu Circle",
    "regionname": "Chennai City Region",
    "divisionname": "Kanchipuram Division",
    "officename": "Cherukkanur B.O",
    "pincode": "631205",
    "officetype": "BO",
    "delivery": "Delivery",
    "district": "THIRUVALLUR",
    "statename": "TAMIL NADU",
    "latitude": "13.1733110",
    "longitude": "79.6167569"
  },
  {
    "circlename": "Tamilnadu Circle",
    "regionname": "Chennai City Region",
    "divisionname": "Kanchipuram Division",
    "officename": "Mambakkam B.O",
    "pincode": "631205",
    "officetype": "BO",
    "delivery": "Delivery",
    "district": "THIRUVALLUR",
    "statename": "TAMIL NADU",
    "latitude": "13.2297391",
    "longitude": "79.8946629"
  },
  {
    "circlename": "Tamilnadu Circle",
    "regionname": "Chennai City Region",
    "divisionname": "Kanchipuram Division",
    "officename": "Veerakaverirajapuram B.O",
    "pincode": "631205",
    "officetype": "BO",
    "delivery": "Delivery",
    "district": "THIRUVALLUR",
    "statename": "TAMIL NADU",
    "latitude": "13.1066500",
    "longitude": "79.9104500"
  },
  {
    "circlename": "Tamilnadu Circle",
    "regionname": "Chennai City Region",
    "divisionname": "Kanchipuram Division",
    "officename": "Polivakkam B.O",
    "pincode": "602002",
    "officetype": "BO",
    "delivery": "Delivery",
    "district": "THIRUVALLUR",
    "statename": "TAMIL NADU",
    "latitude": "13.0676771",
    "longitude": "79.9129635"
  },
  {
    "circlename": "Tamilnadu Circle",
    "regionname": "Chennai City Region",
    "divisionname": "Kanchipuram Division",
    "officename": "Karimbedu B.O",
    "pincode": "631207",
    "officetype": "BO",
    "delivery": "Delivery",
    "district": "THIRUVALLUR",
    "statename": "TAMIL NADU",
    "latitude": "13.3389000",
    "longitude": "79.4428300"
  },
  {
    "circlename": "Tamilnadu Circle",
    "regionname": "Chennai City Region",
    "divisionname": "Kanchipuram Division",
    "officename": "Samanthavada B.O",
    "pincode": "631207",
    "officetype": "BO",
    "delivery": "Delivery",
    "district": "THIRUVALLUR",
    "statename": "TAMIL NADU",
    "latitude": "13.3389000",
    "longitude": "79.4428300"
  },
  {
    "circlename": "Tamilnadu Circle",
    "regionname": "Chennai City Region",
    "divisionname": "Kanchipuram Division",
    "officename": "Kondancheri B.O",
    "pincode": "631402",
    "officetype": "BO",
    "delivery": "Delivery",
    "district": "THIRUVALLUR",
    "statename": "TAMIL NADU",
    "latitude": "13.0248500",
    "longitude": "79.8263000"
  },
  {
    "circlename": "Tamilnadu Circle",
    "regionname": "Chennai City Region",
    "divisionname": "Kanchipuram Division",
    "officename": "Mappedu B.O",
    "pincode": "631402",
    "officetype": "BO",
    "delivery": "Delivery",
    "district": "THIRUVALLUR",
    "statename": "TAMIL NADU",
    "latitude": "13.0248500",
    "longitude": "79.8263000"
  },
  {
    "circlename": "Tamilnadu Circle",
    "regionname": "Chennai City Region",
    "divisionname": "Kanchipuram Division",
    "officename": "Athivakkam B.O",
    "pincode": "601102",
    "officetype": "BO",
    "delivery": "Delivery",
    "district": "THIRUVALLUR",
    "statename": "TAMIL NADU",
    "latitude": "13.3710500",
    "longitude": "80.0756000"
  },
  {
    "circlename": "Tamilnadu Circle",
    "regionname": "Chennai City Region",
    "divisionname": "Kanchipuram Division",
    "officename": "Nelvoy B.O",
    "pincode": "601102",
    "officetype": "BO",
    "delivery": "Delivery",
    "district": "THIRUVALLUR",
    "statename": "TAMIL NADU",
    "latitude": "13.2105500",
    "longitude": "79.7965800"
  },
  {
    "circlename": "Tamilnadu Circle",
    "regionname": "Chennai City Region",
    "divisionname": "Kanchipuram Division",
    "officename": "T.T.Kandigai B.O",
    "pincode": "631208",
    "officetype": "BO",
    "delivery": "Delivery",
    "district": "THIRUVALLUR",
    "statename": "TAMIL NADU",
    "latitude": "13.1381500",
    "longitude": "79.8231000"
  },
  {
    "circlename": "Tamilnadu Circle",
    "regionname": "Chennai City Region",
    "divisionname": "Kanchipuram Division",
    "officename": "Devandavakkam B.O",
    "pincode": "602023",
    "officetype": "BO",
    "delivery": "Delivery",
    "district": "THIRUVALLUR",
    "statename": "TAMIL NADU",
    "latitude": "13.2297431",
    "longitude": "79.8946589"
  },
  {
    "circlename": "Tamilnadu Circle",
    "regionname": "Chennai City Region",
    "divisionname": "Kanchipuram Division",
    "officename": "Nambakkam B.O",
    "pincode": "602023",
    "officetype": "BO",
    "delivery": "Delivery",
    "district": "THIRUVALLUR",
    "statename": "TAMIL NADU",
    "latitude": "13.2105500",
    "longitude": "79.7965800"
  },
  {
    "circlename": "Tamilnadu Circle",
    "regionname": "Chennai City Region",
    "divisionname": "Kanchipuram Division",
    "officename": "Nelvoy B.O",
    "pincode": "602023",
    "officetype": "BO",
    "delivery": "Delivery",
    "district": "THIRUVALLUR",
    "statename": "TAMIL NADU",
    "latitude": "13.2105500",
    "longitude": "79.7965800"
  },
  {
    "circlename": "Tamilnadu Circle",
    "regionname": "Chennai City Region",
    "divisionname": "Kanchipuram Division",
    "officename": "Timmaboopalapuram B.O",
    "pincode": "602023",
    "officetype": "BO",
    "delivery": "Delivery",
    "district": "THIRUVALLUR",
    "statename": "TAMIL NADU",
    "latitude": "13.2105500",
    "longitude": "79.7965800"
  },
  {
    "circlename": "Tamilnadu Circle",
    "regionname": "Chennai City Region",
    "divisionname": "Kanchipuram Division",
    "officename": "Ammaneri B.O",
    "pincode": "631303",
    "officetype": "BO",
    "delivery": "Delivery",
    "district": "THIRUVALLUR",
    "statename": "TAMIL NADU",
    "latitude": "12.9998500",
    "longitude": "79.6185200"
  },
  {
    "circlename": "Tamilnadu Circle",
    "regionname": "Chennai City Region",
    "divisionname": "Kanchipuram Division",
    "officename": "Karlapakkam B.O",
    "pincode": "602024",
    "officetype": "BO",
    "delivery": "Delivery",
    "district": "THIRUVALLUR",
    "statename": "TAMIL NADU",
    "latitude": "13.1425600",
    "longitude": "79.9090420"
  },
  {
    "circlename": "Tamilnadu Circle",
    "regionname": "Chennai City Region",
    "divisionname": "Kanchipuram Division",
    "officename": "Komakkambedu B.O",
    "pincode": "602024",
    "officetype": "BO",
    "delivery": "Delivery",
    "district": "THIRUVALLUR",
    "statename": "TAMIL NADU",
    "latitude": "13.1425610",
    "longitude": "79.9090410"
  },
  {
    "circlename": "Tamilnadu Circle",
    "regionname": "Chennai City Region",
    "divisionname": "Kanchipuram Division",
    "officename": "Pakkam B.O",
    "pincode": "602024",
    "officetype": "BO",
    "delivery": "Delivery",
    "district": "THIRUVALLUR",
    "statename": "TAMIL NADU",
    "latitude": "13.1075992",
    "longitude": "80.1494073"
  },
  {
    "circlename": "Tamilnadu Circle",
    "regionname": "Chennai City Region",
    "divisionname": "Kanchipuram Division",
    "officename": "Vadattur B.O",
    "pincode": "602024",
    "officetype": "BO",
    "delivery": "Delivery",
    "district": "THIRUVALLUR",
    "statename": "TAMIL NADU",
    "latitude": "13.1818921",
    "longitude": "79.9736551"
  },
  {
    "circlename": "Tamilnadu Circle",
    "regionname": "Chennai City Region",
    "divisionname": "Kanchipuram Division",
    "officename": "Murukkambattu B.O",
    "pincode": "631209",
    "officetype": "BO",
    "delivery": "Delivery",
    "district": "THIRUVALLUR",
    "statename": "TAMIL NADU",
    "latitude": "13.1733130",
    "longitude": "79.6167549"
  },
  {
    "circlename": "Tamilnadu Circle",
    "regionname": "Chennai City Region",
    "divisionname": "Kanchipuram Division",
    "officename": "Netterikandigai B.O",
    "pincode": "631209",
    "officetype": "BO",
    "delivery": "Delivery",
    "district": "THIRUVALLUR",
    "statename": "TAMIL NADU",
    "latitude": "13.1733150",
    "longitude": "79.6167529"
  },
  {
    "circlename": "Tamilnadu Circle",
    "regionname": "Chennai City Region",
    "divisionname": "Kanchipuram Division",
    "officename": "Srinivasapuram B.O",
    "pincode": "631209",
    "officetype": "BO",
    "delivery": "Delivery",
    "district": "THIRUVALLUR",
    "statename": "TAMIL NADU",
    "latitude": "13.1733140",
    "longitude": "79.6167539"
  },
  {
    "circlename": "Tamilnadu Circle",
    "regionname": "Chennai City Region",
    "divisionname": "Kanchipuram Division",
    "officename": "Upper Tirutani B.O",
    "pincode": "631209",
    "officetype": "BO",
    "delivery": "Non Delivery",
    "district": "THIRUVALLUR",
    "statename": "TAMIL NADU",
    "latitude": "13.1641500",
    "longitude": "79.5823900"
  },
  {
    "circlename": "Tamilnadu Circle",
    "regionname": "Chennai City Region",
    "divisionname": "Kanchipuram Division",
    "officename": "Vyasapuram B.O",
    "pincode": "631210",
    "officetype": "BO",
    "delivery": "Delivery",
    "district": "THIRUVALLUR",
    "statename": "TAMIL NADU",
    "latitude": "13.1667600",
    "longitude": "79.7484100"
  },
  {
    "circlename": "Tamilnadu Circle",
    "regionname": "Chennai City Region",
    "divisionname": "Kanchipuram Division",
    "officename": "Damaraipakkam B.O",
    "pincode": "601103",
    "officetype": "BO",
    "delivery": "Delivery",
    "district": "THIRUVALLUR",
    "statename": "TAMIL NADU",
    "latitude": "13.2196186",
    "longitude": "80.0348241"
  },
  {
    "circlename": "Tamilnadu Circle",
    "regionname": "Chennai City Region",
    "divisionname": "Kanchipuram Division",
    "officename": "Kalpattu B.O",
    "pincode": "601103",
    "officetype": "BO",
    "delivery": "Delivery",
    "district": "THIRUVALLUR",
    "statename": "TAMIL NADU",
    "latitude": "13.1425570",
    "longitude": "79.9090450"
  },
  {
    "circlename": "Tamilnadu Circle",
    "regionname": "Chennai City Region",
    "divisionname": "Kanchipuram Division",
    "officename": "Tirukandalam B.O",
    "pincode": "601103",
    "officetype": "BO",
    "delivery": "Delivery",
    "district": "THIRUVALLUR",
    "statename": "TAMIL NADU",
    "latitude": "13.1425610",
    "longitude": "79.9090410"
  },
  {
    "circlename": "Tamilnadu Circle",
    "regionname": "Chennai City Region",
    "divisionname": "Tambaram Division",
    "officename": "Panayancheri BO",
    "pincode": "601101",
    "officetype": "BO",
    "delivery": "Delivery",
    "district": "THIRUVALLUR",
    "statename": "TAMIL NADU",
    "latitude": "13.2970000",
    "longitude": "80.0500000"
  },
  {
    "circlename": "Tamilnadu Circle",
    "regionname": "Chennai City Region",
    "divisionname": "Tambaram Division",
    "officename": "Elavur BO",
    "pincode": "601201",
    "officetype": "BO",
    "delivery": "Delivery",
    "district": "THIRUVALLUR",
    "statename": "TAMIL NADU",
    "latitude": "13.4700000",
    "longitude": "80.1060000"
  },
  {
    "circlename": "Tamilnadu Circle",
    "regionname": "Chennai City Region",
    "divisionname": "Tambaram Division",
    "officename": "Tiruvottiyur West BO",
    "pincode": "600019",
    "officetype": "BO",
    "delivery": "Non Delivery",
    "district": "THIRUVALLUR",
    "statename": "TAMIL NADU",
    "latitude": "13.1530000",
    "longitude": "80.2650000"
  },
  {
    "circlename": "Tamilnadu Circle",
    "regionname": "Chennai City Region",
    "divisionname": "Tambaram Division",
    "officename": "Puvalambedu BO",
    "pincode": "601206",
    "officetype": "BO",
    "delivery": "Delivery",
    "district": "THIRUVALLUR",
    "statename": "TAMIL NADU",
    "latitude": "13.3950000",
    "longitude": "80.0110000"
  },
  {
    "circlename": "Tamilnadu Circle",
    "regionname": "Chennai City Region",
    "divisionname": "Tambaram Division",
    "officename": "Andarkuppam BO",
    "pincode": "600103",
    "officetype": "BO",
    "delivery": "Delivery",
    "district": "THIRUVALLUR",
    "statename": "TAMIL NADU",
    "latitude": "13.1790000",
    "longitude": "80.2390000"
  },
  {
    "circlename": "Tamilnadu Circle",
    "regionname": "Chennai City Region",
    "divisionname": "Tambaram Division",
    "officename": "Kattur BO",
    "pincode": "601203",
    "officetype": "BO",
    "delivery": "Delivery",
    "district": "THIRUVALLUR",
    "statename": "TAMIL NADU",
    "latitude": "13.3420000",
    "longitude": "80.2570000"
  },
  {
    "circlename": "Tamilnadu Circle",
    "regionname": "Chennai City Region",
    "divisionname": "Tambaram Division",
    "officename": "Velur BO",
    "pincode": "601203",
    "officetype": "BO",
    "delivery": "Delivery",
    "district": "THIRUVALLUR",
    "statename": "TAMIL NADU",
    "latitude": "13.3160000",
    "longitude": "80.2350000"
  },
  {
    "circlename": "Tamilnadu Circle",
    "regionname": "Chennai City Region",
    "divisionname": "Tambaram Division",
    "officename": "Voyalur BO",
    "pincode": "601203",
    "officetype": "BO",
    "delivery": "Delivery",
    "district": "THIRUVALLUR",
    "statename": "TAMIL NADU",
    "latitude": "13.3010000",
    "longitude": "80.2470000"
  },
  {
    "circlename": "Tamilnadu Circle",
    "regionname": "Chennai City Region",
    "divisionname": "Tambaram Division",
    "officename": "Nandiambakkam BO",
    "pincode": "600120",
    "officetype": "BO",
    "delivery": "Delivery",
    "district": "THIRUVALLUR",
    "statename": "TAMIL NADU",
    "latitude": "13.2610000",
    "longitude": "80.2500000"
  },
  {
    "circlename": "Tamilnadu Circle",
    "regionname": "Chennai City Region",
    "divisionname": "Tambaram Division",
    "officename": "Krishnapuram BO",
    "pincode": "601204",
    "officetype": "BO",
    "delivery": "Non Delivery",
    "district": "THIRUVALLUR",
    "statename": "TAMIL NADU",
    "latitude": "13.2770000",
    "longitude": "79.8230000"
  },
  {
    "circlename": "Tamilnadu Circle",
    "regionname": "Chennai City Region",
    "divisionname": "Tambaram Division",
    "officename": "Reddipalayam BO",
    "pincode": "601204",
    "officetype": "BO",
    "delivery": "Delivery",
    "district": "THIRUVALLUR",
    "statename": "TAMIL NADU",
    "latitude": "13.4810000",
    "longitude": "80.1690000"
  },
  {
    "circlename": "Tamilnadu Circle",
    "regionname": "Chennai City Region",
    "divisionname": "Tambaram Division",
    "officename": "Pammadukulam BO",
    "pincode": "600052",
    "officetype": "BO",
    "delivery": "Non Delivery",
    "district": "THIRUVALLUR",
    "statename": "TAMIL NADU",
    "latitude": "13.1650000",
    "longitude": "80.1270000"
  },
  {
    "circlename": "Tamilnadu Circle",
    "regionname": "Chennai City Region",
    "divisionname": "Tambaram Division",
    "officename": "Vadakarai BO",
    "pincode": "600052",
    "officetype": "BO",
    "delivery": "Non Delivery",
    "district": "THIRUVALLUR",
    "statename": "TAMIL NADU",
    "latitude": "13.1730000",
    "longitude": "80.1710000"
  },
  {
    "circlename": "Tamilnadu Circle",
    "regionname": "Chennai City Region",
    "divisionname": "Tambaram Division",
    "officename": "Jagannathapuram BO",
    "pincode": "600067",
    "officetype": "BO",
    "delivery": "Delivery",
    "district": "THIRUVALLUR",
    "statename": "TAMIL NADU",
    "latitude": "13.2610000",
    "longitude": "80.1500000"
  },
  {
    "circlename": "Tamilnadu Circle",
    "regionname": "Chennai City Region",
    "divisionname": "Tambaram Division",
    "officename": "Nayar BO",
    "pincode": "600067",
    "officetype": "BO",
    "delivery": "Delivery",
    "district": "THIRUVALLUR",
    "statename": "TAMIL NADU",
    "latitude": "13.2470000",
    "longitude": "80.1870000"
  },
  {
    "circlename": "Tamilnadu Circle",
    "regionname": "Chennai City Region",
    "divisionname": "Tambaram Division",
    "officename": "Morai BO",
    "pincode": "600055",
    "officetype": "BO",
    "delivery": "Delivery",
    "district": "THIRUVALLUR",
    "statename": "TAMIL NADU",
    "latitude": "13.1700000",
    "longitude": "80.6600000"
  },
  {
    "circlename": "Tamilnadu Circle",
    "regionname": "Chennai City Region",
    "divisionname": "Tambaram Division",
    "officename": "Palavedu BO",
    "pincode": "600055",
    "officetype": "BO",
    "delivery": "Delivery",
    "district": "THIRUVALLUR",
    "statename": "TAMIL NADU",
    "latitude": "13.1400000",
    "longitude": "80.0330000"
  },
  {
    "circlename": "Tamilnadu Circle",
    "regionname": "Chennai City Region",
    "divisionname": "Tambaram Division",
    "officename": "Vanagaram BO",
    "pincode": "600095",
    "officetype": "BO",
    "delivery": "Non Delivery",
    "district": "THIRUVALLUR",
    "statename": "TAMIL NADU",
    "latitude": "13.0470000",
    "longitude": "80.1260000"
  },
  {
    "circlename": "Tamilnadu Circle",
    "regionname": "Chennai City Region",
    "divisionname": "Tambaram Division",
    "officename": "Vellavedu BO",
    "pincode": "600124",
    "officetype": "BO",
    "delivery": "Delivery",
    "district": "THIRUVALLUR",
    "statename": "TAMIL NADU",
    "latitude": "13.0520000",
    "longitude": "80.0770000"
  },