[
  {
    "circlename": "Tamilnadu Circle",
    "regionname": "Central Region Trichirapalli",
    "divisionname": "Karur Division",
    "officename": "Kumaravadi B.O",
    "pincode": "621302",
    "officetype": "BO",
    "delivery": "Delivery",
    "district": "TIRUCHIRAPPALLI",
    "statename": "TAMIL NADU",
    "latitude": "10.5300000",
    "longitude": "78.3100000"
  },
  {
    "circlename": "Tamilnadu Circle",
    "regionname": "Central Region Trichirapalli",
    "divisionname": "Karur Division",
    "officename": "N.Poolampatti B.O",
    "pincode": "621302",
    "officetype": "BO",
    "delivery": "Delivery",
    "district": "TIRUCHIRAPPALLI",
    "statename": "TAMIL NADU",
    "latitude": "10.6100000",
    "longitude": "78.3000000"
  },
  {
    "circlename": "Tamilnadu Circle",
    "regionname": "Central Region Trichirapalli",
    "divisionname": "Karur Division",
    "officename": "Pannipatti B.O",
    "pincode": "621302",
    "officetype": "BO",
    "delivery": "Delivery",
    "district": "TIRUCHIRAPPALLI",
    "statename": "TAMIL NADU",
    "latitude": "10.5300000",
    "longitude": "78.3600000"
  },
  {
    "circlename": "Tamilnadu Circle",
    "regionname": "Central Region Trichirapalli",
    "divisionname": "Karur Division",
    "officename": "Valayapatti (Manaparai) B.O",
    "pincode": "621302",
    "officetype": "BO",
    "delivery": "Delivery",
    "district": "TIRUCHIRAPPALLI",
    "statename": "TAMIL NADU",
    "latitude": "10.4200000",
    "longitude": "78.4800000"
  },
  {
    "circlename": "Tamilnadu Circle",
    "regionname": "Central Region Trichirapalli",
    "divisionname": "Karur Division",
    "officename": "Mutalvarapatti B.O",
    "pincode": "621305",
    "officetype": "BO",
    "delivery": "Delivery",
    "district": "TIRUCHIRAPPALLI",
    "statename": "TAMIL NADU",
    "latitude": "10.4700000",
    "longitude": "78.4300000"
  },
  {
    "circlename": "Tamilnadu Circle",
    "regionname": "Central Region Trichirapalli",
    "divisionname": "Karur Division",
    "officename": "Marungapuri B.O",
    "pincode": "621305",
    "officetype": "BO",
    "delivery": "Delivery",
    "district": "TIRUCHIRAPPALLI",
    "statename": "TAMIL NADU",
    "latitude": "10.4400000",
    "longitude": "78.4100000"
  },
  {
    "circlename": "Tamilnadu Circle",
    "regionname": "Central Region Trichirapalli",
    "divisionname": "Karur Division",
    "officename": "K.Periyapatti B.O",
    "pincode": "621306",
    "officetype": "BO",
    "delivery": "Delivery",
    "district": "TIRUCHIRAPPALLI",
    "statename": "TAMIL NADU",
    "latitude": "10.6200000",
    "longitude": "78.4300000"
  },
  {
    "circlename": "Tamilnadu Circle",
    "regionname": "Central Region Trichirapalli",
    "divisionname": "Karur Division",
    "officename": "Pannankombu B.O",
    "pincode": "621306",
    "officetype": "BO",
    "delivery": "Delivery",
    "district": "TIRUCHIRAPPALLI",
    "statename": "TAMIL NADU",
    "latitude": "10.5300000",
    "longitude": "78.3900000"
  },
  {
    "circlename": "Tamilnadu Circle",
    "regionname": "Central Region Trichirapalli",
    "divisionname": "Karur Division",
    "officename": "Avarampatti B.O",
    "pincode": "621307",
    "officetype": "BO",
    "delivery": "Delivery",
    "district": "TIRUCHIRAPPALLI",
    "statename": "TAMIL NADU",
    "latitude": "10.5900000",
    "longitude": "78.3500000"
  },
  {
    "circlename": "Tamilnadu Circle",
    "regionname": "Central Region Trichirapalli",
    "divisionname": "Karur Division",
    "officename": "Vellalapatti B.O",
    "pincode": "621307",
    "officetype": "BO",
    "delivery": "Delivery",
    "district": "TIRUCHIRAPPALLI",
    "statename": "TAMIL NADU",
    "latitude": "10.6700000",
    "longitude": "78.3200000"
  },
  {
    "circlename": "Tamilnadu Circle",
    "regionname": "Central Region Trichirapalli",
    "divisionname": "Karur Division",
    "officename": "Vengaikurichi B.O",
    "pincode": "621307",
    "officetype": "BO",
    "delivery": "Delivery",
    "district": "TIRUCHIRAPPALLI",
    "statename": "TAMIL NADU",
    "latitude": "10.6000000",
    "longitude": "78.3800000"
  },
  {
    "circlename": "Tamilnadu Circle",
    "regionname": "Central Region Trichirapalli",
    "divisionname": "Karur Division",
    "officename": "Kodumbapatti B.O",
    "pincode": "621308",
    "officetype": "BO",
    "delivery": "Delivery",
    "district": "TIRUCHIRAPPALLI",
    "statename": "TAMIL NADU",
    "latitude": "10.4500000",
    "longitude": "78.5400000"
  },
  {
    "circlename": "Tamilnadu Circle",
    "regionname": "Central Region Trichirapalli",
    "divisionname": "Karur Division",
    "officename": "Valanadu B.O",
    "pincode": "621308",
    "officetype": "BO",
    "delivery": "Delivery",
    "district": "TIRUCHIRAPPALLI",
    "statename": "TAMIL NADU",
    "latitude": "10.4500000",
    "longitude": "78.4900000"
  },
  {
    "circlename": "Tamilnadu Circle",
    "regionname": "Central Region Trichirapalli",
    "divisionname": "Karur Division",
    "officename": "Endapuli B.O",
    "pincode": "621310",
    "officetype": "BO",
    "delivery": "Delivery",
    "district": "TIRUCHIRAPPALLI",
    "statename": "TAMIL NADU",
    "latitude": "10.1200000",
    "longitude": "77.5600000"
  },
  {
    "circlename": "Tamilnadu Circle",
    "regionname": "Central Region Trichirapalli",
    "divisionname": "Karur Division",
    "officename": "Kannivadugapatti B.O",
    "pincode": "621310",
    "officetype": "BO",
    "delivery": "Delivery",
    "district": "TIRUCHIRAPPALLI",
    "statename": "TAMIL NADU",
    "latitude": "10.4600000",
    "longitude": "78.4200000"
  },
  {
    "circlename": "Tamilnadu Circle",
    "regionname": "Central Region Trichirapalli",
    "divisionname": "Karur Division",
    "officename": "Tirunellipatti B.O",
    "pincode": "621310",
    "officetype": "BO",
    "delivery": "Delivery",
    "district": "TIRUCHIRAPPALLI",
    "statename": "TAMIL NADU",
    "latitude": "10.4800000",
    "longitude": "78.4200000"
  },
  {
    "circlename": "Tamilnadu Circle",
    "regionname": "Central Region Trichirapalli",
    "divisionname": "Karur Division",
    "officename": "Thavalaveeranpatti B.O",
    "pincode": "621311",
    "officetype": "BO",
    "delivery": "Delivery",
    "district": "TIRUCHIRAPPALLI",
    "statename": "TAMIL NADU",
    "latitude": "10.6300000",
    "longitude": "78.2000000"
  },
  {
    "circlename": "Tamilnadu Circle",
    "regionname": "Central Region Trichirapalli",
    "divisionname": "Karur Division",
    "officename": "Seegampatti B.O",
    "pincode": "621312",
    "officetype": "BO",
    "delivery": "Delivery",
    "district": "TIRUCHIRAPPALLI",
    "statename": "TAMIL NADU",
    "latitude": "10.5900000",
    "longitude": "78.4500000"
  },
  {
    "circlename": "Tamilnadu Circle",
    "regionname": "Central Region Trichirapalli",
    "divisionname": "Karur Division",
    "officename": "Adhigaram B.O",
    "pincode": "621314",
    "officetype": "BO",
    "delivery": "Delivery",
    "district": "TIRUCHIRAPPALLI",
    "statename": "TAMIL NADU",
    "latitude": "10.3500000",
    "longitude": "78.3900000"
  },
  {
    "circlename": "Tamilnadu Circle",
    "regionname": "Central Region Trichirapalli",
    "divisionname": "Karur Division",
    "officename": "Ikkaraikosikurichi B.O",
    "pincode": "621314",
    "officetype": "BO",
    "delivery": "Delivery",
    "district": "TIRUCHIRAPPALLI",
    "statename": "TAMIL NADU",
    "latitude": "10.3600000",
    "longitude": "78.4000000"
  },
  {
    "circlename": "Tamilnadu Circle",
    "regionname": "Central Region Trichirapalli",
    "divisionname": "Karur Division",
    "officename": "Karaipatti B.O",
    "pincode": "621314",
    "officetype": "BO",
    "delivery": "Delivery",
    "district": "TIRUCHIRAPPALLI",
    "statename": "TAMIL NADU",
    "latitude": "10.3900000",
    "longitude": "78.3700000"
  },
  {
    "circlename": "Tamilnadu Circle",
    "regionname": "Central Region Trichirapalli",
    "divisionname": "Karur Division",
    "officename": "Pillupatti B.O",
    "pincode": "621314",
    "officetype": "BO",
    "delivery": "Delivery",
    "district": "TIRUCHIRAPPALLI",
    "statename": "TAMIL NADU",
    "latitude": "10.3700000",
    "longitude": "78.4300000"
  },
  {
    "circlename": "Tamilnadu Circle",
    "regionname": "Central Region Trichirapalli",
    "divisionname": "Karur Division",
    "officename": "Thethur B.O",
    "pincode": "621314",
    "officetype": "BO",
    "delivery": "Delivery",
    "district": "TIRUCHIRAPPALLI",
    "statename": "TAMIL NADU",
    "latitude": "10.3200000",
    "longitude": "78.3600000"
  },
  {
    "circlename": "Tamilnadu Circle",
    "regionname": "Central Region Trichirapalli",
    "divisionname": "Karur Division",
    "officename": "Kannuthu B.O",
    "pincode": "621315",
    "officetype": "BO",
    "delivery": "Delivery",
    "district": "TIRUCHIRAPPALLI",
    "statename": "TAMIL NADU",
    "latitude": "10.4600000",
    "longitude": "78.2700000"
  },
  {
    "circlename": "Tamilnadu Circle",
    "regionname": "Central Region Trichirapalli",
    "divisionname": "Karur Division",
    "officename": "Karungulam B.O",
    "pincode": "621315",
    "officetype": "BO",
    "delivery": "Delivery",
    "district": "TIRUCHIRAPPALLI",
    "statename": "TAMIL NADU",
    "latitude": "10.5700000",
    "longitude": "78.3000000"
  },
  {
    "circlename": "Tamilnadu Circle",
    "regionname": "Central Region Trichirapalli",
    "divisionname": "Karur Division",
    "officename": "Nadupatti B.O",
    "pincode": "621315",
    "officetype": "BO",
    "delivery": "Delivery",
    "district": "TIRUCHIRAPPALLI",
    "statename": "TAMIL NADU",
    "latitude": "10.5300000",
    "longitude": "78.2300000"
  },
  {
    "circlename": "Tamilnadu Circle",
    "regionname": "Central Region Trichirapalli",
    "divisionname": "Srirangam Division",
    "officename": "Seedevimangalam B.O",
    "pincode": "621109",
    "officetype": "BO",
    "delivery": "Delivery",
    "district": "TIRUCHIRAPPALLI",
    "statename": "TAMIL NADU",
    "latitude": "11.1100000",
    "longitude": "78.8000000"
  },
  {
    "circlename": "Tamilnadu Circle",
    "regionname": "Central Region Trichirapalli",
    "divisionname": "Srirangam Division",
    "officename": "Thiruvasi B.O",
    "pincode": "621216",
    "officetype": "BO",
    "delivery": "Delivery",
    "district": "TIRUCHIRAPPALLI",
    "statename": "TAMIL NADU",
    "latitude": "NA",
    "longitude": "NA"
  },
  {
    "circlename": "Tamilnadu Circle",
    "regionname": "Central Region Trichirapalli",
    "divisionname": "Srirangam Division",
    "officename": "Tirupattur B.O",
    "pincode": "621105",
    "officetype": "BO",
    "delivery": "Delivery",
    "district": "TIRUCHIRAPPALLI",
    "statename": "TAMIL NADU",
    "latitude": "11.0400000",
    "longitude": "78.7700000"
  },
  {
    "circlename": "Tamilnadu Circle",
    "regionname": "Central Region Trichirapalli",
    "divisionname": "Srirangam Division",
    "officename": "Sergudi B.O",
    "pincode": "621208",
    "officetype": "BO",
    "delivery": "Delivery",
    "district": "TIRUCHIRAPPALLI",
    "statename": "TAMIL NADU",
    "latitude": "11.0500000",
    "longitude": "78.4200000"
  },
  {
    "circlename": "Tamilnadu Circle",
    "regionname": "Central Region Trichirapalli",
    "divisionname": "Srirangam Division",
    "officename": "Surampatti B.O",
    "pincode": "621208",
    "officetype": "BO",
    "delivery": "Delivery",
    "district": "TIRUCHIRAPPALLI",
    "statename": "TAMIL NADU",
    "latitude": "11.0500000",
    "longitude": "78.4100000"
  },
  {
    "circlename": "Tamilnadu Circle",
    "regionname": "Central Region Trichirapalli",
    "divisionname": "Srirangam Division",
    "officename": "Alagiamanavalam B.O",
    "pincode": "621005",
    "officetype": "BO",
    "delivery": "Delivery",
    "district": "TIRUCHIRAPPALLI",
    "statename": "TAMIL NADU",
    "latitude": "10.9100000",
    "longitude": "78.6800000"
  },
  {
    "circlename": "Tamilnadu Circle",
    "regionname": "Central Region Trichirapalli",
    "divisionname": "Srirangam Division",
    "officename": "Kariyamanickam B.O",
    "pincode": "621005",
    "officetype": "BO",
    "delivery": "Delivery",
    "district": "TIRUCHIRAPPALLI",
    "statename": "TAMIL NADU",
    "latitude": "11.0100000",
    "longitude": "78.7300000"
  },
  {
    "circlename": "Tamilnadu Circle",
    "regionname": "Central Region Trichirapalli",
    "divisionname": "Srirangam Division",
    "officename": "Rajampalayam B.O",
    "pincode": "621005",
    "officetype": "BO",
    "delivery": "Delivery",
    "district": "TIRUCHIRAPPALLI",
    "statename": "TAMIL NADU",
    "latitude": "10.9300000",
    "longitude": "78.7100000"
  },
  {
    "circlename": "Tamilnadu Circle",
    "regionname": "Central Region Trichirapalli",
    "divisionname": "Srirangam Division",
    "officename": "Srinivasanallur B.O",
    "pincode": "621209",
    "officetype": "BO",
    "delivery": "Delivery",
    "district": "TIRUCHIRAPPALLI",
    "statename": "TAMIL NADU",
    "latitude": "10.9700000",
    "longitude": "78.3600000"
  },
  {
    "circlename": "Tamilnadu Circle",
    "regionname": "Central Region Trichirapalli",
    "divisionname": "Srirangam Division",
    "officename": "Odayalampudur B.O",
    "pincode": "621215",
    "officetype": "BO",
    "delivery": "Delivery",
    "district": "TIRUCHIRAPPALLI",
    "statename": "TAMIL NADU",
    "latitude": "11.0600000",
    "longitude": "78.2800000"
  },
  {
    "circlename": "Tamilnadu Circle",
    "regionname": "Central Region Trichirapalli",
    "divisionname": "Srirangam Division",
    "officename": "Tholurpatti B.O",
    "pincode": "621215",
    "officetype": "BO",
    "delivery": "Delivery",
    "district": "TIRUCHIRAPPALLI",
    "statename": "TAMIL NADU",
    "latitude": "11.0300000",
    "longitude": "78.3100000"
  },
  {
    "circlename": "Tamilnadu Circle",
    "regionname": "Central Region Trichirapalli",
    "divisionname": "Srirangam Division",
    "officename": "Poonampalayam B.O",
    "pincode": "621009",
    "officetype": "BO",
    "delivery": "Delivery",
    "district": "TIRUCHIRAPPALLI",
    "statename": "TAMIL NADU",
    "latitude": "10.9400000",
    "longitude": "78.6900000"
  },
  {
    "circlename": "Tamilnadu Circle",
    "regionname": "Central Region Trichirapalli",
    "divisionname": "Srirangam Division",
    "officename": "Baderpettai B.O",
    "pincode": "621001",
    "officetype": "BO",
    "delivery": "Delivery",
    "district": "TIRUCHIRAPPALLI",
    "statename": "TAMIL NADU",
    "latitude": "11.2100000",
    "longitude": "78.5300000"
  },
  {
    "circlename": "Tamilnadu Circle",
    "regionname": "Central Region Trichirapalli",
    "divisionname": "Srirangam Division",
    "officename": "Sirunavalur B.O",
    "pincode": "621001",
    "officetype": "BO",
    "delivery": "Delivery",
    "district": "TIRUCHIRAPPALLI",
    "statename": "TAMIL NADU",
    "latitude": "11.2100000",
    "longitude": "78.4900000"
  },
  {
    "circlename": "Tamilnadu Circle",
    "regionname": "Central Region Trichirapalli",
    "divisionname": "Srirangam Division",
    "officename": "Valaiyeduppu B.O",
    "pincode": "621205",
    "officetype": "BO",
    "delivery": "Delivery",
    "district": "TIRUCHIRAPPALLI",
    "statename": "TAMIL NADU",
    "latitude": "11.0800000",
    "longitude": "78.4800000"
  },
  {
    "circlename": "Tamilnadu Circle",
    "regionname": "Central Region Trichirapalli",
    "divisionname": "Srirangam Division",
    "officename": "T.Renganathapuram B.O",
    "pincode": "621002",
    "officetype": "BO",
    "delivery": "Delivery",
    "district": "TIRUCHIRAPPALLI",
    "statename": "TAMIL NADU",
    "latitude": "11.2000000",
    "longitude": "78.6000000"
  },
  {
    "circlename": "Tamilnadu Circle",
    "regionname": "Central Region Trichirapalli",
    "divisionname": "Srirangam Division",
    "officename": "Nettavelampatti B.O",
    "pincode": "621003",
    "officetype": "BO",
    "delivery": "Delivery",
    "district": "TIRUCHIRAPPALLI",
    "statename": "TAMIL NADU",
    "latitude": "11.2300000",
    "longitude": "78.4400000"
  },
  {
    "circlename": "Tamilnadu Circle",
    "regionname": "Central Region Trichirapalli",
    "divisionname": "Srirangam Division",
    "officename": "Pachaperumalpatti B.O",
    "pincode": "621003",
    "officetype": "BO",
    "delivery": "Delivery",
    "district": "TIRUCHIRAPPALLI",
    "statename": "TAMIL NADU",
    "latitude": "11.2100000",
    "longitude": "78.4600000"
  },
  {
    "circlename": "Tamilnadu Circle",
    "regionname": "Central Region Trichirapalli",
    "divisionname": "Srirangam Division",
    "officename": "Muthiyampalayam B.O",
    "pincode": "621004",
    "officetype": "BO",
    "delivery": "Delivery",
    "district": "TIRUCHIRAPPALLI",
    "statename": "TAMIL NADU",
    "latitude": "11.1100000",
    "longitude": "78.6400000"
  },
  {
    "circlename": "Tamilnadu Circle",
    "regionname": "Central Region Trichirapalli",
    "divisionname": "Srirangam Division",
    "officename": "Pillapalayam B.O",
    "pincode": "621210",
    "officetype": "BO",
    "delivery": "Delivery",
    "district": "TIRUCHIRAPPALLI",
    "statename": "TAMIL NADU",
    "latitude": "11.1800000",
    "longitude": "78.4200000"
  },
  {
    "circlename": "Tamilnadu Circle",
    "regionname": "Central Region Trichirapalli",
    "divisionname": "Srirangam Division",
    "officename": "M.Karuppampatti B.O",
    "pincode": "621220",
    "officetype": "BO",
    "delivery": "Delivery",
    "district": "TIRUCHIRAPPALLI",
    "statename": "TAMIL NADU",
    "latitude": "11.1700000",
    "longitude": "78.4100000"
  },
  {
    "circlename": "Tamilnadu Circle",
    "regionname": "Central Region Trichirapalli",
    "divisionname": "Srirangam Division",
    "officename": "Karattampatti B.O",
    "pincode": "621014",
    "officetype": "BO",
    "delivery": "Delivery",
    "district": "TIRUCHIRAPPALLI",
    "statename": "TAMIL NADU",
    "latitude": "11.0700000",
    "longitude": "78.6000000"
  },
  {
    "circlename": "Tamilnadu Circle",
    "regionname": "Central Region Trichirapalli",
    "divisionname": "Srirangam Division",
    "officename": "Mambarai B.O",
    "pincode": "621006",
    "officetype": "BO",
    "delivery": "Delivery",
    "district": "TIRUCHIRAPPALLI",
    "statename": "TAMIL NADU",
    "latitude": "11.0200000",
    "longitude": "78.5900000"
  },
  {
    "circlename": "Tamilnadu Circle",
    "regionname": "Central Region Trichirapalli",
    "divisionname": "Srirangam Division",
    "officename": "Peramangalam B.O",
    "pincode": "621006",
    "officetype": "BO",
    "delivery": "Delivery",
    "district": "TIRUCHIRAPPALLI",
    "statename": "TAMIL NADU",
    "latitude": "10.9900000",
    "longitude": "78.6500000"
  },
  {
    "circlename": "Tamilnadu Circle",
    "regionname": "Central Region Trichirapalli",
    "divisionname": "Srirangam Division",
    "officename": "Kalingamudayanpatti B.O",
    "pincode": "621008",
    "officetype": "BO",
    "delivery": "Delivery",
    "district": "TIRUCHIRAPPALLI",
    "statename": "TAMIL NADU",
    "latitude": "11.1500000",
    "longitude": "78.5600000"
  },
  {
    "circlename": "Tamilnadu Circle",
    "regionname": "Central Region Trichirapalli",
    "divisionname": "Srirangam Division",
    "officename": "Natham Balasamudram B.O",
    "pincode": "621203",
    "officetype": "BO",
    "delivery": "Delivery",
    "district": "TIRUCHIRAPPALLI",
    "statename": "TAMIL NADU",
    "latitude": "10.9900000",
    "longitude": "78.3200000"
  },
  {
    "circlename": "Tamilnadu Circle",
    "regionname": "Central Region Trichirapalli",
    "divisionname": "Srirangam Division",
    "officename": "Devanur B.O",
    "pincode": "621214",
    "officetype": "BO",
    "delivery": "Delivery",
    "district": "TIRUCHIRAPPALLI",
    "statename": "TAMIL NADU",
    "latitude": "11.1000000",
    "longitude": "78.4500000"
  },
  {
    "circlename": "Tamilnadu Circle",
    "regionname": "Central Region Trichirapalli",
    "divisionname": "Srirangam Division",
    "officename": "Vadamalaipatti B.O",
    "pincode": "621214",
    "officetype": "BO",
    "delivery": "Delivery",
    "district": "TIRUCHIRAPPALLI",
    "statename": "TAMIL NADU",
    "latitude": "11.1400000",
    "longitude": "78.4700000"
  },
  {
    "circlename": "Tamilnadu Circle",
    "regionname": "Central Region Trichirapalli",
    "divisionname": "Srirangam Division",
    "officename": "Thanneerpallam B.O",
    "pincode": "621011",
    "officetype": "BO",
    "delivery": "Delivery",
    "district": "TIRUCHIRAPPALLI",
    "statename": "TAMIL NADU",
    "latitude": "11.3000000",
    "longitude": "78.6200000"
  },
  {
    "circlename": "Tamilnadu Circle",
    "regionname": "Central Region Trichirapalli",
    "divisionname": "Srirangam Division",
    "officename": "Top Sengattupatti B.O",
    "pincode": "621011",
    "officetype": "BO",
    "delivery": "Delivery",
    "district": "TIRUCHIRAPPALLI",
    "statename": "TAMIL NADU",
    "latitude": "11.3100000",
    "longitude": "78.5900000"
  },
  {
    "circlename": "Tamilnadu Circle",
    "regionname": "Central Region Trichirapalli",
    "divisionname": "Srirangam Division",
    "officename": "Naganallur B.O",
    "pincode": "621012",
    "officetype": "BO",
    "delivery": "Delivery",
    "district": "TIRUCHIRAPPALLI",
    "statename": "TAMIL NADU",
    "latitude": "11.3300000",
    "longitude": "78.4800000"
  },
  {
    "circlename": "Tamilnadu Circle",
    "regionname": "Central Region Trichirapalli",
    "divisionname": "Tiruchirapalli Division",
    "officename": "Nagar BO",
    "pincode": "621703",
    "officetype": "BO",
    "delivery": "Delivery",
    "district": "TIRUCHIRAPPALLI",
    "statename": "TAMIL NADU",
    "latitude": "10.8900000",
    "longitude": "78.8000000"
  },
  {
    "circlename": "Tamilnadu Circle",
    "regionname": "Central Region Trichirapalli",
    "divisionname": "Tiruchirapalli Division",
    "officename": "Keelarasur BO",
    "pincode": "621653",
    "officetype": "BO",
    "delivery": "Delivery",
    "district": "TIRUCHIRAPPALLI",
    "statename": "TAMIL NADU",
    "latitude": "11.0100000",
    "longitude": "78.9800000"
  },
  {
    "circlename": "Tamilnadu Circle",
    "regionname": "Central Region Trichirapalli",
    "divisionname": "Tiruchirapalli Division",
    "officename": "Sirukalappur BO",
    "pincode": "621651",
    "officetype": "BO",
    "delivery": "Delivery",
    "district": "TIRUCHIRAPPALLI",
    "statename": "TAMIL NADU",
    "latitude": "11.0400000",
    "longitude": "78.9000000"
  },
  {
    "circlename": "Tamilnadu Circle",
    "regionname": "Central Region Trichirapalli",
    "divisionname": "Tiruchirapalli Division",
    "officename": "Tappay BO",
    "pincode": "621651",
    "officetype": "BO",
    "delivery": "Delivery",
    "district": "TIRUCHIRAPPALLI",
    "statename": "TAMIL NADU",
    "latitude": "10.9900000",
    "longitude": "78.9100000"
  },
  {
    "circlename": "Tamilnadu Circle",
    "regionname": "Central Region Trichirapalli",
    "divisionname": "Tiruchirapalli Division",
    "officename": "Mullal BO",
    "pincode": "621706",
    "officetype": "BO",
    "delivery": "Delivery",
    "district": "TIRUCHIRAPPALLI",
    "statename": "TAMIL NADU",
    "latitude": "10.9000000",
    "longitude": "78.9100000"
  },
  {
    "circlename": "Tamilnadu Circle",
    "regionname": "Central Region Trichirapalli",
    "divisionname": "Tiruchirapalli Division",
    "officename": "Sirumayankudi BO",
    "pincode": "621706",
    "officetype": "BO",
    "delivery": "Non Delivery",
    "district": "TIRUCHIRAPPALLI",
    "statename": "TAMIL NADU",
    "latitude": "10.8900000",
    "longitude": "78.8700000"
  },
  {
    "circlename": "Tamilnadu Circle",
    "regionname": "Central Region Trichirapalli",
    "divisionname": "Tiruchirapalli Division",
    "officename": "Thinniam BO",
    "pincode": "621706",
    "officetype": "BO",
    "delivery": "Delivery",
    "district": "TIRUCHIRAPPALLI",
    "statename": "TAMIL NADU",
    "latitude": "10.8900000",
    "longitude": "78.9000000"
  },
  {
    "circlename": "Tamilnadu Circle",
    "regionname": "Central Region Trichirapalli",
    "divisionname": "Tiruchirapalli Division",
    "officename": "Agalanganallur BO",
    "pincode": "621712",
    "officetype": "BO",
    "delivery": "Delivery",
    "district": "TIRUCHIRAPPALLI",
    "statename": "TAMIL NADU",
    "latitude": "10.9000000",
    "longitude": "78.8100000"
  },
  {
    "circlename": "Tamilnadu Circle",
    "regionname": "Central Region Trichirapalli",
    "divisionname": "Tiruchirapalli Division",
    "officename": "Pallapuram BO",
    "pincode": "621712",
    "officetype": "BO",
    "delivery": "Delivery",
    "district": "TIRUCHIRAPPALLI",
    "statename": "TAMIL NADU",
    "latitude": "10.9200000",
    "longitude": "78.8200000"
  },
  {
    "circlename": "Tamilnadu Circle",
    "regionname": "Central Region Trichirapalli",
    "divisionname": "Tiruchirapalli Division",
    "officename": "Periavarsili BO",
    "pincode": "621218",
    "officetype": "BO",
    "delivery": "Delivery",
    "district": "TIRUCHIRAPPALLI",
    "statename": "TAMIL NADU",
    "latitude": "10.8600000",
    "longitude": "78.8000000"
  },
  {
    "circlename": "Tamilnadu Circle",
    "regionname": "Central Region Trichirapalli",
    "divisionname": "Tiruchirapalli Division",
    "officename": "Thinnakulam B.O.",
    "pincode": "621722",
    "officetype": "BO",
    "delivery": "Non Delivery",
    "district": "TIRUCHIRAPPALLI",
    "statename": "TAMIL NADU",
    "latitude": "10.91",
    "longitude": "78.969999999999999"
  },
  {
    "circlename": "Tamilnadu Circle",
    "regionname": "Central Region Trichirapalli",
    "divisionname": "Tiruchirapalli Division",
    "officename": "Jiyapuram BO",
    "pincode": "639101",
    "officetype": "BO",
    "delivery": "Non Delivery",
    "district": "TIRUCHIRAPPALLI",
    "statename": "TAMIL NADU",
    "latitude": "10.8739548",
    "longitude": "78.6097663"
  },
  {
    "circlename": "Tamilnadu Circle",
    "regionname": "Central Region Trichirapalli",
    "divisionname": "Tiruchirapalli Division",
    "officename": "Ariyamangalam BO",
    "pincode": "620010",
    "officetype": "BO",
    "delivery": "Delivery",
    "district": "TIRUCHIRAPPALLI",
    "statename": "TAMIL NADU",
    "latitude": "10.8176927",
    "longitude": "78.7289379"
  },
  {
    "circlename": "Tamilnadu Circle",
    "regionname": "Central Region Trichirapalli",
    "divisionname": "Tiruchirapalli Division",
    "officename": "Koppu BO",
    "pincode": "639103",
    "officetype": "BO",
    "delivery": "Delivery",
    "district": "TIRUCHIRAPPALLI",
    "statename": "TAMIL NADU",
    "latitude": "10.8410745",
    "longitude": "78.5869893"
  },
  {
    "circlename": "Tamilnadu Circle",
    "regionname": "Central Region Trichirapalli",
    "divisionname": "Tiruchirapalli Division",
    "officename": "Asoor BO",
    "pincode": "620015",
    "officetype": "BO",
    "delivery": "Delivery",
    "district": "TIRUCHIRAPPALLI",
    "statename": "TAMIL NADU",
    "latitude": "10.7279650",
    "longitude": "78.8476401"
  },
  {
    "circlename": "Tamilnadu Circle",
    "regionname": "Central Region Trichirapalli",
    "divisionname": "Tiruchirapalli Division",
    "officename": "Ariyavur BO",
    "pincode": "620009",
    "officetype": "BO",
    "delivery": "Delivery",
    "district": "TIRUCHIRAPPALLI",
    "statename": "TAMIL NADU",
    "latitude": "10.7564871",
    "longitude": "78.5812991"
  },
  {
    "circlename": "Tamilnadu Circle",
    "regionname": "Central Region Trichirapalli",
    "divisionname": "Tiruchirapalli Division",
    "officename": "Maruthandakurichi BO",
    "pincode": "620102",
    "officetype": "BO",
    "delivery": "Delivery",
    "district": "TIRUCHIRAPPALLI",
    "statename": "TAMIL NADU",
    "latitude": "10.8420438",
    "longitude": "78.6476205"
  },
  {
    "circlename": "Tamilnadu Circle",
    "regionname": "Central Region Trichirapalli",
    "divisionname": "Tiruchirapalli Division",
    "officename": "Pallakadu BO",
    "pincode": "620102",
    "officetype": "BO",
    "delivery": "Delivery",
    "district": "TIRUCHIRAPPALLI",
    "statename": "TAMIL NADU",
    "latitude": "10.7927573",
    "longitude": "78.5999500"
  },
  {
    "circlename": "Tamilnadu Circle",
    "regionname": "Central Region Trichirapalli",
    "divisionname": "Tiruchirapalli Division",
    "officename": "Koothappar BO",
    "pincode": "620013",
    "officetype": "BO",
    "delivery": "Delivery",
    "district": "TIRUCHIRAPPALLI",
    "statename": "TAMIL NADU",
    "latitude": "10.7958146",
    "longitude": "78.7930355"
  },
  {
    "circlename": "Tamilnadu Circle",
    "regionname": "Central Region Trichirapalli",
    "divisionname": "Srirangam Division",
    "officename": "Turaiyur H.O",
    "pincode": "621010",
    "officetype": "HO",
    "delivery": "Delivery",
    "district": "TIRUCHIRAPPALLI",
    "statename": "TAMIL NADU",
    "latitude": "11.1500000",
    "longitude": "78.6000000"
  },
  {
    "circlename": "Tamilnadu Circle",
    "regionname": "Central Region Trichirapalli",
    "divisionname": "Tiruchirapalli Division",
    "officename": "Lalgudi HO",
    "pincode": "621601",
    "officetype": "HO",
    "delivery": "Delivery",
    "district": "TIRUCHIRAPPALLI",
    "statename": "TAMIL NADU",
    "latitude": "10.8753333",
    "longitude": "78.8152222"
  },
  {
    "circlename": "Tamilnadu Circle",
    "regionname": "Central Region Trichirapalli",
    "divisionname": "Karur Division",
    "officename": "Palakurichi S.O",
    "pincode": "621308",
    "officetype": "PO",
    "delivery": "Delivery",
    "district": "TIRUCHIRAPPALLI",
    "statename": "TAMIL NADU",
    "latitude": "10.4135278",
    "longitude": "78.5087222"
  },
  {
    "circlename": "Tamilnadu Circle",
    "regionname": "Central Region Trichirapalli",
    "divisionname": "Karur Division",
    "officename": "Thiagesaralai S.O",
    "pincode": "621312",
    "officetype": "PO",
    "delivery": "Delivery",
    "district": "TIRUCHIRAPPALLI",
    "statename": "TAMIL NADU",
    "latitude": "10.8584444",
    "longitude": "78.6901944"
  },
  {
    "circlename": "Tamilnadu Circle",
    "regionname": "Central Region Trichirapalli",
    "divisionname": "Karur Division",
    "officename": "Thuvarankurichi S.O",
    "pincode": "621314",
    "officetype": "PO",
    "delivery": "Delivery",
    "district": "TIRUCHIRAPPALLI",
    "statename": "TAMIL NADU",
    "latitude": "10.3771667",
    "longitude": "78.3860000"
  },
  {
    "circlename": "Tamilnadu Circle",
    "regionname": "Central Region Trichirapalli",
    "divisionname": "Srirangam Division",
    "officename": "Balasamudram S.O (Tiruchirappalli)",
    "pincode": "621203",
    "officetype": "PO",
    "delivery": "Delivery",
    "district": "TIRUCHIRAPPALLI",
    "statename": "TAMIL NADU",
    "latitude": "10.9900000",
    "longitude": "78.3200000"
  },
  {
    "circlename": "Tamilnadu Circle",
    "regionname": "Central Region Trichirapalli",
    "divisionname": "Srirangam Division",
    "officename": "EVR Nagar S.O",
    "pincode": "620005",
    "officetype": "PO",
    "delivery": "Non Delivery",
    "district": "TIRUCHIRAPPALLI",
    "statename": "TAMIL NADU",
    "latitude": "10.8500000",
    "longitude": "78.7000000"
  },
  {
    "circlename": "Tamilnadu Circle",
    "regionname": "Central Region Trichirapalli",
    "divisionname": "Srirangam Division",
    "officename": "Gunasilam S.O",
    "pincode": "621204",
    "officetype": "PO",
    "delivery": "Delivery",
    "district": "TIRUCHIRAPPALLI",
    "statename": "TAMIL NADU",
    "latitude": "10.9000000",
    "longitude": "78.5700000"
  },
  {
    "circlename": "Tamilnadu Circle",
    "regionname": "Central Region Trichirapalli",
    "divisionname": "Srirangam Division",
    "officename": "Irungalur S.O",
    "pincode": "621105",
    "officetype": "PO",
    "delivery": "Delivery",
    "district": "TIRUCHIRAPPALLI",
    "statename": "TAMIL NADU",
    "latitude": "10.9400000",
    "longitude": "78.7614167"
  },
  {
    "circlename": "Tamilnadu Circle",
    "regionname": "Central Region Trichirapalli",
    "divisionname": "Srirangam Division",
    "officename": "Manamedu S.O",
    "pincode": "621209",
    "officetype": "PO",
    "delivery": "Delivery",
    "district": "TIRUCHIRAPPALLI",
    "statename": "TAMIL NADU",
    "latitude": "10.9700000",
    "longitude": "78.3900000"
  },
  {
    "circlename": "Tamilnadu Circle",
    "regionname": "Central Region Trichirapalli",
    "divisionname": "Srirangam Division",
    "officename": "Srinivasanagar S.O (Tiruchirappalli)",
    "pincode": "620005",
    "officetype": "PO",
    "delivery": "Non Delivery",
    "district": "TIRUCHIRAPPALLI",
    "statename": "TAMIL NADU",
    "latitude": "10.8500000",
    "longitude": "78.7000000"
  },
  {
    "circlename": "Tamilnadu Circle",
    "regionname": "Central Region Trichirapalli",
    "divisionname": "Srirangam Division",
    "officename": "Tiruvanaikoil S.O",
    "pincode": "620005",
    "officetype": "PO",
    "delivery": "Delivery",
    "district": "TIRUCHIRAPPALLI",
    "statename": "TAMIL NADU",
    "latitude": "10.8500000",
    "longitude": "78.7100000"
  },
  {
    "circlename": "Tamilnadu Circle",
    "regionname": "Central Region Trichirapalli",
    "divisionname": "Srirangam Division",
    "officename": "Mettupalayam S.O",
    "pincode": "621210",
    "officetype": "PO",
    "delivery": "Delivery",
    "district": "TIRUCHIRAPPALLI",
    "statename": "TAMIL NADU",
    "latitude": "11.2600000",
    "longitude": "78.4500000"
  },
  {
    "circlename": "Tamilnadu Circle",
    "regionname": "Central Region Trichirapalli",
    "divisionname": "Srirangam Division",
    "officename": "Puthanampatti S.O",
    "pincode": "621007",
    "officetype": "PO",
    "delivery": "Delivery",
    "district": "TIRUCHIRAPPALLI",
    "statename": "TAMIL NADU",
    "latitude": "11.0700000",
    "longitude": "78.6900000"
  },
  {
    "circlename": "Tamilnadu Circle",
    "regionname": "Central Region Trichirapalli",
    "divisionname": "Srirangam Division",
    "officename": "Sikkathambur S.O",
    "pincode": "621008",
    "officetype": "PO",
    "delivery": "Delivery",
    "district": "TIRUCHIRAPPALLI",
    "statename": "TAMIL NADU",
    "latitude": "11.1900000",
    "longitude": "78.5600000"
  },
  {
    "circlename": "Tamilnadu Circle",
    "regionname": "Central Region Trichirapalli",
    "divisionname": "Srirangam Division",
    "officename": "Turaiyur Bus Stand S.O",
    "pincode": "621010",
    "officetype": "PO",
    "delivery": "Non Delivery",
    "district": "TIRUCHIRAPPALLI",
    "statename": "TAMIL NADU",
    "latitude": "11.1500000",
    "longitude": "78.6000000"
  },
  {
    "circlename": "Tamilnadu Circle",
    "regionname": "Central Region Trichirapalli",
    "divisionname": "Tiruchirapalli Division",
    "officename": "Ambil SO",
    "pincode": "621702",
    "officetype": "PO",
    "delivery": "Delivery",
    "district": "TIRUCHIRAPPALLI",
    "statename": "TAMIL NADU",
    "latitude": "10.8584444",
    "longitude": "78.6901944"
  },
  {
    "circlename": "Tamilnadu Circle",
    "regionname": "Central Region Trichirapalli",
    "divisionname": "Tiruchirapalli Division",
    "officename": "Valady SO",
    "pincode": "621218",
    "officetype": "PO",
    "delivery": "Delivery",
    "district": "TIRUCHIRAPPALLI",
    "statename": "TAMIL NADU",
    "latitude": "10.8735800",
    "longitude": "78.7590800"
  },
  {
    "circlename": "Tamilnadu Circle",
    "regionname": "Central Region Trichirapalli",
    "divisionname": "Tiruchirapalli Division",
    "officename": "Boiler Project  TR SO",
    "pincode": "620014",
    "officetype": "PO",
    "delivery": "Delivery",
    "district": "TIRUCHIRAPPALLI",
    "statename": "TAMIL NADU",
    "latitude": "10.7765000",
    "longitude": "78.7932222"
  },
  {
    "circlename": "Tamilnadu Circle",
    "regionname": "Central Region Trichirapalli",
    "divisionname": "Tiruchirapalli Division",
    "officename": "Craw Ford Colony SO",
    "pincode": "620012",
    "officetype": "PO",
    "delivery": "Non Delivery",
    "district": "TIRUCHIRAPPALLI",
    "statename": "TAMIL NADU",
    "latitude": "10.7815000",
    "longitude": "78.6760556"
  },
  {
    "circlename": "Tamilnadu Circle",
    "regionname": "Central Region Trichirapalli",
    "divisionname": "Tiruchirapalli Division",
    "officename": "KKNagar SO Tiruchirappalli",
    "pincode": "620021",
    "officetype": "PO",
    "delivery": "Delivery",
    "district": "TIRUCHIRAPPALLI",
    "statename": "TAMIL NADU",
    "latitude": "10.8584444",
    "longitude": "78.6901944"
  },
  {
    "circlename": "Tamilnadu Circle",
    "regionname": "Central Region Trichirapalli",
    "divisionname": "Tiruchirapalli Division",
    "officename": "Mannarpuram SO",
    "pincode": "620020",
    "officetype": "PO",
    "delivery": "Non Delivery",
    "district": "TIRUCHIRAPPALLI",
    "statename": "TAMIL NADU",
    "latitude": "10.7887222",
    "longitude": "78.6887222"
  },
  {
    "circlename": "Tamilnadu Circle",
    "regionname": "Central Region Trichirapalli",
    "divisionname": "Tiruchirapalli Division",
    "officename": "Ordnance Estate  TR SO",
    "pincode": "620016",
    "officetype": "PO",
    "delivery": "Delivery",
    "district": "TIRUCHIRAPPALLI",
    "statename": "TAMIL NADU",
    "latitude": "10.7231667",
    "longitude": "78.7802500"
  },
  {
    "circlename": "Tamilnadu Circle",
    "regionname": "Central Region Trichirapalli",
    "divisionname": "Tiruchirapalli Division",
    "officename": "P and T Colony SO Tiruchirappalli",
    "pincode": "620020",
    "officetype": "PO",
    "delivery": "Non Delivery",
    "district": "TIRUCHIRAPPALLI",
    "statename": "TAMIL NADU",
    "latitude": "10.7879054",
    "longitude": "78.6862222"
  },
  {
    "circlename": "Tamilnadu Circle",
    "regionname": "Central Region Trichirapalli",
    "divisionname": "Tiruchirapalli Division",
    "officename": "Dheeran Nagar SO",
    "pincode": "620009",
    "officetype": "PO",
    "delivery": "Non Delivery",
    "district": "TIRUCHIRAPPALLI",
    "statename": "TAMIL NADU",
    "latitude": "10.8113333",
    "longitude": "78.6956667"
  },
  {
    "circlename": "Tamilnadu Circle",
    "regionname": "Central Region Trichirapalli",
    "divisionname": "Tiruchirapalli Division",
    "officename": "Ponniah School Buildings SO",
    "pincode": "620001",
    "officetype": "PO",
    "delivery": "Non Delivery",
    "district": "TIRUCHIRAPPALLI",
    "statename": "TAMIL NADU",
    "latitude": "10.8077222",
    "longitude": "78.7008056"
  },
  {
    "circlename": "Tamilnadu Circle",
    "regionname": "Central Region Trichirapalli",
    "divisionname": "Tiruchirapalli Division",
    "officename": "Rock Fort SO",
    "pincode": "620002",
    "officetype": "PO",
    "delivery": "Non Delivery",
    "district": "TIRUCHIRAPPALLI",
    "statename": "TAMIL NADU",
    "latitude": "10.8271970",
    "longitude": "78.6974420"
  },
  {
    "circlename": "Tamilnadu Circle",
    "regionname": "Central Region Trichirapalli",
    "divisionname": "Tiruchirapalli Division",
    "officename": "Sundararajanagar SO",
    "pincode": "620020",
    "officetype": "PO",
    "delivery": "Non Delivery",
    "district": "TIRUCHIRAPPALLI",
    "statename": "TAMIL NADU",
    "latitude": "10.7843889",
    "longitude": "78.7006944"
  },
  {
    "circlename": "Tamilnadu Circle",
    "regionname": "Central Region Trichirapalli",
    "divisionname": "Tiruchirapalli Division",
    "officename": "Woriur Bazaar SO",
    "pincode": "620003",
    "officetype": "PO",
    "delivery": "Non Delivery",
    "district": "TIRUCHIRAPPALLI",
    "statename": "TAMIL NADU",
    "latitude": "10.8300580",
    "longitude": "78.6755300"
  },
  {
    "circlename": "Tamilnadu Circle",
    "regionname": "Central Region Trichirapalli",
    "divisionname": "Tiruchirapalli Division",
    "officename": "Tamilnadu National Law University S.O",
    "pincode": "620027",
    "officetype": "PO",
    "delivery": "Delivery",
    "district": "TIRUCHIRAPPALLI",
    "statename": "TAMIL NADU",
    "latitude": "10.746971",
    "longitude": "78.600125"
  },
  {
    "circlename": "Tamilnadu Circle",
    "regionname": "Central Region Trichirapalli",
    "divisionname": "Karur Division",
    "officename": "Mohavanur B.O",
    "pincode": "621302",
    "officetype": "BO",
    "delivery": "Delivery",
    "district": "TIRUCHIRAPPALLI",
    "statename": "TAMIL NADU",
    "latitude": "10.6200000",
    "longitude": "78.2900000"
  },
  {
    "circlename": "Tamilnadu Circle",
    "regionname": "Central Region Trichirapalli",
    "divisionname": "Karur Division",
    "officename": "Palayakottai B.O",
    "pincode": "621302",
    "officetype": "BO",
    "delivery": "Delivery",
    "district": "TIRUCHIRAPPALLI",
    "statename": "TAMIL NADU",
    "latitude": "10.6000000",
    "longitude": "78.3200000"
  },
  {
    "circlename": "Tamilnadu Circle",
    "regionname": "Central Region Trichirapalli",
    "divisionname": "Karur Division",
    "officename": "Porathakudi B.O",
    "pincode": "621302",
    "officetype": "BO",
    "delivery": "Delivery",
    "district": "TIRUCHIRAPPALLI",
    "statename": "TAMIL NADU",
    "latitude": "10.5800000",
    "longitude": "78.3300000"
  },
  {
    "circlename": "Tamilnadu Circle",
    "regionname": "Central Region Trichirapalli",
    "divisionname": "Karur Division",
    "officename": "Kallupatti B.O",
    "pincode": "621305",
    "officetype": "BO",
    "delivery": "Delivery",
    "district": "TIRUCHIRAPPALLI",
    "statename": "TAMIL NADU",
    "latitude": "10.4300000",
    "longitude": "78.4300000"
  },
  {
    "circlename": "Tamilnadu Circle",
    "regionname": "Central Region Trichirapalli",
    "divisionname": "Karur Division",
    "officename": "Yagapuram B.O",
    "pincode": "621305",
    "officetype": "BO",
    "delivery": "Delivery",
    "district": "TIRUCHIRAPPALLI",
    "statename": "TAMIL NADU",
    "latitude": "10.4200000",
    "longitude": "78.4300000"
  },
  {
    "circlename": "Tamilnadu Circle",
    "regionname": "Central Region Trichirapalli",
    "divisionname": "Karur Division",
    "officename": "Poigaipatti B.O",
    "pincode": "621306",
    "officetype": "BO",
    "delivery": "Delivery",
    "district": "TIRUCHIRAPPALLI",
    "statename": "TAMIL NADU",
    "latitude": "10.5600000",
    "longitude": "78.4000000"
  },
  {
    "circlename": "Tamilnadu Circle",
    "regionname": "Central Region Trichirapalli",
    "divisionname": "Karur Division",
    "officename": "Ayanporuvai B.O",
    "pincode": "621308",
    "officetype": "BO",
    "delivery": "Delivery",
    "district": "TIRUCHIRAPPALLI",
    "statename": "TAMIL NADU",
    "latitude": "10.4000000",
    "longitude": "78.5300000"
  },
  {
    "circlename": "Tamilnadu Circle",
    "regionname": "Central Region Trichirapalli",
    "divisionname": "Karur Division",
    "officename": "Thenur (Manaparai) B.O",
    "pincode": "621308",
    "officetype": "BO",
    "delivery": "Delivery",
    "district": "TIRUCHIRAPPALLI",
    "statename": "TAMIL NADU",
    "latitude": "10.4600000",
    "longitude": "78.5100000"
  },
  {
    "circlename": "Tamilnadu Circle",
    "regionname": "Central Region Trichirapalli",
    "divisionname": "Karur Division",
    "officename": "Karumalai B.O",
    "pincode": "621310",
    "officetype": "BO",
    "delivery": "Delivery",
    "district": "TIRUCHIRAPPALLI",
    "statename": "TAMIL NADU",
    "latitude": "10.4200000",
    "longitude": "78.3600000"
  },
  {
    "circlename": "Tamilnadu Circle",
    "regionname": "Central Region Trichirapalli",
    "divisionname": "Karur Division",
    "officename": "Firka Kilaiyur B.O",
    "pincode": "621312",
    "officetype": "BO",
    "delivery": "Delivery",
    "district": "TIRUCHIRAPPALLI",
    "statename": "TAMIL NADU",
    "latitude": "10.5800000",
    "longitude": "78.4500000"
  },
  {
    "circlename": "Tamilnadu Circle",
    "regionname": "Central Region Trichirapalli",
    "divisionname": "Karur Division",
    "officename": "Palayapalayam B.O",
    "pincode": "621314",
    "officetype": "BO",
    "delivery": "Delivery",
    "district": "TIRUCHIRAPPALLI",
    "statename": "TAMIL NADU",
    "latitude": "10.3600000",
    "longitude": "78.3600000"
  },
  {
    "circlename": "Tamilnadu Circle",
    "regionname": "Central Region Trichirapalli",
    "divisionname": "Karur Division",
    "officename": "Kalpatti B.O",
    "pincode": "621315",
    "officetype": "BO",
    "delivery": "Delivery",
    "district": "TIRUCHIRAPPALLI",
    "statename": "TAMIL NADU",
    "latitude": "10.5100000",
    "longitude": "78.2100000"
  },
  {
    "circlename": "Tamilnadu Circle",
    "regionname": "Central Region Trichirapalli",
    "divisionname": "Karur Division",
    "officename": "Periya Anaikaraipatti B.O",
    "pincode": "621315",
    "officetype": "BO",
    "delivery": "Delivery",
    "district": "TIRUCHIRAPPALLI",
    "statename": "TAMIL NADU",
    "latitude": "10.5900000",
    "longitude": "78.3000000"
  },
  {
    "circlename": "Tamilnadu Circle",
    "regionname": "Central Region Trichirapalli",
    "divisionname": "Srirangam Division",
    "officename": "Thinnakonam B.O",
    "pincode": "621202",
    "officetype": "BO",
    "delivery": "Delivery",
    "district": "TIRUCHIRAPPALLI",
    "statename": "TAMIL NADU",
    "latitude": "10.9600000",
    "longitude": "78.5300000"
  },
  {
    "circlename": "Tamilnadu Circle",
    "regionname": "Central Region Trichirapalli",
    "divisionname": "Srirangam Division",
    "officename": "Kuthur B.O",
    "pincode": "621216",
    "officetype": "BO",
    "delivery": "Delivery",
    "district": "TIRUCHIRAPPALLI",
    "statename": "TAMIL NADU",
    "latitude": "10.8900000",
    "longitude": "78.7200000"
  },
  {
    "circlename": "Tamilnadu Circle",
    "regionname": "Central Region Trichirapalli",
    "divisionname": "Srirangam Division",
    "officename": "Nedungur B.O",
    "pincode": "621105",
    "officetype": "BO",
    "delivery": "Delivery",
    "district": "TIRUCHIRAPPALLI",
    "statename": "TAMIL NADU",
    "latitude": "11.0600000",
    "longitude": "78.8200000"
  },
  {
    "circlename": "Tamilnadu Circle",
    "regionname": "Central Region Trichirapalli",
    "divisionname": "Srirangam Division",
    "officename": "Siruganur B.O",
    "pincode": "621105",
    "officetype": "BO",
    "delivery": "Delivery",
    "district": "TIRUCHIRAPPALLI",
    "statename": "TAMIL NADU",
    "latitude": "11.0100000",
    "longitude": "78.8000000"
  },
  {
    "circlename": "Tamilnadu Circle",
    "regionname": "Central Region Trichirapalli",
    "divisionname": "Srirangam Division",
    "officename": "Kidaram B.O",
    "pincode": "621207",
    "officetype": "BO",
    "delivery": "Delivery",
    "district": "TIRUCHIRAPPALLI",
    "statename": "TAMIL NADU",
    "latitude": "11.0500000",
    "longitude": "78.1800000"
  },
  {
    "circlename": "Tamilnadu Circle",
    "regionname": "Central Region Trichirapalli",
    "divisionname": "Srirangam Division",
    "officename": "Appanallur B.O",
    "pincode": "621208",
    "officetype": "BO",
    "delivery": "Non Delivery",
    "district": "TIRUCHIRAPPALLI",
    "statename": "TAMIL NADU",
    "latitude": "11.0300000",
    "longitude": "78.3900000"
  },
  {
    "circlename": "Tamilnadu Circle",
    "regionname": "Central Region Trichirapalli",
    "divisionname": "Srirangam Division",
    "officename": "Kalpalayam B.O",
    "pincode": "621005",
    "officetype": "BO",
    "delivery": "Delivery",
    "district": "TIRUCHIRAPPALLI",
    "statename": "TAMIL NADU",
    "latitude": "10.9200000",
    "longitude": "78.7100000"
  },
  {
    "circlename": "Tamilnadu Circle",
    "regionname": "Central Region Trichirapalli",
    "divisionname": "Srirangam Division",
    "officename": "Tattamangalam B.O",
    "pincode": "621005",
    "officetype": "BO",
    "delivery": "Delivery",
    "district": "TIRUCHIRAPPALLI",
    "statename": "TAMIL NADU",
    "latitude": "10.9900000",
    "longitude": "78.7100000"
  },
  {
    "circlename": "Tamilnadu Circle",
    "regionname": "Central Region Trichirapalli",
    "divisionname": "Srirangam Division",
    "officename": "Thiruvengimalai B.O",
    "pincode": "621209",
    "officetype": "BO",
    "delivery": "Delivery",
    "district": "TIRUCHIRAPPALLI",
    "statename": "TAMIL NADU",
    "latitude": "10.9700000",
    "longitude": "78.4100000"
  },
  {
    "circlename": "Tamilnadu Circle",
    "regionname": "Central Region Trichirapalli",
    "divisionname": "Srirangam Division",
    "officename": "Valavandhi B.O",
    "pincode": "621211",
    "officetype": "BO",
    "delivery": "Delivery",
    "district": "TIRUCHIRAPPALLI",
    "statename": "TAMIL NADU",
    "latitude": "11.0200000",
    "longitude": "78.4900000"
  },
  {
    "circlename": "Tamilnadu Circle",
    "regionname": "Central Region Trichirapalli",
    "divisionname": "Srirangam Division",
    "officename": "Pallividai B.O",
    "pincode": "621112",
    "officetype": "BO",
    "delivery": "Delivery",
    "district": "TIRUCHIRAPPALLI",
    "statename": "TAMIL NADU",
    "latitude": "10.9000000",
    "longitude": "78.7300000"
  },
  {
    "circlename": "Tamilnadu Circle",
    "regionname": "Central Region Trichirapalli",
    "divisionname": "Srirangam Division",
    "officename": "Arangoor B.O",
    "pincode": "621215",
    "officetype": "BO",
    "delivery": "Delivery",
    "district": "TIRUCHIRAPPALLI",
    "statename": "TAMIL NADU",
    "latitude": "11.0100000",
    "longitude": "78.3600000"
  },
  {
    "circlename": "Tamilnadu Circle",
    "regionname": "Central Region Trichirapalli",
    "divisionname": "Srirangam Division",
    "officename": "Sirupathur B.O",
    "pincode": "621009",
    "officetype": "BO",
    "delivery": "Delivery",
    "district": "TIRUCHIRAPPALLI",
    "statename": "TAMIL NADU",
    "latitude": "10.9800000",
    "longitude": "78.7000000"
  },
  {
    "circlename": "Tamilnadu Circle",
    "regionname": "Central Region Trichirapalli",
    "divisionname": "Srirangam Division",
    "officename": "Devarappampatti B.O",
    "pincode": "621206",
    "officetype": "BO",
    "delivery": "Delivery",
    "district": "TIRUCHIRAPPALLI",
    "statename": "TAMIL NADU",
    "latitude": "11.0900000",
    "longitude": "78.5100000"
  },
  {
    "circlename": "Tamilnadu Circle",
    "regionname": "Central Region Trichirapalli",
    "divisionname": "Srirangam Division",
    "officename": "Veeramachampatti B.O",
    "pincode": "621206",
    "officetype": "BO",
    "delivery": "Delivery",
    "district": "TIRUCHIRAPPALLI",
    "statename": "TAMIL NADU",
    "latitude": "11.1200000",
    "longitude": "78.5300000"
  },
  {
    "circlename": "Tamilnadu Circle",
    "regionname": "Central Region Trichirapalli",
    "divisionname": "Srirangam Division",
    "officename": "Alagapuri B.O",
    "pincode": "621210",
    "officetype": "BO",
    "delivery": "Delivery",
    "district": "TIRUCHIRAPPALLI",
    "statename": "TAMIL NADU",
    "latitude": "11.2000000",
    "longitude": "78.4400000"
  },
  {
    "circlename": "Tamilnadu Circle",
    "regionname": "Central Region Trichirapalli",
    "divisionname": "Srirangam Division",
    "officename": "Ammapatti B.O",
    "pincode": "621014",
    "officetype": "BO",
    "delivery": "Delivery",
    "district": "TIRUCHIRAPPALLI",
    "statename": "TAMIL NADU",
    "latitude": "11.1200000",
    "longitude": "78.6100000"
  },
  {
    "circlename": "Tamilnadu Circle",
    "regionname": "Central Region Trichirapalli",
    "divisionname": "Srirangam Division",
    "officename": "Kaliyampatti B.O",
    "pincode": "621014",
    "officetype": "BO",
    "delivery": "Delivery",
    "district": "TIRUCHIRAPPALLI",
    "statename": "TAMIL NADU",
    "latitude": "11.0900000",
    "longitude": "78.5800000"
  },
  {
    "circlename": "Tamilnadu Circle",
    "regionname": "Central Region Trichirapalli",
    "divisionname": "Srirangam Division",
    "officename": "Thinnanur B.O",
    "pincode": "621006",
    "officetype": "BO",
    "delivery": "Delivery",
    "district": "TIRUCHIRAPPALLI",
    "statename": "TAMIL NADU",
    "latitude": "11.0500000",
    "longitude": "78.6400000"
  },
  {
    "circlename": "Tamilnadu Circle",
    "regionname": "Central Region Trichirapalli",
    "divisionname": "Srirangam Division",
    "officename": "Abinimangalam B.O",
    "pincode": "621007",
    "officetype": "BO",
    "delivery": "Delivery",
    "district": "TIRUCHIRAPPALLI",
    "statename": "TAMIL NADU",
    "latitude": "11.0700000",
    "longitude": "78.6700000"
  },
  {
    "circlename": "Tamilnadu Circle",
    "regionname": "Central Region Trichirapalli",
    "divisionname": "Srirangam Division",
    "officename": "Murukkur B.O",
    "pincode": "621008",
    "officetype": "BO",
    "delivery": "Delivery",
    "district": "TIRUCHIRAPPALLI",
    "statename": "TAMIL NADU",
    "latitude": "11.1800000",
    "longitude": "78.5700000"
  },
  {
    "circlename": "Tamilnadu Circle",
    "regionname": "Central Region Trichirapalli",
    "divisionname": "Srirangam Division",
    "officename": "Okkarai B.O",
    "pincode": "621008",
    "officetype": "BO",
    "delivery": "Delivery",
    "district": "TIRUCHIRAPPALLI",
    "statename": "TAMIL NADU",
    "latitude": "11.2100000",
    "longitude": "78.5400000"
  },
  {
    "circlename": "Tamilnadu Circle",
    "regionname": "Central Region Trichirapalli",
    "divisionname": "Srirangam Division",
    "officename": "Venkatesapuram B.O",
    "pincode": "621008",
    "officetype": "BO",
    "delivery": "Delivery",
    "district": "TIRUCHIRAPPALLI",
    "statename": "TAMIL NADU",
    "latitude": "11.1500000",
    "longitude": "78.5800000"
  },
  {
    "circlename": "Tamilnadu Circle",
    "regionname": "Central Region Trichirapalli",
    "divisionname": "Srirangam Division",
    "officename": "T pudupatti B.O",
    "pincode": "621217",
    "officetype": "BO",
    "delivery": "Delivery",
    "district": "TIRUCHIRAPPALLI",
    "statename": "TAMIL NADU",
    "latitude": "11.0300000",
    "longitude": "78.5600000"
  },
  {
    "circlename": "Tamilnadu Circle",
    "regionname": "Central Region Trichirapalli",
    "divisionname": "Srirangam Division",
    "officename": "Thiruthalaiyur B.O",
    "pincode": "621217",
    "officetype": "BO",
    "delivery": "Delivery",
    "district": "TIRUCHIRAPPALLI",
    "statename": "TAMIL NADU",
    "latitude": "11.0400000",
    "longitude": "78.5500000"
  },
  {
    "circlename": "Tamilnadu Circle",
    "regionname": "Central Region Trichirapalli",
    "divisionname": "Srirangam Division",
    "officename": "Valasiramani B.O",
    "pincode": "621214",
    "officetype": "BO",
    "delivery": "Delivery",
    "district": "TIRUCHIRAPPALLI",
    "statename": "TAMIL NADU",
    "latitude": "11.1300000",
    "longitude": "78.3600000"
  },
  {
    "circlename": "Tamilnadu Circle",
    "regionname": "Central Region Trichirapalli",
    "divisionname": "Srirangam Division",
    "officename": "Sobanapuram B.O",
    "pincode": "621011",
    "officetype": "BO",
    "delivery": "Delivery",
    "district": "TIRUCHIRAPPALLI",
    "statename": "TAMIL NADU",
    "latitude": "11.2800000",
    "longitude": "78.5200000"
  },
  {
    "circlename": "Tamilnadu Circle",
    "regionname": "Central Region Trichirapalli",
    "divisionname": "Srirangam Division",
    "officename": "T.Baderpettai B.O",
    "pincode": "621012",
    "officetype": "BO",
    "delivery": "Delivery",
    "district": "TIRUCHIRAPPALLI",
    "statename": "TAMIL NADU",
    "latitude": "11.2000000",
    "longitude": "78.4800000"
  },
  {
    "circlename": "Tamilnadu Circle",
    "regionname": "Central Region Trichirapalli",
    "divisionname": "Tiruchirapalli Division",
    "officename": "Alangudi Mahajanam BO",
    "pincode": "621702",
    "officetype": "BO",
    "delivery": "Delivery",
    "district": "TIRUCHIRAPPALLI",
    "statename": "TAMIL NADU",
    "latitude": "11.0600000",
    "longitude": "79.2100000"
  },
  {
    "circlename": "Tamilnadu Circle",
    "regionname": "Central Region Trichirapalli",
    "divisionname": "Tiruchirapalli Division",
    "officename": "Ariyur BO",
    "pincode": "621702",
    "officetype": "BO",
    "delivery": "Delivery",
    "district": "TIRUCHIRAPPALLI",
    "statename": "TAMIL NADU",
    "latitude": "10.9100000",
    "longitude": "78.9300000"
  },
  {
    "circlename": "Tamilnadu Circle",
    "regionname": "Central Region Trichirapalli",
    "divisionname": "Tiruchirapalli Division",
    "officename": "Konnagudi BO",
    "pincode": "621702",
    "officetype": "BO",
    "delivery": "Delivery",
    "district": "TIRUCHIRAPPALLI",
    "statename": "TAMIL NADU",
    "latitude": "10.8900000",
    "longitude": "78.9100000"
  },
  {
    "circlename": "Tamilnadu Circle",
    "regionname": "Central Region Trichirapalli",
    "divisionname": "Tiruchirapalli Division",
    "officename": "Kuhur BO",
    "pincode": "621703",
    "officetype": "BO",
    "delivery": "Delivery",
    "district": "TIRUCHIRAPPALLI",
    "statename": "TAMIL NADU",
    "latitude": "10.8900000",
    "longitude": "78.9000000"
  },
  {
    "circlename": "Tamilnadu Circle",
    "regionname": "Central Region Trichirapalli",
    "divisionname": "Tiruchirapalli Division",
    "officename": "Sivankoil BO",
    "pincode": "621703",
    "officetype": "BO",
    "delivery": "Non Delivery",
    "district": "TIRUCHIRAPPALLI",
    "statename": "TAMIL NADU",
    "latitude": "10.8900000",
    "longitude": "78.7900000"
  },
  {
    "circlename": "Tamilnadu Circle",
    "regionname": "Central Region Trichirapalli",
    "divisionname": "Tiruchirapalli Division",
    "officename": "Thirumangalam BO",
    "pincode": "621703",
    "officetype": "BO",
    "delivery": "Delivery",
    "district": "TIRUCHIRAPPALLI",
    "statename": "TAMIL NADU",
    "latitude": "10.8900000",
    "longitude": "78.7900000"
  },
  {
    "circlename": "Tamilnadu Circle",
    "regionname": "Central Region Trichirapalli",
    "divisionname": "Tiruchirapalli Division",
    "officename": "Malvoy BO",
    "pincode": "621652",
    "officetype": "BO",
    "delivery": "Delivery",
    "district": "TIRUCHIRAPPALLI",
    "statename": "TAMIL NADU",
    "latitude": "11.0500000",
    "longitude": "78.9600000"
  },
  {
    "circlename": "Tamilnadu Circle",
    "regionname": "Central Region Trichirapalli",
    "divisionname": "Tiruchirapalli Division",
    "officename": "Malvoy Kannanur BO",
    "pincode": "621652",
    "officetype": "BO",
    "delivery": "Delivery",
    "district": "TIRUCHIRAPPALLI",
    "statename": "TAMIL NADU",
    "latitude": "11.0700000",
    "longitude": "78.9700000"
  },
  {
    "circlename": "Tamilnadu Circle",
    "regionname": "Central Region Trichirapalli",
    "divisionname": "Tiruchirapalli Division",
    "officename": "Peruvalappur BO",
    "pincode": "621651",
    "officetype": "BO",
    "delivery": "Delivery",
    "district": "TIRUCHIRAPPALLI",
    "statename": "TAMIL NADU",
    "latitude": "11.0200000",
    "longitude": "78.8700000"
  },
  {
    "circlename": "Tamilnadu Circle",
    "regionname": "Central Region Trichirapalli",
    "divisionname": "Tiruchirapalli Division",
    "officename": "Vadugarpet BO",
    "pincode": "621651",
    "officetype": "BO",
    "delivery": "Delivery",
    "district": "TIRUCHIRAPPALLI",
    "statename": "TAMIL NADU",
    "latitude": "10.9700000",
    "longitude": "78.9400000"
  },
  {
    "circlename": "Tamilnadu Circle",
    "regionname": "Central Region Trichirapalli",
    "divisionname": "Tiruchirapalli Division",
    "officename": "Pudurpalayam BO",
    "pincode": "621711",
    "officetype": "BO",
    "delivery": "Delivery",
    "district": "TIRUCHIRAPPALLI",
    "statename": "TAMIL NADU",
    "latitude": "10.9400000",
    "longitude": "78.9500000"
  },
  {
    "circlename": "Tamilnadu Circle",
    "regionname": "Central Region Trichirapalli",
    "divisionname": "Tiruchirapalli Division",
    "officename": "Punjai Sangentai BO",
    "pincode": "621711",
    "officetype": "BO",
    "delivery": "Delivery",
    "district": "TIRUCHIRAPPALLI",
    "statename": "TAMIL NADU",
    "latitude": "10.9500000",
    "longitude": "78.8800000"
  },
  {
    "circlename": "Tamilnadu Circle",
    "regionname": "Central Region Trichirapalli",
    "divisionname": "Tiruchirapalli Division",
    "officename": "Vandalaigudalur BO",
    "pincode": "621711",
    "officetype": "BO",
    "delivery": "Delivery",
    "district": "TIRUCHIRAPPALLI",
    "statename": "TAMIL NADU",
    "latitude": "10.9800000",
    "longitude": "78.8700000"
  },
  {
    "circlename": "Tamilnadu Circle",
    "regionname": "Central Region Trichirapalli",
    "divisionname": "Tiruchirapalli Division",
    "officename": "Thachankurichi BO",
    "pincode": "621712",
    "officetype": "BO",
    "delivery": "Delivery",
    "district": "TIRUCHIRAPPALLI",
    "statename": "TAMIL NADU",
    "latitude": "10.9300000",
    "longitude": "78.8100000"
  },
  {
    "circlename": "Tamilnadu Circle",
    "regionname": "Central Region Trichirapalli",
    "divisionname": "Tiruchirapalli Division",
    "officename": "Palanganangudi BO",
    "pincode": "620025",
    "officetype": "BO",
    "delivery": "Delivery",
    "district": "TIRUCHIRAPPALLI",
    "statename": "TAMIL NADU",
    "latitude": "10.7169188",
    "longitude": "78.8178416"
  },
  {
    "circlename": "Tamilnadu Circle",
    "regionname": "Central Region Trichirapalli",
    "divisionname": "Tiruchirapalli Division",
    "officename": "Suriyur BO",
    "pincode": "620025",
    "officetype": "BO",
    "delivery": "Delivery",
    "district": "TIRUCHIRAPPALLI",
    "statename": "TAMIL NADU",
    "latitude": "10.6612277",
    "longitude": "78.7891892"
  },
  {
    "circlename": "Tamilnadu Circle",
    "regionname": "Central Region Trichirapalli",
    "divisionname": "Tiruchirapalli Division",
    "officename": "Alathur BO",
    "pincode": "620011",
    "officetype": "BO",
    "delivery": "Delivery",
    "district": "TIRUCHIRAPPALLI",
    "statename": "TAMIL NADU",
    "latitude": "10.7827331",
    "longitude": "78.7447087"
  },
  {
    "circlename": "Tamilnadu Circle",
    "regionname": "Central Region Trichirapalli",
    "divisionname": "Tiruchirapalli Division",
    "officename": "Kambarasampettai BO",
    "pincode": "620101",
    "officetype": "BO",
    "delivery": "Delivery",
    "district": "TIRUCHIRAPPALLI",
    "statename": "TAMIL NADU",
    "latitude": "10.8511173",
    "longitude": "78.6742241"
  },
  {
    "circlename": "Tamilnadu Circle",
    "regionname": "Central Region Trichirapalli",
    "divisionname": "Tiruchirapalli Division",
    "officename": "Thuvakudi BO",
    "pincode": "620015",
    "officetype": "BO",
    "delivery": "Delivery",
    "district": "TIRUCHIRAPPALLI",
    "statename": "TAMIL NADU",
    "latitude": "10.7474927",
    "longitude": "78.8203437"
  },
  {
    "circlename": "Tamilnadu Circle",
    "regionname": "Central Region Trichirapalli",
    "divisionname": "Tiruchirapalli Division",
    "officename": "Tirunedungulam BO",
    "pincode": "620015",
    "officetype": "BO",
    "delivery": "Delivery",
    "district": "TIRUCHIRAPPALLI",
    "statename": "TAMIL NADU",
    "latitude": "10.7712232",
    "longitude": "78.8521260"
  },
  {
    "circlename": "Tamilnadu Circle",
    "regionname": "Central Region Trichirapalli",
    "divisionname": "Tiruchirapalli Division",
    "officename": "Valavandankottai BO",
    "pincode": "620015",
    "officetype": "BO",
    "delivery": "Delivery",
    "district": "TIRUCHIRAPPALLI",
    "statename": "TAMIL NADU",
    "latitude": "10.7607197",
    "longitude": "78.8358489"
  },
  {
    "circlename": "Tamilnadu Circle",
    "regionname": "Central Region Trichirapalli",
    "divisionname": "Tiruchirapalli Division",
    "officename": "Thayanur BO",
    "pincode": "620102",
    "officetype": "BO",
    "delivery": "Delivery",
    "district": "TIRUCHIRAPPALLI",
    "statename": "TAMIL NADU",
    "latitude": "10.7864865",
    "longitude": "78.5989890"
  },
  {
    "circlename": "Tamilnadu Circle",
    "regionname": "Central Region Trichirapalli",
    "divisionname": "Tiruchirapalli Division",
    "officename": "Gundur BO",
    "pincode": "620007",
    "officetype": "BO",
    "delivery": "Delivery",
    "district": "TIRUCHIRAPPALLI",
    "statename": "TAMIL NADU",
    "latitude": "10.7175793",
    "longitude": "78.7244485"
  },
  {
    "circlename": "Tamilnadu Circle",
    "regionname": "Central Region Trichirapalli",
    "divisionname": "Tiruchirapalli Division",
    "officename": "Salainagar BO",
    "pincode": "620003",
    "officetype": "BO",
    "delivery": "Non Delivery",
    "district": "TIRUCHIRAPPALLI",
    "statename": "TAMIL NADU",
    "latitude": "10.8284241",
    "longitude": "78.6809259"
  },
  {
    "circlename": "Tamilnadu Circle",
    "regionname": "Central Region Trichirapalli",
    "divisionname": "Tiruchirapalli Division",
    "officename": "Tiruchirappalli HO",
    "pincode": "620001",
    "officetype": "HO",
    "delivery": "Delivery",
    "district": "TIRUCHIRAPPALLI",
    "statename": "TAMIL NADU",
    "latitude": "10.8013333",
    "longitude": "78.6891111"
  },
  {
    "circlename": "Tamilnadu Circle",
    "regionname": "Central Region Trichirapalli",
    "divisionname": "Karur Division",
    "officename": "Manaparai S.O",
    "pincode": "621306",
    "officetype": "PO",
    "delivery": "Delivery",
    "district": "TIRUCHIRAPPALLI",
    "statename": "TAMIL NADU",
    "latitude": "10.6051111",
    "longitude": "78.4156667"
  },
  {
    "circlename": "Tamilnadu Circle",
    "regionname": "Central Region Trichirapalli",
    "divisionname": "Srirangam Division",
    "officename": "Manachanalloor S.O",
    "pincode": "621005",
    "officetype": "PO",
    "delivery": "Delivery",
    "district": "TIRUCHIRAPPALLI",
    "statename": "TAMIL NADU",
    "latitude": "10.9100000",
    "longitude": "78.7000000"
  },
  {
    "circlename": "Tamilnadu Circle",
    "regionname": "Central Region Trichirapalli",
    "divisionname": "Srirangam Division",
    "officename": "Renganagar S.O",
    "pincode": "620006",
    "officetype": "PO",
    "delivery": "Non Delivery",
    "district": "TIRUCHIRAPPALLI",
    "statename": "TAMIL NADU",
    "latitude": "10.8563880",
    "longitude": "78.6900000"
  },
  {
    "circlename": "Tamilnadu Circle",
    "regionname": "Central Region Trichirapalli",
    "divisionname": "Srirangam Division",
    "officename": "Samayapuram S.O",
    "pincode": "621112",
    "officetype": "PO",
    "delivery": "Delivery",
    "district": "TIRUCHIRAPPALLI",
    "statename": "TAMIL NADU",
    "latitude": "10.9200000",
    "longitude": "78.7400000"
  },
  {
    "circlename": "Tamilnadu Circle",
    "regionname": "Central Region Trichirapalli",
    "divisionname": "Srirangam Division",
    "officename": "Thottiam S.O",
    "pincode": "621215",
    "officetype": "PO",
    "delivery": "Delivery",
    "district": "TIRUCHIRAPPALLI",
    "statename": "TAMIL NADU",
    "latitude": "10.9900000",
    "longitude": "78.3400000"
  },
  {
    "circlename": "Tamilnadu Circle",
    "regionname": "Central Region Trichirapalli",
    "divisionname": "Srirangam Division",
    "officename": "Pagalavadi S.O",
    "pincode": "621014",
    "officetype": "PO",
    "delivery": "Delivery",
    "district": "TIRUCHIRAPPALLI",
    "statename": "TAMIL NADU",
    "latitude": "11.0800000",
    "longitude": "78.6000000"
  },
  {
    "circlename": "Tamilnadu Circle",
    "regionname": "Central Region Trichirapalli",
    "divisionname": "Srirangam Division",
    "officename": "Thathiengarpet S.O",
    "pincode": "621214",
    "officetype": "PO",
    "delivery": "Delivery",
    "district": "TIRUCHIRAPPALLI",
    "statename": "TAMIL NADU",
    "latitude": "11.1200000",
    "longitude": "78.4500000"
  },
  {
    "circlename": "Tamilnadu Circle",
    "regionname": "Central Region Trichirapalli",
    "divisionname": "Srirangam Division",
    "officename": "Vyrichettipalayam S.O",
    "pincode": "621012",
    "officetype": "PO",
    "delivery": "Delivery",
    "district": "TIRUCHIRAPPALLI",
    "statename": "TAMIL NADU",
    "latitude": "11.2900000",
    "longitude": "78.4900000"
  },
  {
    "circlename": "Tamilnadu Circle",
    "regionname": "Central Region Trichirapalli",
    "divisionname": "Tiruchirapalli Division",
    "officename": "Angarai SO",
    "pincode": "621703",
    "officetype": "PO",
    "delivery": "Delivery",
    "district": "TIRUCHIRAPPALLI",
    "statename": "TAMIL NADU",
    "latitude": "10.8584444",
    "longitude": "78.6901944"
  },
  {
    "circlename": "Tamilnadu Circle",
    "regionname": "Central Region Trichirapalli",
    "divisionname": "Tiruchirapalli Division",
    "officename": "Kallagam SO",
    "pincode": "621653",
    "officetype": "PO",
    "delivery": "Delivery",
    "district": "TIRUCHIRAPPALLI",
    "statename": "TAMIL NADU",
    "latitude": "10.8584444",
    "longitude": "78.6901944"
  },
  {
    "circlename": "Tamilnadu Circle",
    "regionname": "Central Region Trichirapalli",
    "divisionname": "Tiruchirapalli Division",
    "officename": "Kattur Puvalur SO",
    "pincode": "621706",
    "officetype": "PO",
    "delivery": "Delivery",
    "district": "TIRUCHIRAPPALLI",
    "statename": "TAMIL NADU",
    "latitude": "10.8958220",
    "longitude": "78.8558270"
  },
  {
    "circlename": "Tamilnadu Circle",
    "regionname": "Central Region Trichirapalli",
    "divisionname": "Tiruchirapalli Division",
    "officename": "Puvalur SO",
    "pincode": "621712",
    "officetype": "PO",
    "delivery": "Delivery",
    "district": "TIRUCHIRAPPALLI",
    "statename": "TAMIL NADU",
    "latitude": "10.8980000",
    "longitude": "78.8315300"
  },
  {
    "circlename": "Tamilnadu Circle",
    "regionname": "Central Region Trichirapalli",
    "divisionname": "Tiruchirapalli Division",
    "officename": "Pudur Uthamanur SO",
    "pincode": "621712",
    "officetype": "PO",
    "delivery": "Non Delivery",
    "district": "TIRUCHIRAPPALLI",
    "statename": "TAMIL NADU",
    "latitude": "10.93",
    "longitude": "78.81"
  },
  {
    "circlename": "Tamilnadu Circle",
    "regionname": "Central Region Trichirapalli",
    "divisionname": "Tiruchirapalli Division",
    "officename": "Administrative OfficeBHEL SO",
    "pincode": "620014",
    "officetype": "PO",
    "delivery": "Non Delivery",
    "district": "TIRUCHIRAPPALLI",
    "statename": "TAMIL NADU",
    "latitude": "10.7760556",
    "longitude": "78.7923889"
  },
  {
    "circlename": "Tamilnadu Circle",
    "regionname": "Central Region Trichirapalli",
    "divisionname": "Tiruchirapalli Division",
    "officename": "Bharathidasan University SO",
    "pincode": "620024",
    "officetype": "PO",
    "delivery": "Delivery",
    "district": "TIRUCHIRAPPALLI",
    "statename": "TAMIL NADU",
    "latitude": "10.6759444",
    "longitude": "78.7431111"
  },
  {
    "circlename": "Tamilnadu Circle",
    "regionname": "Central Region Trichirapalli",
    "divisionname": "Tiruchirapalli Division",
    "officename": "Golden Rock North SO",
    "pincode": "620004",
    "officetype": "PO",
    "delivery": "Non Delivery",
    "district": "TIRUCHIRAPPALLI",
    "statename": "TAMIL NADU",
    "latitude": "10.7943611",
    "longitude": "78.7277222"
  },
  {
    "circlename": "Tamilnadu Circle",
    "regionname": "Central Region Trichirapalli",
    "divisionname": "Tiruchirapalli Division",
    "officename": "Industrial Colony SO",
    "pincode": "620010",
    "officetype": "PO",
    "delivery": "Delivery",
    "district": "TIRUCHIRAPPALLI",
    "statename": "TAMIL NADU",
    "latitude": "10.6463056",
    "longitude": "78.7212500"
  },
  {
    "circlename": "Tamilnadu Circle",
    "regionname": "Central Region Trichirapalli",
    "divisionname": "Tiruchirapalli Division",
    "officename": "Jamal Mohamed College SO",
    "pincode": "620020",
    "officetype": "PO",
    "delivery": "Delivery",
    "district": "TIRUCHIRAPPALLI",
    "statename": "TAMIL NADU",
    "latitude": "10.7874167",
    "longitude": "78.6963056"
  },
  {
    "circlename": "Tamilnadu Circle",
    "regionname": "Central Region Trichirapalli",
    "divisionname": "Tiruchirapalli Division",
    "officename": "Khajanagar SO",
    "pincode": "620023",
    "officetype": "PO",
    "delivery": "Delivery",
    "district": "TIRUCHIRAPPALLI",
    "statename": "TAMIL NADU",
    "latitude": "10.7774722",
    "longitude": "78.6864444"
  },
  {
    "circlename": "Tamilnadu Circle",
    "regionname": "Central Region Trichirapalli",
    "divisionname": "Tiruchirapalli Division",
    "officename": "Kulumani SO",
    "pincode": "639103",
    "officetype": "PO",
    "delivery": "Delivery",
    "district": "TIRUCHIRAPPALLI",
    "statename": "TAMIL NADU",
    "latitude": "10.8452778",
    "longitude": "78.5963889"
  },
  {
    "circlename": "Tamilnadu Circle",
    "regionname": "Central Region Trichirapalli",
    "divisionname": "Tiruchirapalli Division",
    "officename": "Pettavaithalai SO",
    "pincode": "639112",
    "officetype": "PO",
    "delivery": "Delivery",
    "district": "TIRUCHIRAPPALLI",
    "statename": "TAMIL NADU",
    "latitude": "10.8980000",
    "longitude": "78.4609167"
  },
  {
    "circlename": "Tamilnadu Circle",
    "regionname": "Central Region Trichirapalli",
    "divisionname": "Tiruchirapalli Division",
    "officename": "Puthur SO",
    "pincode": "620017",
    "officetype": "PO",
    "delivery": "Non Delivery",
    "district": "TIRUCHIRAPPALLI",
    "statename": "TAMIL NADU",
    "latitude": "10.8140833",
    "longitude": "78.6724722"
  },
  {
    "circlename": "Tamilnadu Circle",
    "regionname": "Central Region Trichirapalli",
    "divisionname": "Tiruchirapalli Division",
    "officename": "Teppakulam SO",
    "pincode": "620002",
    "officetype": "PO",
    "delivery": "Delivery",
    "district": "TIRUCHIRAPPALLI",
    "statename": "TAMIL NADU",
    "latitude": "10.8263333",
    "longitude": "78.6929444"
  },
  {
    "circlename": "Tamilnadu Circle",
    "regionname": "Central Region Trichirapalli",
    "divisionname": "Tiruchirapalli Division",
    "officename": "Tiruchirappalli Collectorate SO",
    "pincode": "620001",
    "officetype": "PO",
    "delivery": "Non Delivery",
    "district": "TIRUCHIRAPPALLI",
    "statename": "TAMIL NADU",
    "latitude": "10.8008056",
    "longitude": "78.6713611"
  },
  {
    "circlename": "Tamilnadu Circle",
    "regionname": "Central Region Trichirapalli",
    "divisionname": "Tiruchirapalli Division",
    "officename": "ETTARAI S.O.",
    "pincode": "639103",
    "officetype": "PO",
    "delivery": "Non Delivery",
    "district": "TIRUCHIRAPPALLI",
    "statename": "TAMIL NADU",
    "latitude": "10.84527778",
    "longitude": "78.59638889"
  },
  {
    "circlename": "Tamilnadu Circle",
    "regionname": "Central Region Trichirapalli",
    "divisionname": "Karur Division",
    "officename": "Samudram B.O",
    "pincode": "621312",
    "officetype": "BO",
    "delivery": "Delivery",
    "district": "TIRUCHIRAPPALLI",
    "statename": "TAMIL NADU",
    "latitude": "10.6000000",
    "longitude": "78.4600000"
  },
  {
    "circlename": "Tamilnadu Circle",
    "regionname": "Central Region Trichirapalli",
    "divisionname": "Karur Division",
    "officename": "Sevalur B.O",
    "pincode": "621306",
    "officetype": "BO",
    "delivery": "Delivery",
    "district": "TIRUCHIRAPPALLI",
    "statename": "TAMIL NADU",
    "latitude": "10.6300000",
    "longitude": "78.4200000"
  },
  {
    "circlename": "Tamilnadu Circle",
    "regionname": "Central Region Trichirapalli",
    "divisionname": "Karur Division",
    "officename": "Aniyapur B.O",
    "pincode": "621307",
    "officetype": "BO",
    "delivery": "Delivery",
    "district": "TIRUCHIRAPPALLI",
    "statename": "TAMIL NADU",
    "latitude": "10.6700000",
    "longitude": "78.3300000"
  },
  {
    "circlename": "Tamilnadu Circle",
    "regionname": "Central Region Trichirapalli",
    "divisionname": "Karur Division",
    "officename": "Chettiapatti B.O",
    "pincode": "621307",
    "officetype": "BO",
    "delivery": "Delivery",
    "district": "TIRUCHIRAPPALLI",
    "statename": "TAMIL NADU",
    "latitude": "10.5600000",
    "longitude": "78.3600000"
  },
  {
    "circlename": "Tamilnadu Circle",
    "regionname": "Central Region Trichirapalli",
    "divisionname": "Karur Division",
    "officename": "Karumakavundanpatti B.O",
    "pincode": "621307",
    "officetype": "BO",
    "delivery": "Delivery",
    "district": "TIRUCHIRAPPALLI",
    "statename": "TAMIL NADU",
    "latitude": "10.6200000",
    "longitude": "78.3800000"
  },
  {
    "circlename": "Tamilnadu Circle",
    "regionname": "Central Region Trichirapalli",
    "divisionname": "Karur Division",
    "officename": "Malayadipatti B.O",
    "pincode": "621307",
    "officetype": "BO",
    "delivery": "Delivery",
    "district": "TIRUCHIRAPPALLI",
    "statename": "TAMIL NADU",
    "latitude": "10.5800000",
    "longitude": "78.3800000"
  },
  {
    "circlename": "Tamilnadu Circle",
    "regionname": "Central Region Trichirapalli",
    "divisionname": "Karur Division",
    "officename": "Nallampillai B.O",
    "pincode": "621307",
    "officetype": "BO",
    "delivery": "Delivery",
    "district": "TIRUCHIRAPPALLI",
    "statename": "TAMIL NADU",
    "latitude": "10.6500000",
    "longitude": "78.3700000"
  },
  {
    "circlename": "Tamilnadu Circle",
    "regionname": "Central Region Trichirapalli",
    "divisionname": "Karur Division",
    "officename": "Alagagoundanpatti B.O",
    "pincode": "621310",
    "officetype": "BO",
    "delivery": "Delivery",
    "district": "TIRUCHIRAPPALLI",
    "statename": "TAMIL NADU",
    "latitude": "10.4600000",
    "longitude": "78.3300000"
  },
  {
    "circlename": "Tamilnadu Circle",
    "regionname": "Central Region Trichirapalli",
    "divisionname": "Karur Division",
    "officename": "Thoppanaickenpatti B.O",
    "pincode": "621315",
    "officetype": "BO",
    "delivery": "Delivery",
    "district": "TIRUCHIRAPPALLI",
    "statename": "TAMIL NADU",
    "latitude": "11.0300000",
    "longitude": "78.2300000"
  },
  {
    "circlename": "Tamilnadu Circle",
    "regionname": "Central Region Trichirapalli",
    "divisionname": "Srirangam Division",
    "officename": "Garudamangalam B.O",
    "pincode": "621106",
    "officetype": "BO",
    "delivery": "Delivery",
    "district": "TIRUCHIRAPPALLI",
    "statename": "TAMIL NADU",
    "latitude": "11.0800000",
    "longitude": "78.9200000"
  },
  {
    "circlename": "Tamilnadu Circle",
    "regionname": "Central Region Trichirapalli",
    "divisionname": "Srirangam Division",
    "officename": "Ootathur B.O",
    "pincode": "621109",
    "officetype": "BO",
    "delivery": "Delivery",
    "district": "TIRUCHIRAPPALLI",
    "statename": "TAMIL NADU",
    "latitude": "11.0700000",
    "longitude": "78.8600000"
  },
  {
    "circlename": "Tamilnadu Circle",
    "regionname": "Central Region Trichirapalli",
    "divisionname": "Srirangam Division",
    "officename": "Veeramanipatti B.O",
    "pincode": "621202",
    "officetype": "BO",
    "delivery": "Delivery",
    "district": "TIRUCHIRAPPALLI",
    "statename": "TAMIL NADU",
    "latitude": "10.9500000",
    "longitude": "78.5300000"
  },
  {
    "circlename": "Tamilnadu Circle",
    "regionname": "Central Region Trichirapalli",
    "divisionname": "Srirangam Division",
    "officename": "Nochiam B.O",
    "pincode": "621216",
    "officetype": "BO",
    "delivery": "Delivery",
    "district": "TIRUCHIRAPPALLI",
    "statename": "TAMIL NADU",
    "latitude": "10.8800000",
    "longitude": "78.6900000"
  },
  {
    "circlename": "Tamilnadu Circle",
    "regionname": "Central Region Trichirapalli",
    "divisionname": "Srirangam Division",
    "officename": "Konalai B.O",
    "pincode": "621105",
    "officetype": "BO",
    "delivery": "Delivery",
    "district": "TIRUCHIRAPPALLI",
    "statename": "TAMIL NADU",
    "latitude": "10.9800000",
    "longitude": "78.7700000"
  },
  {
    "circlename": "Tamilnadu Circle",
    "regionname": "Central Region Trichirapalli",
    "divisionname": "Srirangam Division",
    "officename": "Chinnapallipalayam B.O",
    "pincode": "621207",
    "officetype": "BO",
    "delivery": "Delivery",
    "district": "TIRUCHIRAPPALLI",
    "statename": "TAMIL NADU",
    "latitude": "10.9800000",
    "longitude": "78.1900000"
  },
  {
    "circlename": "Tamilnadu Circle",
    "regionname": "Central Region Trichirapalli",
    "divisionname": "Srirangam Division",
    "officename": "Murungai B.O",
    "pincode": "621207",
    "officetype": "BO",
    "delivery": "Delivery",
    "district": "TIRUCHIRAPPALLI",
    "statename": "TAMIL NADU",
    "latitude": "11.0400000",
    "longitude": "78.2100000"
  },
  {
    "circlename": "Tamilnadu Circle",
    "regionname": "Central Region Trichirapalli",
    "divisionname": "Srirangam Division",
    "officename": "Nagaiyanallur B.O",
    "pincode": "621207",
    "officetype": "BO",
    "delivery": "Delivery",
    "district": "TIRUCHIRAPPALLI",
    "statename": "TAMIL NADU",
    "latitude": "11.0600000",
    "longitude": "78.2400000"
  },
  {
    "circlename": "Tamilnadu Circle",
    "regionname": "Central Region Trichirapalli",
    "divisionname": "Srirangam Division",
    "officename": "Ammangudi B.O",
    "pincode": "621208",
    "officetype": "BO",
    "delivery": "Delivery",
    "district": "TIRUCHIRAPPALLI",
    "statename": "TAMIL NADU",
    "latitude": "11.0000000",
    "longitude": "78.3700000"
  },
  {
    "circlename": "Tamilnadu Circle",
    "regionname": "Central Region Trichirapalli",
    "divisionname": "Srirangam Division",
    "officename": "Alagarai B.O",
    "pincode": "621209",
    "officetype": "BO",
    "delivery": "Delivery",
    "district": "TIRUCHIRAPPALLI",
    "statename": "TAMIL NADU",
    "latitude": "10.9800000",
    "longitude": "78.3900000"
  },
  {
    "circlename": "Tamilnadu Circle",
    "regionname": "Central Region Trichirapalli",
    "divisionname": "Srirangam Division",
    "officename": "M.Pudupatti B.O",
    "pincode": "621211",
    "officetype": "BO",
    "delivery": "Delivery",
    "district": "TIRUCHIRAPPALLI",
    "statename": "TAMIL NADU",
    "latitude": "10.9900000",
    "longitude": "78.4200000"
  },
  {
    "circlename": "Tamilnadu Circle",
    "regionname": "Central Region Trichirapalli",
    "divisionname": "Srirangam Division",
    "officename": "Mettupatti B.O",
    "pincode": "621211",
    "officetype": "BO",
    "delivery": "Delivery",
    "district": "TIRUCHIRAPPALLI",
    "statename": "TAMIL NADU",
    "latitude": "10.9800000",
    "longitude": "78.4400000"
  },
  {
    "circlename": "Tamilnadu Circle",
    "regionname": "Central Region Trichirapalli",
    "divisionname": "Srirangam Division",
    "officename": "Thumbalam B.O",
    "pincode": "621211",
    "officetype": "BO",
    "delivery": "Delivery",
    "district": "TIRUCHIRAPPALLI",
    "statename": "TAMIL NADU",
    "latitude": "11.0300000",
    "longitude": "78.4300000"
  },
  {
    "circlename": "Tamilnadu Circle",
    "regionname": "Central Region Trichirapalli",
    "divisionname": "Srirangam Division",
    "officename": "Vellalapatti B.O",
    "pincode": "621211",
    "officetype": "BO",
    "delivery": "Delivery",
    "district": "TIRUCHIRAPPALLI",
    "statename": "TAMIL NADU",
    "latitude": "11.0300000",
    "longitude": "78.4700000"
  },
  {
    "circlename": "Tamilnadu Circle",
    "regionname": "Central Region Trichirapalli",
    "divisionname": "Srirangam Division",
    "officename": "Devimangalam B.O",
    "pincode": "621112",
    "officetype": "BO",
    "delivery": "Delivery",
    "district": "TIRUCHIRAPPALLI",
    "statename": "TAMIL NADU",
    "latitude": "10.9700000",
    "longitude": "78.7300000"
  },
  {
    "circlename": "Tamilnadu Circle",
    "regionname": "Central Region Trichirapalli",
    "divisionname": "Srirangam Division",
    "officename": "Marudur B.O",
    "pincode": "621112",
    "officetype": "BO",
    "delivery": "Delivery",
    "district": "TIRUCHIRAPPALLI",
    "statename": "TAMIL NADU",
    "latitude": "10.9100000",
    "longitude": "78.7700000"
  },
  {
    "circlename": "Tamilnadu Circle",
    "regionname": "Central Region Trichirapalli",
    "divisionname": "Srirangam Division",
    "officename": "Cholanganallur B.O",
    "pincode": "621213",
    "officetype": "BO",
    "delivery": "Delivery",
    "district": "TIRUCHIRAPPALLI",
    "statename": "TAMIL NADU",
    "latitude": "10.9200000",
    "longitude": "78.6100000"
  },
  {
    "circlename": "Tamilnadu Circle",
    "regionname": "Central Region Trichirapalli",
    "divisionname": "Srirangam Division",
    "officename": "Todaiyur B.O",
    "pincode": "621213",
    "officetype": "BO",
    "delivery": "Delivery",
    "district": "TIRUCHIRAPPALLI",
    "statename": "TAMIL NADU",
    "latitude": "10.8900000",
    "longitude": "78.6500000"
  },
  {
    "circlename": "Tamilnadu Circle",
    "regionname": "Central Region Trichirapalli",
    "divisionname": "Srirangam Division",
    "officename": "Melur B.O",
    "pincode": "620006",
    "officetype": "BO",
    "delivery": "Non Delivery",
    "district": "TIRUCHIRAPPALLI",
    "statename": "TAMIL NADU",
    "latitude": "10.8700000",
    "longitude": "78.6100000"
  },
  {
    "circlename": "Tamilnadu Circle",
    "regionname": "Central Region Trichirapalli",
    "divisionname": "Srirangam Division",
    "officename": "Yelurpatti B.O",
    "pincode": "621215",
    "officetype": "BO",
    "delivery": "Delivery",
    "district": "TIRUCHIRAPPALLI",
    "statename": "TAMIL NADU",
    "latitude": "11.0300000",
    "longitude": "78.2800000"
  },
  {
    "circlename": "Tamilnadu Circle",
    "regionname": "Central Region Trichirapalli",
    "divisionname": "Srirangam Division",
    "officename": "Nagamanaickenpatti B.O",
    "pincode": "621001",
    "officetype": "BO",
    "delivery": "Delivery",
    "district": "TIRUCHIRAPPALLI",
    "statename": "TAMIL NADU",
    "latitude": "11.1400000",
    "longitude": "78.5200000"
  },
  {
    "circlename": "Tamilnadu Circle",
    "regionname": "Central Region Trichirapalli",
    "divisionname": "Srirangam Division",
    "officename": "Senappanallur B.O",
    "pincode": "621001",
    "officetype": "BO",
    "delivery": "Delivery",
    "district": "TIRUCHIRAPPALLI",
    "statename": "TAMIL NADU",
    "latitude": "11.1400000",
    "longitude": "78.5400000"
  },
  {
    "circlename": "Tamilnadu Circle",
    "regionname": "Central Region Trichirapalli",
    "divisionname": "Srirangam Division",
    "officename": "Vishalakshi Ammal Samudram B.O",
    "pincode": "621001",
    "officetype": "BO",
    "delivery": "Delivery",
    "district": "TIRUCHIRAPPALLI",
    "statename": "TAMIL NADU",
    "latitude": "11.1500000",
    "longitude": "78.5200000"
  },
  {
    "circlename": "Tamilnadu Circle",
    "regionname": "Central Region Trichirapalli",
    "divisionname": "Srirangam Division",
    "officename": "Paithamparai B.O",
    "pincode": "621205",
    "officetype": "BO",
    "delivery": "Delivery",
    "district": "TIRUCHIRAPPALLI",
    "statename": "TAMIL NADU",
    "latitude": "11.0700000",
    "longitude": "78.4700000"
  },
  {
    "circlename": "Tamilnadu Circle",
    "regionname": "Central Region Trichirapalli",
    "divisionname": "Srirangam Division",
    "officename": "Iyyampalayam B.O",
    "pincode": "621206",
    "officetype": "BO",
    "delivery": "Delivery",
    "district": "TIRUCHIRAPPALLI",
    "statename": "TAMIL NADU",
    "latitude": "11.1000000",
    "longitude": "78.5400000"
  },
  {
    "circlename": "Tamilnadu Circle",
    "regionname": "Central Region Trichirapalli",
    "divisionname": "Srirangam Division",
    "officename": "Sembulichampatti B.O",
    "pincode": "621002",
    "officetype": "BO",
    "delivery": "Delivery",
    "district": "TIRUCHIRAPPALLI",
    "statename": "TAMIL NADU",
    "latitude": "11.2600000",
    "longitude": "78.6600000"
  },
  {
    "circlename": "Tamilnadu Circle",
    "regionname": "Central Region Trichirapalli",
    "divisionname": "Srirangam Division",
    "officename": "Vengadathanur B.O",
    "pincode": "621002",
    "officetype": "BO",
    "delivery": "Delivery",
    "district": "TIRUCHIRAPPALLI",
    "statename": "TAMIL NADU",
    "latitude": "11.2100000",
    "longitude": "78.6400000"
  },
  {
    "circlename": "Tamilnadu Circle",
    "regionname": "Central Region Trichirapalli",
    "divisionname": "Srirangam Division",
    "officename": "Alathudayanpatti B.O",
    "pincode": "621003",
    "officetype": "BO",
    "delivery": "Delivery",
    "district": "TIRUCHIRAPPALLI",
    "statename": "TAMIL NADU",
    "latitude": "11.2100000",
    "longitude": "78.4700000"
  },
  {
    "circlename": "Tamilnadu Circle",
    "regionname": "Central Region Trichirapalli",
    "divisionname": "Srirangam Division",
    "officename": "Viswambalsamudram B.O",
    "pincode": "621003",
    "officetype": "BO",
    "delivery": "Delivery",
    "district": "TIRUCHIRAPPALLI",
    "statename": "TAMIL NADU",
    "latitude": "11.2500000",
    "longitude": "78.4800000"
  },
  {
    "circlename": "Tamilnadu Circle",
    "regionname": "Central Region Trichirapalli",
    "divisionname": "Srirangam Division",
    "officename": "Kilakunnupatti B.O",
    "pincode": "621004",
    "officetype": "BO",
    "delivery": "Delivery",
    "district": "TIRUCHIRAPPALLI",
    "statename": "TAMIL NADU",
    "latitude": "11.1200000",
    "longitude": "78.6500000"
  },
  {
    "circlename": "Tamilnadu Circle",
    "regionname": "Central Region Trichirapalli",
    "divisionname": "Srirangam Division",
    "officename": "T.Sathanur B.O",
    "pincode": "621004",
    "officetype": "BO",
    "delivery": "Delivery",
    "district": "TIRUCHIRAPPALLI",
    "statename": "TAMIL NADU",
    "latitude": "11.0800000",
    "longitude": "78.6600000"
  },
  {
    "circlename": "Tamilnadu Circle",
    "regionname": "Central Region Trichirapalli",
    "divisionname": "Srirangam Division",
    "officename": "Kargudi B.O",
    "pincode": "621210",
    "officetype": "BO",
    "delivery": "Delivery",
    "district": "TIRUCHIRAPPALLI",
    "statename": "TAMIL NADU",
    "latitude": "11.1500000",
    "longitude": "78.4400000"
  },
  {
    "circlename": "Tamilnadu Circle",
    "regionname": "Central Region Trichirapalli",
    "divisionname": "Srirangam Division",
    "officename": "Kalladipatti B.O",
    "pincode": "621014",
    "officetype": "BO",
    "delivery": "Delivery",
    "district": "TIRUCHIRAPPALLI",
    "statename": "TAMIL NADU",
    "latitude": "11.0500000",
    "longitude": "78.5700000"
  },
  {
    "circlename": "Tamilnadu Circle",
    "regionname": "Central Region Trichirapalli",
    "divisionname": "Srirangam Division",
    "officename": "Oddampatti B.O",
    "pincode": "621008",
    "officetype": "BO",
    "delivery": "Delivery",
    "district": "TIRUCHIRAPPALLI",
    "statename": "TAMIL NADU",
    "latitude": "11.2300000",
    "longitude": "78.5800000"
  },
  {
    "circlename": "Tamilnadu Circle",
    "regionname": "Central Region Trichirapalli",
    "divisionname": "Srirangam Division",
    "officename": "Perumalpalayam B.O",
    "pincode": "621008",
    "officetype": "BO",
    "delivery": "Delivery",
    "district": "TIRUCHIRAPPALLI",
    "statename": "TAMIL NADU",
    "latitude": "11.2100000",
    "longitude": "78.5800000"
  },
  {
    "circlename": "Tamilnadu Circle",
    "regionname": "Central Region Trichirapalli",
    "divisionname": "Srirangam Division",
    "officename": "Neiveli B.O",
    "pincode": "621217",
    "officetype": "BO",
    "delivery": "Delivery",
    "district": "TIRUCHIRAPPALLI",
    "statename": "TAMIL NADU",
    "latitude": "11.0100000",
    "longitude": "78.5500000"
  },
  {
    "circlename": "Tamilnadu Circle",
    "regionname": "Central Region Trichirapalli",
    "divisionname": "Srirangam Division",
    "officename": "Thandalai B.O",
    "pincode": "621217",
    "officetype": "BO",
    "delivery": "Delivery",
    "district": "TIRUCHIRAPPALLI",
    "statename": "TAMIL NADU",
    "latitude": "11.0100000",
    "longitude": "78.5500000"
  },
  {
    "circlename": "Tamilnadu Circle",
    "regionname": "Central Region Trichirapalli",
    "divisionname": "Srirangam Division",
    "officename": "Arachi B.O",
    "pincode": "621214",
    "officetype": "BO",
    "delivery": "Delivery",
    "district": "TIRUCHIRAPPALLI",
    "statename": "TAMIL NADU",
    "latitude": "11.1000000",
    "longitude": "78.4700000"
  },
  {
    "circlename": "Tamilnadu Circle",
    "regionname": "Central Region Trichirapalli",
    "divisionname": "Srirangam Division",
    "officename": "Jambumadai B.O",
    "pincode": "621214",
    "officetype": "BO",
    "delivery": "Delivery",
    "district": "TIRUCHIRAPPALLI",
    "statename": "TAMIL NADU",
    "latitude": "11.1100000",
    "longitude": "78.3900000"
  },
  {
    "circlename": "Tamilnadu Circle",
    "regionname": "Central Region Trichirapalli",
    "divisionname": "Srirangam Division",
    "officename": "Nachilipatti B.O",
    "pincode": "621011",
    "officetype": "BO",
    "delivery": "Delivery",
    "district": "TIRUCHIRAPPALLI",
    "statename": "TAMIL NADU",
    "latitude": "11.2900000",
    "longitude": "78.5900000"
  },
  {
    "circlename": "Tamilnadu Circle",
    "regionname": "Central Region Trichirapalli",
    "divisionname": "Srirangam Division",
    "officename": "T.Murungaipatti B.O",
    "pincode": "621012",
    "officetype": "BO",
    "delivery": "Delivery",
    "district": "TIRUCHIRAPPALLI",
    "statename": "TAMIL NADU",
    "latitude": "11.2100000",
    "longitude": "78.4800000"
  },
  {
    "circlename": "Tamilnadu Circle",
    "regionname": "Central Region Trichirapalli",
    "divisionname": "Tiruchirapalli Division",
    "officename": "Athigudi BO",
    "pincode": "621702",
    "officetype": "BO",
    "delivery": "Delivery",
    "district": "TIRUCHIRAPPALLI",
    "statename": "TAMIL NADU",
    "latitude": "10.9100000",
    "longitude": "78.9300000"
  },
  {
    "circlename": "Tamilnadu Circle",
    "regionname": "Central Region Trichirapalli",
    "divisionname": "Tiruchirapalli Division",
    "officename": "Melarasur BO",
    "pincode": "621652",
    "officetype": "BO",
    "delivery": "Delivery",
    "district": "TIRUCHIRAPPALLI",
    "statename": "TAMIL NADU",
    "latitude": "11.0200000",
    "longitude": "78.9600000"
  },
  {
    "circlename": "Tamilnadu Circle",
    "regionname": "Central Region Trichirapalli",
    "divisionname": "Tiruchirapalli Division",
    "officename": "Alundalaipur BO",
    "pincode": "621651",
    "officetype": "BO",
    "delivery": "Delivery",
    "district": "TIRUCHIRAPPALLI",
    "statename": "TAMIL NADU",
    "latitude": "11.0500000",
    "longitude": "78.9100000"
  },
  {
    "circlename": "Tamilnadu Circle",
    "regionname": "Central Region Trichirapalli",
    "divisionname": "Tiruchirapalli Division",
    "officename": "Varakuppai BO",
    "pincode": "621651",
    "officetype": "BO",
    "delivery": "Delivery",
    "district": "TIRUCHIRAPPALLI",
    "statename": "TAMIL NADU",
    "latitude": "11.0200000",
    "longitude": "78.9300000"
  },
  {
    "circlename": "Tamilnadu Circle",
    "regionname": "Central Region Trichirapalli",
    "divisionname": "Tiruchirapalli Division",
    "officename": "Mettupatti BO",
    "pincode": "621706",
    "officetype": "BO",
    "delivery": "Delivery",
    "district": "TIRUCHIRAPPALLI",
    "statename": "TAMIL NADU",
    "latitude": "10.8900000",
    "longitude": "78.8700000"
  },
  {
    "circlename": "Tamilnadu Circle",
    "regionname": "Central Region Trichirapalli",
    "divisionname": "Tiruchirapalli Division",
    "officename": "Kovandakurichi BO",
    "pincode": "621711",
    "officetype": "BO",
    "delivery": "Delivery",
    "district": "TIRUCHIRAPPALLI",
    "statename": "TAMIL NADU",
    "latitude": "10.9400000",
    "longitude": "78.9400000"
  },
  {
    "circlename": "Tamilnadu Circle",
    "regionname": "Central Region Trichirapalli",
    "divisionname": "Tiruchirapalli Division",
    "officename": "Peruvalanallur BO",
    "pincode": "621712",
    "officetype": "BO",
    "delivery": "Delivery",
    "district": "TIRUCHIRAPPALLI",
    "statename": "TAMIL NADU",
    "latitude": "10.9200000",
    "longitude": "78.8400000"
  },
  {
    "circlename": "Tamilnadu Circle",
    "regionname": "Central Region Trichirapalli",
    "divisionname": "Tiruchirapalli Division",
    "officename": "Melaperungavur BO",
    "pincode": "621218",
    "officetype": "BO",
    "delivery": "Delivery",
    "district": "TIRUCHIRAPPALLI",
    "statename": "TAMIL NADU",
    "latitude": "10.8900000",
    "longitude": "78.7700000"
  },
  {
    "circlename": "Tamilnadu Circle",
    "regionname": "Central Region Trichirapalli",
    "divisionname": "Tiruchirapalli Division",
    "officename": "Melavalady BO",
    "pincode": "621218",
    "officetype": "BO",
    "delivery": "Delivery",
    "district": "TIRUCHIRAPPALLI",
    "statename": "TAMIL NADU",
    "latitude": "10.8800000",
    "longitude": "78.7400000"
  },
  {
    "circlename": "Tamilnadu Circle",
    "regionname": "Central Region Trichirapalli",
    "divisionname": "Tiruchirapalli Division",
    "officename": "Tirumanamedu BO",
    "pincode": "621218",
    "officetype": "BO",
    "delivery": "Delivery",
    "district": "TIRUCHIRAPPALLI",
    "statename": "TAMIL NADU",
    "latitude": "10.8700000",
    "longitude": "78.7700000"
  },
  {
    "circlename": "Tamilnadu Circle",
    "regionname": "Central Region Trichirapalli",
    "divisionname": "Tiruchirapalli Division",
    "officename": "Alambadi BO",
    "pincode": "621722",
    "officetype": "BO",
    "delivery": "Delivery",
    "district": "TIRUCHIRAPPALLI",
    "statename": "TAMIL NADU",
    "latitude": "10.9100000",
    "longitude": "79.0000000"
  },
  {
    "circlename": "Tamilnadu Circle",
    "regionname": "Central Region Trichirapalli",
    "divisionname": "Tiruchirapalli Division",
    "officename": "Mekkudi BO",
    "pincode": "639101",
    "officetype": "BO",
    "delivery": "Delivery",
    "district": "TIRUCHIRAPPALLI",
    "statename": "TAMIL NADU",
    "latitude": "10.8554464",
    "longitude": "78.6003641"
  },
  {
    "circlename": "Tamilnadu Circle",
    "regionname": "Central Region Trichirapalli",
    "divisionname": "Tiruchirapalli Division",
    "officename": "Fathimanagar BO",
    "pincode": "620012",
    "officetype": "BO",
    "delivery": "Delivery",
    "district": "TIRUCHIRAPPALLI",
    "statename": "TAMIL NADU",
    "latitude": "10.6700000",
    "longitude": "78.6000000"
  },
  {
    "circlename": "Tamilnadu Circle",
    "regionname": "Central Region Trichirapalli",
    "divisionname": "Tiruchirapalli Division",
    "officename": "Kamarajanagar BO",
    "pincode": "620010",
    "officetype": "BO",
    "delivery": "Non Delivery",
    "district": "TIRUCHIRAPPALLI",
    "statename": "TAMIL NADU",
    "latitude": "10.8060816",
    "longitude": "78.7323438"
  },
  {
    "circlename": "Tamilnadu Circle",
    "regionname": "Central Region Trichirapalli",
    "divisionname": "Tiruchirapalli Division",
    "officename": "Sircarpalayam BO",
    "pincode": "620010",
    "officetype": "BO",
    "delivery": "Delivery",
    "district": "TIRUCHIRAPPALLI",
    "statename": "TAMIL NADU",
    "latitude": "10.8341645",
    "longitude": "78.7211565"
  },