[
  {
    "circlename": "Tamilnadu Circle",
    "regionname": "Chennai City Region",
    "divisionname": "Arakkonam Division",
    "officename": "Vethajipuram BO",
    "pincode": "632507",
    "officetype": "BO",
    "delivery": "Delivery",
    "district": "TIRUVANNAMALAI",
    "statename": "TAMIL NADU",
    "latitude": "12.6685600",
    "longitude": "79.2841880"
  },
  {
    "circlename": "Tamilnadu Circle",
    "regionname": "Chennai City Region",
    "divisionname": "Arakkonam Division",
    "officename": "Panaiyur BO",
    "pincode": "632518",
    "officetype": "BO",
    "delivery": "Delivery",
    "district": "TIRUVANNAMALAI",
    "statename": "TAMIL NADU",
    "latitude": "12.6685560",
    "longitude": "79.2841920"
  },
  {
    "circlename": "Tamilnadu Circle",
    "regionname": "Chennai City Region",
    "divisionname": "Arakkonam Division",
    "officename": "Thennampattu BO",
    "pincode": "632511",
    "officetype": "BO",
    "delivery": "Delivery",
    "district": "TIRUVANNAMALAI",
    "statename": "TAMIL NADU",
    "latitude": "12.8516500",
    "longitude": "79.4246000"
  },
  {
    "circlename": "Tamilnadu Circle",
    "regionname": "Chennai City Region",
    "divisionname": "Arakkonam Division",
    "officename": "Vadailluppai BO",
    "pincode": "632511",
    "officetype": "BO",
    "delivery": "Delivery",
    "district": "TIRUVANNAMALAI",
    "statename": "TAMIL NADU",
    "latitude": "12.6590430",
    "longitude": "79.5429680"
  },
  {
    "circlename": "Tamilnadu Circle",
    "regionname": "Chennai City Region",
    "divisionname": "Tiruvannamalai Division",
    "officename": "Anapathur BO",
    "pincode": "604401",
    "officetype": "BO",
    "delivery": "Delivery",
    "district": "TIRUVANNAMALAI",
    "statename": "TAMIL NADU",
    "latitude": "12.2703000",
    "longitude": "78.7618000"
  },
  {
    "circlename": "Tamilnadu Circle",
    "regionname": "Chennai City Region",
    "divisionname": "Tiruvannamalai Division",
    "officename": "Purisai BO",
    "pincode": "604401",
    "officetype": "BO",
    "delivery": "Non Delivery",
    "district": "TIRUVANNAMALAI",
    "statename": "TAMIL NADU",
    "latitude": "12.5772000",
    "longitude": "79.5857000"
  },
  {
    "circlename": "Tamilnadu Circle",
    "regionname": "Chennai City Region",
    "divisionname": "Tiruvannamalai Division",
    "officename": "Palampettai BO",
    "pincode": "606801",
    "officetype": "BO",
    "delivery": "Non Delivery",
    "district": "TIRUVANNAMALAI",
    "statename": "TAMIL NADU",
    "latitude": "12.4935000",
    "longitude": "79.4438000"
  },
  {
    "circlename": "Tamilnadu Circle",
    "regionname": "Chennai City Region",
    "divisionname": "Tiruvannamalai Division",
    "officename": "Rattinamangalam BO",
    "pincode": "632316",
    "officetype": "BO",
    "delivery": "Delivery",
    "district": "TIRUVANNAMALAI",
    "statename": "TAMIL NADU",
    "latitude": "12.7290000",
    "longitude": "79.6059000"
  },
  {
    "circlename": "Tamilnadu Circle",
    "regionname": "Chennai City Region",
    "divisionname": "Tiruvannamalai Division",
    "officename": "Kilputhur BO",
    "pincode": "604501",
    "officetype": "BO",
    "delivery": "Delivery",
    "district": "TIRUVANNAMALAI",
    "statename": "TAMIL NADU",
    "latitude": "12.8757000",
    "longitude": "79.8374000"
  },
  {
    "circlename": "Tamilnadu Circle",
    "regionname": "Chennai City Region",
    "divisionname": "Tiruvannamalai Division",
    "officename": "Kuthanur BO",
    "pincode": "604402",
    "officetype": "BO",
    "delivery": "Delivery",
    "district": "TIRUVANNAMALAI",
    "statename": "TAMIL NADU",
    "latitude": "12.4495000",
    "longitude": "79.5540000"
  },
  {
    "circlename": "Tamilnadu Circle",
    "regionname": "Chennai City Region",
    "divisionname": "Tiruvannamalai Division",
    "officename": "Sumangali BO",
    "pincode": "604402",
    "officetype": "BO",
    "delivery": "Delivery",
    "district": "TIRUVANNAMALAI",
    "statename": "TAMIL NADU",
    "latitude": "12.4495000",
    "longitude": "79.5540000"
  },
  {
    "circlename": "Tamilnadu Circle",
    "regionname": "Chennai City Region",
    "divisionname": "Tiruvannamalai Division",
    "officename": "Kannamangalam Bazaar BO",
    "pincode": "632311",
    "officetype": "BO",
    "delivery": "Non Delivery",
    "district": "TIRUVANNAMALAI",
    "statename": "TAMIL NADU",
    "latitude": "13.1090000",
    "longitude": "79.6262000"
  },
  {
    "circlename": "Tamilnadu Circle",
    "regionname": "Chennai City Region",
    "divisionname": "Tiruvannamalai Division",
    "officename": "Erumbur BO",
    "pincode": "604404",
    "officetype": "BO",
    "delivery": "Delivery",
    "district": "TIRUVANNAMALAI",
    "statename": "TAMIL NADU",
    "latitude": "12.4495000",
    "longitude": "79.5540000"
  },
  {
    "circlename": "Tamilnadu Circle",
    "regionname": "Chennai City Region",
    "divisionname": "Tiruvannamalai Division",
    "officename": "Kovilur BO",
    "pincode": "604404",
    "officetype": "BO",
    "delivery": "Delivery",
    "district": "TIRUVANNAMALAI",
    "statename": "TAMIL NADU",
    "latitude": "12.4495000",
    "longitude": "79.5540000"
  },
  {
    "circlename": "Tamilnadu Circle",
    "regionname": "Chennai City Region",
    "divisionname": "Tiruvannamalai Division",
    "officename": "Indiravanam BO",
    "pincode": "632313",
    "officetype": "BO",
    "delivery": "Delivery",
    "district": "TIRUVANNAMALAI",
    "statename": "TAMIL NADU",
    "latitude": "12.7290000",
    "longitude": "79.6059000"
  },
  {
    "circlename": "Tamilnadu Circle",
    "regionname": "Chennai City Region",
    "divisionname": "Tiruvannamalai Division",
    "officename": "Namathodu BO",
    "pincode": "632313",
    "officetype": "BO",
    "delivery": "Delivery",
    "district": "TIRUVANNAMALAI",
    "statename": "TAMIL NADU",
    "latitude": "12.7290000",
    "longitude": "79.6059000"
  },
  {
    "circlename": "Tamilnadu Circle",
    "regionname": "Chennai City Region",
    "divisionname": "Tiruvannamalai Division",
    "officename": "Semmambadi BO",
    "pincode": "632313",
    "officetype": "BO",
    "delivery": "Delivery",
    "district": "TIRUVANNAMALAI",
    "statename": "TAMIL NADU",
    "latitude": "12.7290000",
    "longitude": "79.6059000"
  },
  {
    "circlename": "Tamilnadu Circle",
    "regionname": "Chennai City Region",
    "divisionname": "Tiruvannamalai Division",
    "officename": "TellurArni BO",
    "pincode": "632313",
    "officetype": "BO",
    "delivery": "Delivery",
    "district": "TIRUVANNAMALAI",
    "statename": "TAMIL NADU",
    "latitude": "12.7290000",
    "longitude": "79.6059000"
  },
  {
    "circlename": "Tamilnadu Circle",
    "regionname": "Chennai City Region",
    "divisionname": "Tiruvannamalai Division",
    "officename": "Agraharapalayam BO",
    "pincode": "632314",
    "officetype": "BO",
    "delivery": "Delivery",
    "district": "TIRUVANNAMALAI",
    "statename": "TAMIL NADU",
    "latitude": "12.7290000",
    "longitude": "79.6059000"
  },
  {
    "circlename": "Tamilnadu Circle",
    "regionname": "Chennai City Region",
    "divisionname": "Tiruvannamalai Division",
    "officename": "Dusi BO",
    "pincode": "631702",
    "officetype": "BO",
    "delivery": "Delivery",
    "district": "TIRUVANNAMALAI",
    "statename": "TAMIL NADU",
    "latitude": "12.7752000",
    "longitude": "79.6805000"
  },
  {
    "circlename": "Tamilnadu Circle",
    "regionname": "Chennai City Region",
    "divisionname": "Tiruvannamalai Division",
    "officename": "Menalur BO",
    "pincode": "631702",
    "officetype": "BO",
    "delivery": "Delivery",
    "district": "TIRUVANNAMALAI",
    "statename": "TAMIL NADU",
    "latitude": "12.7752000",
    "longitude": "79.6805000"
  },
  {
    "circlename": "Tamilnadu Circle",
    "regionname": "Chennai City Region",
    "divisionname": "Tiruvannamalai Division",
    "officename": "Nelliyankulam BO",
    "pincode": "604405",
    "officetype": "BO",
    "delivery": "Delivery",
    "district": "TIRUVANNAMALAI",
    "statename": "TAMIL NADU",
    "latitude": "13.1710000",
    "longitude": "80.0115000"
  },
  {
    "circlename": "Tamilnadu Circle",
    "regionname": "Chennai City Region",
    "divisionname": "Tiruvannamalai Division",
    "officename": "Vannankulam BO",
    "pincode": "632315",
    "officetype": "BO",
    "delivery": "Delivery",
    "district": "TIRUVANNAMALAI",
    "statename": "TAMIL NADU",
    "latitude": "12.7209000",
    "longitude": "79.1815000"
  },
  {
    "circlename": "Tamilnadu Circle",
    "regionname": "Chennai City Region",
    "divisionname": "Tiruvannamalai Division",
    "officename": "Melmattaivinnamangalam BO",
    "pincode": "604503",
    "officetype": "BO",
    "delivery": "Delivery",
    "district": "TIRUVANNAMALAI",
    "statename": "TAMIL NADU",
    "latitude": "12.5456000",
    "longitude": "79.4234000"
  },
  {
    "circlename": "Tamilnadu Circle",
    "regionname": "Chennai City Region",
    "divisionname": "Tiruvannamalai Division",
    "officename": "Ragunathasamudram BO",
    "pincode": "604503",
    "officetype": "BO",
    "delivery": "Delivery",
    "district": "TIRUVANNAMALAI",
    "statename": "TAMIL NADU",
    "latitude": "12.5456000",
    "longitude": "79.4234000"
  },
  {
    "circlename": "Tamilnadu Circle",
    "regionname": "Chennai City Region",
    "divisionname": "Tiruvannamalai Division",
    "officename": "Mamandur BO",
    "pincode": "632317",
    "officetype": "BO",
    "delivery": "Delivery",
    "district": "TIRUVANNAMALAI",
    "statename": "TAMIL NADU",
    "latitude": "12.7535000",
    "longitude": "79.6763000"
  },
  {
    "circlename": "Tamilnadu Circle",
    "regionname": "Chennai City Region",
    "divisionname": "Tiruvannamalai Division",
    "officename": "Kodiyalam BO",
    "pincode": "604406",
    "officetype": "BO",
    "delivery": "Delivery",
    "district": "TIRUVANNAMALAI",
    "statename": "TAMIL NADU",
    "latitude": "12.4916000",
    "longitude": "79.8369000"
  },
  {
    "circlename": "Tamilnadu Circle",
    "regionname": "Chennai City Region",
    "divisionname": "Tiruvannamalai Division",
    "officename": "Therasapuram BO",
    "pincode": "604406",
    "officetype": "BO",
    "delivery": "Delivery",
    "district": "TIRUVANNAMALAI",
    "statename": "TAMIL NADU",
    "latitude": "12.4916000",
    "longitude": "79.8369000"
  },
  {
    "circlename": "Tamilnadu Circle",
    "regionname": "Chennai City Region",
    "divisionname": "Tiruvannamalai Division",
    "officename": "Melsishamangalam BO",
    "pincode": "604504",
    "officetype": "BO",
    "delivery": "Delivery",
    "district": "TIRUVANNAMALAI",
    "statename": "TAMIL NADU",
    "latitude": "12.7839000",
    "longitude": "79.8240000"
  },
  {
    "circlename": "Tamilnadu Circle",
    "regionname": "Chennai City Region",
    "divisionname": "Tiruvannamalai Division",
    "officename": "Cheyyar BO",
    "pincode": "604407",
    "officetype": "BO",
    "delivery": "Non Delivery",
    "district": "TIRUVANNAMALAI",
    "statename": "TAMIL NADU",
    "latitude": "12.6605000",
    "longitude": "79.5431000"
  },
  {
    "circlename": "Tamilnadu Circle",
    "regionname": "Chennai City Region",
    "divisionname": "Tiruvannamalai Division",
    "officename": "Kaliyur BO",
    "pincode": "604407",
    "officetype": "BO",
    "delivery": "Delivery",
    "district": "TIRUVANNAMALAI",
    "statename": "TAMIL NADU",
    "latitude": "12.6936000",
    "longitude": "79.5370000"
  },
  {
    "circlename": "Tamilnadu Circle",
    "regionname": "Chennai City Region",
    "divisionname": "Tiruvannamalai Division",
    "officename": "Murukattampundi BO",
    "pincode": "604407",
    "officetype": "BO",
    "delivery": "Delivery",
    "district": "TIRUVANNAMALAI",
    "statename": "TAMIL NADU",
    "latitude": "12.6936000",
    "longitude": "79.5237000"
  },
  {
    "circlename": "Tamilnadu Circle",
    "regionname": "Chennai City Region",
    "divisionname": "Tiruvannamalai Division",
    "officename": "Nedumbarai BO",
    "pincode": "604407",
    "officetype": "BO",
    "delivery": "Delivery",
    "district": "TIRUVANNAMALAI",
    "statename": "TAMIL NADU",
    "latitude": "12.6936000",
    "longitude": "79.5237000"
  },
  {
    "circlename": "Tamilnadu Circle",
    "regionname": "Chennai City Region",
    "divisionname": "Tiruvannamalai Division",
    "officename": "Korakkai BO",
    "pincode": "604409",
    "officetype": "BO",
    "delivery": "Delivery",
    "district": "TIRUVANNAMALAI",
    "statename": "TAMIL NADU",
    "latitude": "12.4495000",
    "longitude": "79.5540000"
  },
  {
    "circlename": "Tamilnadu Circle",
    "regionname": "Chennai City Region",
    "divisionname": "Tiruvannamalai Division",
    "officename": "Vadathinallur BO",
    "pincode": "604409",
    "officetype": "BO",
    "delivery": "Delivery",
    "district": "TIRUVANNAMALAI",
    "statename": "TAMIL NADU",
    "latitude": "12.4495000",
    "longitude": "79.5540000"
  },
  {
    "circlename": "Tamilnadu Circle",
    "regionname": "Chennai City Region",
    "divisionname": "Tiruvannamalai Division",
    "officename": "Vadavanakkambadi BO",
    "pincode": "604505",
    "officetype": "BO",
    "delivery": "Delivery",
    "district": "TIRUVANNAMALAI",
    "statename": "TAMIL NADU",
    "latitude": "12.7469000",
    "longitude": "80.1847000"
  },
  {
    "circlename": "Tamilnadu Circle",
    "regionname": "Chennai City Region",
    "divisionname": "Tiruvannamalai Division",
    "officename": "Kilvillivalam BO",
    "pincode": "604408",
    "officetype": "BO",
    "delivery": "Delivery",
    "district": "TIRUVANNAMALAI",
    "statename": "TAMIL NADU",
    "latitude": "12.0294000",
    "longitude": "79.6047000"
  },
  {
    "circlename": "Tamilnadu Circle",
    "regionname": "Chennai City Region",
    "divisionname": "Tiruvannamalai Division",
    "officename": "Manganallur BO",
    "pincode": "604408",
    "officetype": "BO",
    "delivery": "Delivery",
    "district": "TIRUVANNAMALAI",
    "statename": "TAMIL NADU",
    "latitude": "12.0294000",
    "longitude": "79.6047000"
  },
  {
    "circlename": "Tamilnadu Circle",
    "regionname": "Chennai City Region",
    "divisionname": "Tiruvannamalai Division",
    "officename": "Melma BO",
    "pincode": "604408",
    "officetype": "BO",
    "delivery": "Delivery",
    "district": "TIRUVANNAMALAI",
    "statename": "TAMIL NADU",
    "latitude": "12.0294000",
    "longitude": "79.6047000"
  },
  {
    "circlename": "Tamilnadu Circle",
    "regionname": "Chennai City Region",
    "divisionname": "Tiruvannamalai Division",
    "officename": "Sennavaram BO",
    "pincode": "604408",
    "officetype": "BO",
    "delivery": "Non Delivery",
    "district": "TIRUVANNAMALAI",
    "statename": "TAMIL NADU",
    "latitude": "13.4619000",
    "longitude": "80.1534000"
  },
  {
    "circlename": "Tamilnadu Circle",
    "regionname": "Chennai City Region",
    "divisionname": "Tiruvannamalai Division",
    "officename": "Kaganam BO",
    "pincode": "604410",
    "officetype": "BO",
    "delivery": "Delivery",
    "district": "TIRUVANNAMALAI",
    "statename": "TAMIL NADU",
    "latitude": "12.4495000",
    "longitude": "79.5540000"
  },
  {
    "circlename": "Tamilnadu Circle",
    "regionname": "Chennai City Region",
    "divisionname": "Tiruvannamalai Division",
    "officename": "Saron BO",
    "pincode": "606601",
    "officetype": "BO",
    "delivery": "Non Delivery",
    "district": "TIRUVANNAMALAI",
    "statename": "TAMIL NADU",
    "latitude": "12.2266000",
    "longitude": "79.0746000"
  },
  {
    "circlename": "Tamilnadu Circle",
    "regionname": "Chennai City Region",
    "divisionname": "Tiruvannamalai Division",
    "officename": "Kayambattu BO",
    "pincode": "606701",
    "officetype": "BO",
    "delivery": "Delivery",
    "district": "TIRUVANNAMALAI",
    "statename": "TAMIL NADU",
    "latitude": "12.3089000",
    "longitude": "78.7914000"
  },
  {
    "circlename": "Tamilnadu Circle",
    "regionname": "Chennai City Region",
    "divisionname": "Tiruvannamalai Division",
    "officename": "Kuruvimalai BO",
    "pincode": "606751",
    "officetype": "BO",
    "delivery": "Delivery",
    "district": "TIRUVANNAMALAI",
    "statename": "TAMIL NADU",
    "latitude": "12.4346000",
    "longitude": "79.0981000"
  },
  {
    "circlename": "Tamilnadu Circle",
    "regionname": "Chennai City Region",
    "divisionname": "Tiruvannamalai Division",
    "officename": "Pundi Polur BO",
    "pincode": "606751",
    "officetype": "BO",
    "delivery": "Delivery",
    "district": "TIRUVANNAMALAI",
    "statename": "TAMIL NADU",
    "latitude": "12.4346000",
    "longitude": "79.0981000"
  },
  {
    "circlename": "Tamilnadu Circle",
    "regionname": "Chennai City Region",
    "divisionname": "Tiruvannamalai Division",
    "officename": "Alathur BO",
    "pincode": "606702",
    "officetype": "BO",
    "delivery": "Delivery",
    "district": "TIRUVANNAMALAI",
    "statename": "TAMIL NADU",
    "latitude": "12.0092000",
    "longitude": "78.4334000"
  },
  {
    "circlename": "Tamilnadu Circle",
    "regionname": "Chennai City Region",
    "divisionname": "Tiruvannamalai Division",
    "officename": "Japthikariandal BO",
    "pincode": "606702",
    "officetype": "BO",
    "delivery": "Delivery",
    "district": "TIRUVANNAMALAI",
    "statename": "TAMIL NADU",
    "latitude": "12.0092000",
    "longitude": "78.4334000"
  },
  {
    "circlename": "Tamilnadu Circle",
    "regionname": "Chennai City Region",
    "divisionname": "Tiruvannamalai Division",
    "officename": "Kolakudi BO",
    "pincode": "606808",
    "officetype": "BO",
    "delivery": "Delivery",
    "district": "TIRUVANNAMALAI",
    "statename": "TAMIL NADU",
    "latitude": "12.4935000",
    "longitude": "79.4438000"
  },
  {
    "circlename": "Tamilnadu Circle",
    "regionname": "Chennai City Region",
    "divisionname": "Tiruvannamalai Division",
    "officename": "Mekkalur BO",
    "pincode": "604601",
    "officetype": "BO",
    "delivery": "Delivery",
    "district": "TIRUVANNAMALAI",
    "statename": "TAMIL NADU",
    "latitude": "13.3725000",
    "longitude": "80.3334000"
  },
  {
    "circlename": "Tamilnadu Circle",
    "regionname": "Chennai City Region",
    "divisionname": "Tiruvannamalai Division",
    "officename": "Semmiyamangalam BO",
    "pincode": "606904",
    "officetype": "BO",
    "delivery": "Delivery",
    "district": "TIRUVANNAMALAI",
    "statename": "TAMIL NADU",
    "latitude": "12.1874000",
    "longitude": "79.4080000"
  },
  {
    "circlename": "Tamilnadu Circle",
    "regionname": "Chennai City Region",
    "divisionname": "Tiruvannamalai Division",
    "officename": "Andipattu BO",
    "pincode": "606703",
    "officetype": "BO",
    "delivery": "Delivery",
    "district": "TIRUVANNAMALAI",
    "statename": "TAMIL NADU",
    "latitude": "11.3516000",
    "longitude": "77.1667000"
  },
  {
    "circlename": "Tamilnadu Circle",
    "regionname": "Chennai City Region",
    "divisionname": "Tiruvannamalai Division",
    "officename": "Melchengam BO",
    "pincode": "606703",
    "officetype": "BO",
    "delivery": "Delivery",
    "district": "TIRUVANNAMALAI",
    "statename": "TAMIL NADU",
    "latitude": "11.3516000",
    "longitude": "77.1667000"
  },
  {
    "circlename": "Tamilnadu Circle",
    "regionname": "Chennai City Region",
    "divisionname": "Tiruvannamalai Division",
    "officename": "Northampoondi BO",
    "pincode": "606802",
    "officetype": "BO",
    "delivery": "Delivery",
    "district": "TIRUVANNAMALAI",
    "statename": "TAMIL NADU",
    "latitude": "12.4935000",
    "longitude": "79.4438000"
  },
  {
    "circlename": "Tamilnadu Circle",
    "regionname": "Chennai City Region",
    "divisionname": "Tiruvannamalai Division",
    "officename": "Thennagaram BO",
    "pincode": "606802",
    "officetype": "BO",
    "delivery": "Delivery",
    "district": "TIRUVANNAMALAI",
    "statename": "TAMIL NADU",
    "latitude": "12.4935000",
    "longitude": "79.4438000"
  },
  {
    "circlename": "Tamilnadu Circle",
    "regionname": "Chennai City Region",
    "divisionname": "Tiruvannamalai Division",
    "officename": "Thorapadi BO",
    "pincode": "606704",
    "officetype": "BO",
    "delivery": "Delivery",
    "district": "TIRUVANNAMALAI",
    "statename": "TAMIL NADU",
    "latitude": "12.2681000",
    "longitude": "78.9413000"
  },
  {
    "circlename": "Tamilnadu Circle",
    "regionname": "Chennai City Region",
    "divisionname": "Tiruvannamalai Division",
    "officename": "Kuppanatham BO",
    "pincode": "606710",
    "officetype": "BO",
    "delivery": "Delivery",
    "district": "TIRUVANNAMALAI",
    "statename": "TAMIL NADU",
    "latitude": "11.7817000",
    "longitude": "79.3040000"
  },
  {
    "circlename": "Tamilnadu Circle",
    "regionname": "Chennai City Region",
    "divisionname": "Tiruvannamalai Division",
    "officename": "Su Valavetti BO",
    "pincode": "606806",
    "officetype": "BO",
    "delivery": "Delivery",
    "district": "TIRUVANNAMALAI",
    "statename": "TAMIL NADU",
    "latitude": "12.0917000",
    "longitude": "79.1303000"
  },
  {
    "circlename": "Tamilnadu Circle",
    "regionname": "Chennai City Region",
    "divisionname": "Tiruvannamalai Division",
    "officename": "Karapundi BO",
    "pincode": "606803",
    "officetype": "BO",
    "delivery": "Delivery",
    "district": "TIRUVANNAMALAI",
    "statename": "TAMIL NADU",
    "latitude": "13.2677000",
    "longitude": "80.0503000"
  },
  {
    "circlename": "Tamilnadu Circle",
    "regionname": "Chennai City Region",
    "divisionname": "Tiruvannamalai Division",
    "officename": "Tirusur BO",
    "pincode": "606803",
    "officetype": "BO",
    "delivery": "Delivery",
    "district": "TIRUVANNAMALAI",
    "statename": "TAMIL NADU",
    "latitude": "13.2677000",
    "longitude": "80.0503000"
  },
  {
    "circlename": "Tamilnadu Circle",
    "regionname": "Chennai City Region",
    "divisionname": "Tiruvannamalai Division",
    "officename": "Vasur BO",
    "pincode": "606803",
    "officetype": "BO",
    "delivery": "Delivery",
    "district": "TIRUVANNAMALAI",
    "statename": "TAMIL NADU",
    "latitude": "13.2677000",
    "longitude": "80.0503000"
  },
  {
    "circlename": "Tamilnadu Circle",
    "regionname": "Chennai City Region",
    "divisionname": "Tiruvannamalai Division",
    "officename": "Veeranandal BO",
    "pincode": "606705",
    "officetype": "BO",
    "delivery": "Non Delivery",
    "district": "TIRUVANNAMALAI",
    "statename": "TAMIL NADU",
    "latitude": "12.0092000",
    "longitude": "78.4334000"
  },
  {
    "circlename": "Tamilnadu Circle",
    "regionname": "Chennai City Region",
    "divisionname": "Tiruvannamalai Division",
    "officename": "Kesavapuram BO",
    "pincode": "606905",
    "officetype": "BO",
    "delivery": "Delivery",
    "district": "TIRUVANNAMALAI",
    "statename": "TAMIL NADU",
    "latitude": "10.3757000",
    "longitude": "78.8097000"
  },
  {
    "circlename": "Tamilnadu Circle",
    "regionname": "Chennai City Region",
    "divisionname": "Tiruvannamalai Division",
    "officename": "Krishnapuram BO",
    "pincode": "606905",
    "officetype": "BO",
    "delivery": "Delivery",
    "district": "TIRUVANNAMALAI",
    "statename": "TAMIL NADU",
    "latitude": "11.3797000",
    "longitude": "78.7885000"
  },
  {
    "circlename": "Tamilnadu Circle",
    "regionname": "Chennai City Region",
    "divisionname": "Tiruvannamalai Division",
    "officename": "Kilnachipattu BO",
    "pincode": "606611",
    "officetype": "BO",
    "delivery": "Delivery",
    "district": "TIRUVANNAMALAI",
    "statename": "TAMIL NADU",
    "latitude": "12.2266000",
    "longitude": "79.0746000"
  },
  {
    "circlename": "Tamilnadu Circle",
    "regionname": "Chennai City Region",
    "divisionname": "Tiruvannamalai Division",
    "officename": "Malappambadi BO",
    "pincode": "606611",
    "officetype": "BO",
    "delivery": "Delivery",
    "district": "TIRUVANNAMALAI",
    "statename": "TAMIL NADU",
    "latitude": "12.2266000",
    "longitude": "79.0746000"
  },
  {
    "circlename": "Tamilnadu Circle",
    "regionname": "Chennai City Region",
    "divisionname": "Tiruvannamalai Division",
    "officename": "Gangapattu BO",
    "pincode": "606804",
    "officetype": "BO",
    "delivery": "Delivery",
    "district": "TIRUVANNAMALAI",
    "statename": "TAMIL NADU",
    "latitude": "12.1211000",
    "longitude": "79.1509000"
  },
  {
    "circlename": "Tamilnadu Circle",
    "regionname": "Chennai City Region",
    "divisionname": "Tiruvannamalai Division",
    "officename": "Kadagaman BO",
    "pincode": "606804",
    "officetype": "BO",
    "delivery": "Delivery",
    "district": "TIRUVANNAMALAI",
    "statename": "TAMIL NADU",
    "latitude": "12.1211000",
    "longitude": "79.1509000"
  },
  {
    "circlename": "Tamilnadu Circle",
    "regionname": "Chennai City Region",
    "divisionname": "Tiruvannamalai Division",
    "officename": "Pudur Chekkadi BO",
    "pincode": "606708",
    "officetype": "BO",
    "delivery": "Delivery",
    "district": "TIRUVANNAMALAI",
    "statename": "TAMIL NADU",
    "latitude": "12.1082000",
    "longitude": "78.8342000"
  },
  {
    "circlename": "Tamilnadu Circle",
    "regionname": "Chennai City Region",
    "divisionname": "Tiruvannamalai Division",
    "officename": "Tiruvadathanur BO",
    "pincode": "606708",
    "officetype": "BO",
    "delivery": "Delivery",
    "district": "TIRUVANNAMALAI",
    "statename": "TAMIL NADU",
    "latitude": "12.1082000",
    "longitude": "78.8342000"
  },
  {
    "circlename": "Tamilnadu Circle",
    "regionname": "Chennai City Region",
    "divisionname": "Tiruvannamalai Division",
    "officename": "Arattavadi BO",
    "pincode": "606709",
    "officetype": "BO",
    "delivery": "Delivery",
    "district": "TIRUVANNAMALAI",
    "statename": "TAMIL NADU",
    "latitude": "12.0092000",
    "longitude": "78.4334000"
  },
  {
    "circlename": "Tamilnadu Circle",
    "regionname": "Chennai City Region",
    "divisionname": "Tiruvannamalai Division",
    "officename": "Kariamangalam BO",
    "pincode": "606709",
    "officetype": "BO",
    "delivery": "Delivery",
    "district": "TIRUVANNAMALAI",
    "statename": "TAMIL NADU",
    "latitude": "12.0092000",
    "longitude": "78.4334000"
  },
  {
    "circlename": "Tamilnadu Circle",
    "regionname": "Chennai City Region",
    "divisionname": "Tiruvannamalai Division",
    "officename": "Pinjur BO",
    "pincode": "606709",
    "officetype": "BO",
    "delivery": "Delivery",
    "district": "TIRUVANNAMALAI",
    "statename": "TAMIL NADU",
    "latitude": "12.0092000",
    "longitude": "78.4334000"
  },
  {
    "circlename": "Tamilnadu Circle",
    "regionname": "Chennai City Region",
    "divisionname": "Tiruvannamalai Division",
    "officename": "Saduperipalayam BO",
    "pincode": "606907",
    "officetype": "BO",
    "delivery": "Delivery",
    "district": "TIRUVANNAMALAI",
    "statename": "TAMIL NADU",
    "latitude": "11.7463000",
    "longitude": "79.7644000"
  },
  {
    "circlename": "Tamilnadu Circle",
    "regionname": "Chennai City Region",
    "divisionname": "Tiruvannamalai Division",
    "officename": "Allikondapattu BO",
    "pincode": "606753",
    "officetype": "BO",
    "delivery": "Delivery",
    "district": "TIRUVANNAMALAI",
    "statename": "TAMIL NADU",
    "latitude": "12.5295000",
    "longitude": "80.1660000"
  },
  {
    "circlename": "Tamilnadu Circle",
    "regionname": "Chennai City Region",
    "divisionname": "Tiruvannamalai Division",
    "officename": "Valavachanur BO",
    "pincode": "606753",
    "officetype": "BO",
    "delivery": "Delivery",
    "district": "TIRUVANNAMALAI",
    "statename": "TAMIL NADU",
    "latitude": "12.5295000",
    "longitude": "80.1660000"
  },
  {
    "circlename": "Tamilnadu Circle",
    "regionname": "Chennai City Region",
    "divisionname": "Tiruvannamalai Division",
    "officename": "Adaiyur BO",
    "pincode": "606604",
    "officetype": "BO",
    "delivery": "Delivery",
    "district": "TIRUVANNAMALAI",
    "statename": "TAMIL NADU",
    "latitude": "12.2266000",
    "longitude": "79.0746000"
  },
  {
    "circlename": "Tamilnadu Circle",
    "regionname": "Chennai City Region",
    "divisionname": "Vellore Division",
    "officename": "Kilsaranankuppam B.O",
    "pincode": "632102",
    "officetype": "BO",
    "delivery": "Delivery",
    "district": "TIRUVANNAMALAI",
    "statename": "TAMIL NADU",
    "latitude": "12.6681000",
    "longitude": "79.0068000"
  },
  {
    "circlename": "Tamilnadu Circle",
    "regionname": "Chennai City Region",
    "divisionname": "Vellore Division",
    "officename": "Nadanur B.O",
    "pincode": "632102",
    "officetype": "BO",
    "delivery": "Delivery",
    "district": "TIRUVANNAMALAI",
    "statename": "TAMIL NADU",
    "latitude": "12.6564000",
    "longitude": "78.9903000"
  },
  {
    "circlename": "Tamilnadu Circle",
    "regionname": "Chennai City Region",
    "divisionname": "Vellore Division",
    "officename": "Eriyur B.O",
    "pincode": "632103",
    "officetype": "BO",
    "delivery": "Delivery",
    "district": "TIRUVANNAMALAI",
    "statename": "TAMIL NADU",
    "latitude": "12.7547000",
    "longitude": "78.9101000"
  },
  {
    "circlename": "Tamilnadu Circle",
    "regionname": "Western Region Coimbatore",
    "divisionname": "Tirupattur Division",
    "officename": "Athipattu(T) B.O",
    "pincode": "635703",
    "officetype": "BO",
    "delivery": "Delivery",
    "district": "TIRUVANNAMALAI",
    "statename": "TAMIL NADU",
    "latitude": "12.4470450",
    "longitude": "78.8457120"
  },
  {
    "circlename": "Tamilnadu Circle",
    "regionname": "Western Region Coimbatore",
    "divisionname": "Tirupattur Division",
    "officename": "Athipet B.O",
    "pincode": "635703",
    "officetype": "BO",
    "delivery": "Delivery",
    "district": "TIRUVANNAMALAI",
    "statename": "TAMIL NADU",
    "latitude": "12.5731410",
    "longitude": "78.8896890"
  },
  {
    "circlename": "Tamilnadu Circle",
    "regionname": "Western Region Coimbatore",
    "divisionname": "Tirupattur Division",
    "officename": "Gunikanthur B.O",
    "pincode": "635703",
    "officetype": "BO",
    "delivery": "Delivery",
    "district": "TIRUVANNAMALAI",
    "statename": "TAMIL NADU",
    "latitude": "12.6072050",
    "longitude": "78.8987650"
  },
  {
    "circlename": "Tamilnadu Circle",
    "regionname": "Western Region Coimbatore",
    "divisionname": "Tirupattur Division",
    "officename": "Kuttathur B.O",
    "pincode": "635703",
    "officetype": "BO",
    "delivery": "Delivery",
    "district": "TIRUVANNAMALAI",
    "statename": "TAMIL NADU",
    "latitude": "12.5278550",
    "longitude": "78.8508080"
  },
  {
    "circlename": "Tamilnadu Circle",
    "regionname": "Chennai City Region",
    "divisionname": "Tiruvannamalai Division",
    "officename": "Anukkavoor SO",
    "pincode": "604401",
    "officetype": "PO",
    "delivery": "Delivery",
    "district": "TIRUVANNAMALAI",
    "statename": "TAMIL NADU",
    "latitude": "12.2351944",
    "longitude": "79.0765833"
  },
  {
    "circlename": "Tamilnadu Circle",
    "regionname": "Chennai City Region",
    "divisionname": "Tiruvannamalai Division",
    "officename": "Arunagirichatram SO",
    "pincode": "632301",
    "officetype": "PO",
    "delivery": "Non Delivery",
    "district": "TIRUVANNAMALAI",
    "statename": "TAMIL NADU",
    "latitude": "12.6696000",
    "longitude": "79.2854000"
  },
  {
    "circlename": "Tamilnadu Circle",
    "regionname": "Chennai City Region",
    "divisionname": "Tiruvannamalai Division",
    "officename": "Desur SO",
    "pincode": "604501",
    "officetype": "PO",
    "delivery": "Delivery",
    "district": "TIRUVANNAMALAI",
    "statename": "TAMIL NADU",
    "latitude": "12.2351944",
    "longitude": "79.0765833"
  },
  {
    "circlename": "Tamilnadu Circle",
    "regionname": "Chennai City Region",
    "divisionname": "Tiruvannamalai Division",
    "officename": "Kolappalur SO Tiruvannamalai",
    "pincode": "632313",
    "officetype": "PO",
    "delivery": "Delivery",
    "district": "TIRUVANNAMALAI",
    "statename": "TAMIL NADU",
    "latitude": "12.2351944",
    "longitude": "79.0765833"
  },
  {
    "circlename": "Tamilnadu Circle",
    "regionname": "Chennai City Region",
    "divisionname": "Tiruvannamalai Division",
    "officename": "Nedungunam SO",
    "pincode": "606807",
    "officetype": "PO",
    "delivery": "Delivery",
    "district": "TIRUVANNAMALAI",
    "statename": "TAMIL NADU",
    "latitude": "12.2351944",
    "longitude": "79.0765833"
  },
  {
    "circlename": "Tamilnadu Circle",
    "regionname": "Chennai City Region",
    "divisionname": "Tiruvannamalai Division",
    "officename": "Tellar SO",
    "pincode": "604406",
    "officetype": "PO",
    "delivery": "Delivery",
    "district": "TIRUVANNAMALAI",
    "statename": "TAMIL NADU",
    "latitude": "12.3973889",
    "longitude": "79.5503056"
  },
  {
    "circlename": "Tamilnadu Circle",
    "regionname": "Chennai City Region",
    "divisionname": "Tiruvannamalai Division",
    "officename": "Chengam SO",
    "pincode": "606701",
    "officetype": "PO",
    "delivery": "Delivery",
    "district": "TIRUVANNAMALAI",
    "statename": "TAMIL NADU",
    "latitude": "12.3104722",
    "longitude": "78.7924722"
  },
  {
    "circlename": "Tamilnadu Circle",
    "regionname": "Chennai City Region",
    "divisionname": "Tiruvannamalai Division",
    "officename": "Esanyamadam SO",
    "pincode": "606604",
    "officetype": "PO",
    "delivery": "Non Delivery",
    "district": "TIRUVANNAMALAI",
    "statename": "TAMIL NADU",
    "latitude": "12.2703889",
    "longitude": "79.0729444"
  },
  {
    "circlename": "Tamilnadu Circle",
    "regionname": "Chennai City Region",
    "divisionname": "Tiruvannamalai Division",
    "officename": "Kadaladi SO Tiruvannamalai",
    "pincode": "606908",
    "officetype": "PO",
    "delivery": "Delivery",
    "district": "TIRUVANNAMALAI",
    "statename": "TAMIL NADU",
    "latitude": "12.2351944",
    "longitude": "79.0765833"
  },
  {
    "circlename": "Tamilnadu Circle",
    "regionname": "Chennai City Region",
    "divisionname": "Tiruvannamalai Division",
    "officename": "Mandakolathur SO",
    "pincode": "606904",
    "officetype": "PO",
    "delivery": "Delivery",
    "district": "TIRUVANNAMALAI",
    "statename": "TAMIL NADU",
    "latitude": "12.2351944",
    "longitude": "79.0765833"
  },
  {
    "circlename": "Tamilnadu Circle",
    "regionname": "Chennai City Region",
    "divisionname": "Tiruvannamalai Division",
    "officename": "Polur SO Tiruvannamalai",
    "pincode": "606803",
    "officetype": "PO",
    "delivery": "Delivery",
    "district": "TIRUVANNAMALAI",
    "statename": "TAMIL NADU",
    "latitude": "12.2351944",
    "longitude": "79.0765833"
  },
  {
    "circlename": "Tamilnadu Circle",
    "regionname": "Chennai City Region",
    "divisionname": "Tiruvannamalai Division",
    "officename": "Polur Town SO",
    "pincode": "606803",
    "officetype": "PO",
    "delivery": "Non Delivery",
    "district": "TIRUVANNAMALAI",
    "statename": "TAMIL NADU",
    "latitude": "12.2351944",
    "longitude": "79.0765833"
  },
  {
    "circlename": "Tamilnadu Circle",
    "regionname": "Chennai City Region",
    "divisionname": "Tiruvannamalai Division",
    "officename": "Sriramanashramam SO",
    "pincode": "606603",
    "officetype": "PO",
    "delivery": "Delivery",
    "district": "TIRUVANNAMALAI",
    "statename": "TAMIL NADU",
    "latitude": "12.2223889",
    "longitude": "79.0563333"
  },
  {
    "circlename": "Tamilnadu Circle",
    "regionname": "Chennai City Region",
    "divisionname": "Tiruvannamalai Division",
    "officename": "Vadamadimangalam SO",
    "pincode": "606907",
    "officetype": "PO",
    "delivery": "Delivery",
    "district": "TIRUVANNAMALAI",
    "statename": "TAMIL NADU",
    "latitude": "12.2351944",
    "longitude": "79.0765833"
  },
  {
    "circlename": "Tamilnadu Circle",
    "regionname": "Chennai City Region",
    "divisionname": "Tiruvannamalai Division",
    "officename": "Vilvarani SO",
    "pincode": "606906",
    "officetype": "PO",
    "delivery": "Delivery",
    "district": "TIRUVANNAMALAI",
    "statename": "TAMIL NADU",
    "latitude": "12.2351944",
    "longitude": "79.0765833"
  },
  {
    "circlename": "Tamilnadu Circle",
    "regionname": "Western Region Coimbatore",
    "divisionname": "Tirupattur Division",
    "officename": "Kuttakarai B.O",
    "pincode": "635703",
    "officetype": "BO",
    "delivery": "Delivery",
    "district": "TIRUVANNAMALAI",
    "statename": "TAMIL NADU",
    "latitude": "12.5892450",
    "longitude": "78.9780840"
  },
  {
    "circlename": "Tamilnadu Circle",
    "regionname": "Western Region Coimbatore",
    "divisionname": "Tirupattur Division",
    "officename": "Veerappanur B.O",
    "pincode": "635703",
    "officetype": "BO",
    "delivery": "Delivery",
    "district": "TIRUVANNAMALAI",
    "statename": "TAMIL NADU",
    "latitude": "12.6305940",
    "longitude": "78.9183250"
  },
  {
    "circlename": "Tamilnadu Circle",
    "regionname": "Chennai City Region",
    "divisionname": "Arakkonam Division",
    "officename": "Brammadesam BO",
    "pincode": "632511",
    "officetype": "BO",
    "delivery": "Delivery",
    "district": "TIRUVANNAMALAI",
    "statename": "TAMIL NADU",
    "latitude": "12.6590420",
    "longitude": "79.5429690"
  },
  {
    "circlename": "Tamilnadu Circle",
    "regionname": "Chennai City Region",
    "divisionname": "Arakkonam Division",
    "officename": "Puthur BO",
    "pincode": "632512",
    "officetype": "BO",
    "delivery": "Delivery",
    "district": "TIRUVANNAMALAI",
    "statename": "TAMIL NADU",
    "latitude": "12.6685540",
    "longitude": "79.2841940"
  },
  {
    "circlename": "Tamilnadu Circle",
    "regionname": "Chennai City Region",
    "divisionname": "Tiruvannamalai Division",
    "officename": "Mathur BO",
    "pincode": "631701",
    "officetype": "BO",
    "delivery": "Delivery",
    "district": "TIRUVANNAMALAI",
    "statename": "TAMIL NADU",
    "latitude": "12.9623000",
    "longitude": "80.1986000"
  },
  {
    "circlename": "Tamilnadu Circle",
    "regionname": "Chennai City Region",
    "divisionname": "Tiruvannamalai Division",
    "officename": "Ukkal BO",
    "pincode": "631701",
    "officetype": "BO",
    "delivery": "Delivery",
    "district": "TIRUVANNAMALAI",
    "statename": "TAMIL NADU",
    "latitude": "12.9623000",
    "longitude": "80.1986000"
  },
  {
    "circlename": "Tamilnadu Circle",
    "regionname": "Chennai City Region",
    "divisionname": "Tiruvannamalai Division",
    "officename": "Perumbalai BO",
    "pincode": "604401",
    "officetype": "BO",
    "delivery": "Delivery",
    "district": "TIRUVANNAMALAI",
    "statename": "TAMIL NADU",
    "latitude": "11.9633000",
    "longitude": "77.9378000"
  },
  {
    "circlename": "Tamilnadu Circle",
    "regionname": "Chennai City Region",
    "divisionname": "Tiruvannamalai Division",
    "officename": "Maruthuvambadi BO",
    "pincode": "606801",
    "officetype": "BO",
    "delivery": "Delivery",
    "district": "TIRUVANNAMALAI",
    "statename": "TAMIL NADU",
    "latitude": "12.4935000",
    "longitude": "79.4438000"
  },
  {
    "circlename": "Tamilnadu Circle",
    "regionname": "Chennai City Region",
    "divisionname": "Tiruvannamalai Division",
    "officename": "Ragunathapuram BO",
    "pincode": "632316",
    "officetype": "BO",
    "delivery": "Delivery",
    "district": "TIRUVANNAMALAI",
    "statename": "TAMIL NADU",
    "latitude": "12.7290000",
    "longitude": "79.6059000"
  },
  {
    "circlename": "Tamilnadu Circle",
    "regionname": "Chennai City Region",
    "divisionname": "Tiruvannamalai Division",
    "officename": "Chitragavur Pudur BO",
    "pincode": "604501",
    "officetype": "BO",
    "delivery": "Delivery",
    "district": "TIRUVANNAMALAI",
    "statename": "TAMIL NADU",
    "latitude": "12.8757000",
    "longitude": "79.8374000"
  },
  {
    "circlename": "Tamilnadu Circle",
    "regionname": "Chennai City Region",
    "divisionname": "Tiruvannamalai Division",
    "officename": "Thenthinnalur BO",
    "pincode": "604501",
    "officetype": "BO",
    "delivery": "Delivery",
    "district": "TIRUVANNAMALAI",
    "statename": "TAMIL NADU",
    "latitude": "12.8766000",
    "longitude": "79.7499000"
  },
  {
    "circlename": "Tamilnadu Circle",
    "regionname": "Chennai City Region",
    "divisionname": "Tiruvannamalai Division",
    "officename": "Kamakkur BO",
    "pincode": "606903",
    "officetype": "BO",
    "delivery": "Delivery",
    "district": "TIRUVANNAMALAI",
    "statename": "TAMIL NADU",
    "latitude": "12.9874000",
    "longitude": "79.6562000"
  },
  {
    "circlename": "Tamilnadu Circle",
    "regionname": "Chennai City Region",
    "divisionname": "Tiruvannamalai Division",
    "officename": "Mukkurumbai BO",
    "pincode": "606903",
    "officetype": "BO",
    "delivery": "Delivery",
    "district": "TIRUVANNAMALAI",
    "statename": "TAMIL NADU",
    "latitude": "12.9874000",
    "longitude": "79.6562000"
  },
  {
    "circlename": "Tamilnadu Circle",
    "regionname": "Chennai City Region",
    "divisionname": "Tiruvannamalai Division",
    "officename": "Pungambadi BO",
    "pincode": "606903",
    "officetype": "BO",
    "delivery": "Delivery",
    "district": "TIRUVANNAMALAI",
    "statename": "TAMIL NADU",
    "latitude": "12.9874000",
    "longitude": "79.6562000"
  },
  {
    "circlename": "Tamilnadu Circle",
    "regionname": "Chennai City Region",
    "divisionname": "Tiruvannamalai Division",
    "officename": "Kilnarma BO",
    "pincode": "604403",
    "officetype": "BO",
    "delivery": "Delivery",
    "district": "TIRUVANNAMALAI",
    "statename": "TAMIL NADU",
    "latitude": "12.9506000",
    "longitude": "80.0030000"
  },
  {
    "circlename": "Tamilnadu Circle",
    "regionname": "Chennai City Region",
    "divisionname": "Tiruvannamalai Division",
    "officename": "Kottai BO",
    "pincode": "604403",
    "officetype": "BO",
    "delivery": "Delivery",
    "district": "TIRUVANNAMALAI",
    "statename": "TAMIL NADU",
    "latitude": "12.9506000",
    "longitude": "80.0033000"
  },
  {
    "circlename": "Tamilnadu Circle",
    "regionname": "Chennai City Region",
    "divisionname": "Tiruvannamalai Division",
    "officename": "Salvedu BO",
    "pincode": "604403",
    "officetype": "BO",
    "delivery": "Delivery",
    "district": "TIRUVANNAMALAI",
    "statename": "TAMIL NADU",
    "latitude": "12.9506000",
    "longitude": "80.0033000"
  },
  {
    "circlename": "Tamilnadu Circle",
    "regionname": "Chennai City Region",
    "divisionname": "Tiruvannamalai Division",
    "officename": "Ulundai BO",
    "pincode": "604403",
    "officetype": "BO",
    "delivery": "Delivery",
    "district": "TIRUVANNAMALAI",
    "statename": "TAMIL NADU",
    "latitude": "12.9506000",
    "longitude": "80.0033000"
  },
  {
    "circlename": "Tamilnadu Circle",
    "regionname": "Chennai City Region",
    "divisionname": "Tiruvannamalai Division",
    "officename": "Ariyapadi BO",
    "pincode": "632314",
    "officetype": "BO",
    "delivery": "Delivery",
    "district": "TIRUVANNAMALAI",
    "statename": "TAMIL NADU",
    "latitude": "12.7290000",
    "longitude": "79.6059000"
  },
  {
    "circlename": "Tamilnadu Circle",
    "regionname": "Chennai City Region",
    "divisionname": "Tiruvannamalai Division",
    "officename": "Srinivasaudayanavaram BO",
    "pincode": "632314",
    "officetype": "BO",
    "delivery": "Delivery",
    "district": "TIRUVANNAMALAI",
    "statename": "TAMIL NADU",
    "latitude": "12.7290000",
    "longitude": "79.6059000"
  },
  {
    "circlename": "Tamilnadu Circle",
    "regionname": "Chennai City Region",
    "divisionname": "Tiruvannamalai Division",
    "officename": "Vettiyantholuvam BO",
    "pincode": "632314",
    "officetype": "BO",
    "delivery": "Delivery",
    "district": "TIRUVANNAMALAI",
    "statename": "TAMIL NADU",
    "latitude": "12.7290000",
    "longitude": "79.6059000"
  },
  {
    "circlename": "Tamilnadu Circle",
    "regionname": "Chennai City Region",
    "divisionname": "Tiruvannamalai Division",
    "officename": "Melachery BO",
    "pincode": "604502",
    "officetype": "BO",
    "delivery": "Delivery",
    "district": "TIRUVANNAMALAI",
    "statename": "TAMIL NADU",
    "latitude": "12.7839000",
    "longitude": "79.8240000"
  },
  {
    "circlename": "Tamilnadu Circle",
    "regionname": "Chennai City Region",
    "divisionname": "Tiruvannamalai Division",
    "officename": "Arasanipalai BO",
    "pincode": "631702",
    "officetype": "BO",
    "delivery": "Delivery",
    "district": "TIRUVANNAMALAI",
    "statename": "TAMIL NADU",
    "latitude": "12.7752000",
    "longitude": "79.6805000"
  },
  {
    "circlename": "Tamilnadu Circle",
    "regionname": "Chennai City Region",
    "divisionname": "Tiruvannamalai Division",
    "officename": "Chinnaelacheri BO",
    "pincode": "631702",
    "officetype": "BO",
    "delivery": "Delivery",
    "district": "TIRUVANNAMALAI",
    "statename": "TAMIL NADU",
    "latitude": "12.7752000",
    "longitude": "79.6805000"
  },
  {
    "circlename": "Tamilnadu Circle",
    "regionname": "Chennai City Region",
    "divisionname": "Tiruvannamalai Division",
    "officename": "Amudur BO",
    "pincode": "604405",
    "officetype": "BO",
    "delivery": "Delivery",
    "district": "TIRUVANNAMALAI",
    "statename": "TAMIL NADU",
    "latitude": "13.1710000",
    "longitude": "80.0115000"
  },
  {
    "circlename": "Tamilnadu Circle",
    "regionname": "Chennai City Region",
    "divisionname": "Tiruvannamalai Division",
    "officename": "Osur BO",
    "pincode": "604405",
    "officetype": "BO",
    "delivery": "Delivery",
    "district": "TIRUVANNAMALAI",
    "statename": "TAMIL NADU",
    "latitude": "13.1710000",
    "longitude": "80.0115000"
  },
  {
    "circlename": "Tamilnadu Circle",
    "regionname": "Chennai City Region",
    "divisionname": "Tiruvannamalai Division",
    "officename": "Ayyampalayam BO",
    "pincode": "632315",
    "officetype": "BO",
    "delivery": "Delivery",
    "district": "TIRUVANNAMALAI",
    "statename": "TAMIL NADU",
    "latitude": "12.7209000",
    "longitude": "79.1815000"
  },
  {
    "circlename": "Tamilnadu Circle",
    "regionname": "Chennai City Region",
    "divisionname": "Tiruvannamalai Division",
    "officename": "Puthur BO",
    "pincode": "632315",
    "officetype": "BO",
    "delivery": "Delivery",
    "district": "TIRUVANNAMALAI",
    "statename": "TAMIL NADU",
    "latitude": "12.7209000",
    "longitude": "79.1815000"
  },
  {
    "circlename": "Tamilnadu Circle",
    "regionname": "Chennai City Region",
    "divisionname": "Tiruvannamalai Division",
    "officename": "Injimedu BO",
    "pincode": "604503",
    "officetype": "BO",
    "delivery": "Delivery",
    "district": "TIRUVANNAMALAI",
    "statename": "TAMIL NADU",
    "latitude": "12.5456000",
    "longitude": "79.4234000"
  },
  {
    "circlename": "Tamilnadu Circle",
    "regionname": "Chennai City Region",
    "divisionname": "Tiruvannamalai Division",
    "officename": "Mosavadi BO",
    "pincode": "604503",
    "officetype": "BO",
    "delivery": "Delivery",
    "district": "TIRUVANNAMALAI",
    "statename": "TAMIL NADU",
    "latitude": "12.5456000",
    "longitude": "79.4234000"
  },
  {
    "circlename": "Tamilnadu Circle",
    "regionname": "Chennai City Region",
    "divisionname": "Tiruvannamalai Division",
    "officename": "Molugampoondi BO",
    "pincode": "632317",
    "officetype": "BO",
    "delivery": "Delivery",
    "district": "TIRUVANNAMALAI",
    "statename": "TAMIL NADU",
    "latitude": "12.5667000",
    "longitude": "79.7072000"
  },
  {
    "circlename": "Tamilnadu Circle",
    "regionname": "Chennai City Region",
    "divisionname": "Tiruvannamalai Division",
    "officename": "Paiyur BO",
    "pincode": "632317",
    "officetype": "BO",
    "delivery": "Delivery",
    "district": "TIRUVANNAMALAI",
    "statename": "TAMIL NADU",
    "latitude": "12.5667000",
    "longitude": "79.7072000"
  },
  {
    "circlename": "Tamilnadu Circle",
    "regionname": "Chennai City Region",
    "divisionname": "Tiruvannamalai Division",
    "officename": "VelapadiArni BO",
    "pincode": "632317",
    "officetype": "BO",
    "delivery": "Delivery",
    "district": "TIRUVANNAMALAI",
    "statename": "TAMIL NADU",
    "latitude": "12.5667000",
    "longitude": "79.7072000"
  },
  {
    "circlename": "Tamilnadu Circle",
    "regionname": "Chennai City Region",
    "divisionname": "Tiruvannamalai Division",
    "officename": "Arayalam BO",
    "pincode": "632326",
    "officetype": "BO",
    "delivery": "Delivery",
    "district": "TIRUVANNAMALAI",
    "statename": "TAMIL NADU",
    "latitude": "12.7231000",
    "longitude": "79.5738000"
  },
  {
    "circlename": "Tamilnadu Circle",
    "regionname": "Chennai City Region",
    "divisionname": "Tiruvannamalai Division",
    "officename": "Thatchur BO",
    "pincode": "632326",
    "officetype": "BO",
    "delivery": "Delivery",
    "district": "TIRUVANNAMALAI",
    "statename": "TAMIL NADU",
    "latitude": "12.7231000",
    "longitude": "79.5738000"
  },
  {
    "circlename": "Tamilnadu Circle",
    "regionname": "Chennai City Region",
    "divisionname": "Tiruvannamalai Division",
    "officename": "Embalam BO",
    "pincode": "604406",
    "officetype": "BO",
    "delivery": "Delivery",
    "district": "TIRUVANNAMALAI",
    "statename": "TAMIL NADU",
    "latitude": "12.4916000",
    "longitude": "79.8369000"
  },
  {
    "circlename": "Tamilnadu Circle",
    "regionname": "Chennai City Region",
    "divisionname": "Tiruvannamalai Division",
    "officename": "Mavalavadi BO",
    "pincode": "604406",
    "officetype": "BO",
    "delivery": "Delivery",
    "district": "TIRUVANNAMALAI",
    "statename": "TAMIL NADU",
    "latitude": "12.4916000",
    "longitude": "79.8369000"
  },
  {
    "circlename": "Tamilnadu Circle",
    "regionname": "Chennai City Region",
    "divisionname": "Tiruvannamalai Division",
    "officename": "Kodanagar BO",
    "pincode": "604407",
    "officetype": "BO",
    "delivery": "Non Delivery",
    "district": "TIRUVANNAMALAI",
    "statename": "TAMIL NADU",
    "latitude": "12.6936000",
    "longitude": "79.5237000"
  },
  {
    "circlename": "Tamilnadu Circle",
    "regionname": "Chennai City Region",
    "divisionname": "Tiruvannamalai Division",
    "officename": "Pappanthangal BO",
    "pincode": "604407",
    "officetype": "BO",
    "delivery": "Delivery",
    "district": "TIRUVANNAMALAI",
    "statename": "TAMIL NADU",
    "latitude": "12.6936000",
    "longitude": "79.5237000"
  },
  {
    "circlename": "Tamilnadu Circle",
    "regionname": "Chennai City Region",
    "divisionname": "Tiruvannamalai Division",
    "officename": "Parasur BO",
    "pincode": "604409",
    "officetype": "BO",
    "delivery": "Delivery",
    "district": "TIRUVANNAMALAI",
    "statename": "TAMIL NADU",
    "latitude": "12.4495000",
    "longitude": "79.5540000"
  },
  {
    "circlename": "Tamilnadu Circle",
    "regionname": "Chennai City Region",
    "divisionname": "Tiruvannamalai Division",
    "officename": "Thozhupedu BO",
    "pincode": "604409",
    "officetype": "BO",
    "delivery": "Delivery",
    "district": "TIRUVANNAMALAI",
    "statename": "TAMIL NADU",
    "latitude": "12.4495000",
    "longitude": "79.5540000"
  },
  {
    "circlename": "Tamilnadu Circle",
    "regionname": "Chennai City Region",
    "divisionname": "Tiruvannamalai Division",
    "officename": "Melpathi BO",
    "pincode": "604505",
    "officetype": "BO",
    "delivery": "Delivery",
    "district": "TIRUVANNAMALAI",
    "statename": "TAMIL NADU",
    "latitude": "12.7469000",
    "longitude": "80.1847000"
  },
  {
    "circlename": "Tamilnadu Circle",
    "regionname": "Chennai City Region",
    "divisionname": "Tiruvannamalai Division",
    "officename": "Nambedu BO",
    "pincode": "604505",
    "officetype": "BO",
    "delivery": "Delivery",
    "district": "TIRUVANNAMALAI",
    "statename": "TAMIL NADU",
    "latitude": "12.7469000",
    "longitude": "80.1847000"
  },
  {
    "circlename": "Tamilnadu Circle",
    "regionname": "Chennai City Region",
    "divisionname": "Tiruvannamalai Division",
    "officename": "Sengadu BO",
    "pincode": "604505",
    "officetype": "BO",
    "delivery": "Delivery",
    "district": "TIRUVANNAMALAI",
    "statename": "TAMIL NADU",
    "latitude": "12.7469000",
    "longitude": "80.1847000"
  },
  {
    "circlename": "Tamilnadu Circle",
    "regionname": "Chennai City Region",
    "divisionname": "Tiruvannamalai Division",
    "officename": "Alathur BO",
    "pincode": "604408",
    "officetype": "BO",
    "delivery": "Delivery",
    "district": "TIRUVANNAMALAI",
    "statename": "TAMIL NADU",
    "latitude": "12.0294000",
    "longitude": "79.6047000"
  },
  {
    "circlename": "Tamilnadu Circle",
    "regionname": "Chennai City Region",
    "divisionname": "Tiruvannamalai Division",
    "officename": "Elangadu BO",
    "pincode": "604408",
    "officetype": "BO",
    "delivery": "Delivery",
    "district": "TIRUVANNAMALAI",
    "statename": "TAMIL NADU",
    "latitude": "10.8347000",
    "longitude": "78.9266000"
  },
  {
    "circlename": "Tamilnadu Circle",
    "regionname": "Chennai City Region",
    "divisionname": "Tiruvannamalai Division",
    "officename": "Thenelapakkam BO",
    "pincode": "604408",
    "officetype": "BO",
    "delivery": "Delivery",
    "district": "TIRUVANNAMALAI",
    "statename": "TAMIL NADU",
    "latitude": "12.0294000",
    "longitude": "79.6047000"
  },
  {
    "circlename": "Tamilnadu Circle",
    "regionname": "Chennai City Region",
    "divisionname": "Tiruvannamalai Division",
    "officename": "Kanthapalayam BO",
    "pincode": "606901",
    "officetype": "BO",
    "delivery": "Delivery",
    "district": "TIRUVANNAMALAI",
    "statename": "TAMIL NADU",
    "latitude": "12.1874000",
    "longitude": "79.4080000"
  },
  {
    "circlename": "Tamilnadu Circle",
    "regionname": "Chennai City Region",
    "divisionname": "Tiruvannamalai Division",
    "officename": "Chellankuppam BO",
    "pincode": "606755",
    "officetype": "BO",
    "delivery": "Delivery",
    "district": "TIRUVANNAMALAI",
    "statename": "TAMIL NADU",
    "latitude": "11.1541000",
    "longitude": "78.9759000"
  },
  {
    "circlename": "Tamilnadu Circle",
    "regionname": "Chennai City Region",
    "divisionname": "Tiruvannamalai Division",
    "officename": "Thithandapattu BO",
    "pincode": "606701",
    "officetype": "BO",
    "delivery": "Delivery",
    "district": "TIRUVANNAMALAI",
    "statename": "TAMIL NADU",
    "latitude": "12.3089000",
    "longitude": "78.7914000"
  },
  {
    "circlename": "Tamilnadu Circle",
    "regionname": "Chennai City Region",
    "divisionname": "Tiruvannamalai Division",
    "officename": "Budamangalam BO",
    "pincode": "606902",
    "officetype": "BO",
    "delivery": "Delivery",
    "district": "TIRUVANNAMALAI",
    "statename": "TAMIL NADU",
    "latitude": "12.3000000",
    "longitude": "79.1500000"
  },
  {
    "circlename": "Tamilnadu Circle",
    "regionname": "Chennai City Region",
    "divisionname": "Tiruvannamalai Division",
    "officename": "Modaiyur BO",
    "pincode": "606902",
    "officetype": "BO",
    "delivery": "Delivery",
    "district": "TIRUVANNAMALAI",
    "statename": "TAMIL NADU",
    "latitude": "12.5765000",
    "longitude": "80.0233000"
  },
  {
    "circlename": "Tamilnadu Circle",
    "regionname": "Chennai City Region",
    "divisionname": "Tiruvannamalai Division",
    "officename": "Kilpalur BO",
    "pincode": "606908",
    "officetype": "BO",
    "delivery": "Delivery",
    "district": "TIRUVANNAMALAI",
    "statename": "TAMIL NADU",
    "latitude": "12.4042000",
    "longitude": "78.9650000"
  },
  {
    "circlename": "Tamilnadu Circle",
    "regionname": "Chennai City Region",
    "divisionname": "Tiruvannamalai Division",
    "officename": "Karkonam BO",
    "pincode": "606751",
    "officetype": "BO",
    "delivery": "Delivery",
    "district": "TIRUVANNAMALAI",
    "statename": "TAMIL NADU",
    "latitude": "12.4346000",
    "longitude": "79.0981000"
  },
  {
    "circlename": "Tamilnadu Circle",
    "regionname": "Chennai City Region",
    "divisionname": "Tiruvannamalai Division",
    "officename": "Melpadur BO",
    "pincode": "606702",
    "officetype": "BO",
    "delivery": "Delivery",
    "district": "TIRUVANNAMALAI",
    "statename": "TAMIL NADU",
    "latitude": "12.0092000",
    "longitude": "78.4334000"
  },
  {
    "circlename": "Tamilnadu Circle",
    "regionname": "Chennai City Region",
    "divisionname": "Tiruvannamalai Division",
    "officename": "Erumpoondi BO",
    "pincode": "604601",
    "officetype": "BO",
    "delivery": "Delivery",
    "district": "TIRUVANNAMALAI",
    "statename": "TAMIL NADU",
    "latitude": "13.3725000",
    "longitude": "80.3334000"
  },
  {
    "circlename": "Tamilnadu Circle",
    "regionname": "Chennai City Region",
    "divisionname": "Tiruvannamalai Division",
    "officename": "Pulivanandal BO",
    "pincode": "606904",
    "officetype": "BO",
    "delivery": "Delivery",
    "district": "TIRUVANNAMALAI",
    "statename": "TAMIL NADU",
    "latitude": "12.1874000",
    "longitude": "79.4080000"
  },
  {
    "circlename": "Tamilnadu Circle",
    "regionname": "Chennai City Region",
    "divisionname": "Tiruvannamalai Division",
    "officename": "Arpakkam BO",
    "pincode": "606752",
    "officetype": "BO",
    "delivery": "Delivery",
    "district": "TIRUVANNAMALAI",
    "statename": "TAMIL NADU",
    "latitude": "11.6053000",
    "longitude": "79.1736000"
  },
  {
    "circlename": "Tamilnadu Circle",
    "regionname": "Chennai City Region",
    "divisionname": "Tiruvannamalai Division",
    "officename": "Nookambadi BO",
    "pincode": "606752",
    "officetype": "BO",
    "delivery": "Delivery",
    "district": "TIRUVANNAMALAI",
    "statename": "TAMIL NADU",
    "latitude": "11.6053000",
    "longitude": "79.1736000"
  },
  {
    "circlename": "Tamilnadu Circle",
    "regionname": "Chennai City Region",
    "divisionname": "Tiruvannamalai Division",
    "officename": "Palanandal BO",
    "pincode": "606752",
    "officetype": "BO",
    "delivery": "Delivery",
    "district": "TIRUVANNAMALAI",
    "statename": "TAMIL NADU",
    "latitude": "11.6053000",
    "longitude": "79.1736000"
  },
  {
    "circlename": "Tamilnadu Circle",
    "regionname": "Chennai City Region",
    "divisionname": "Tiruvannamalai Division",
    "officename": "Vallivagai BO",
    "pincode": "606752",
    "officetype": "BO",
    "delivery": "Delivery",
    "district": "TIRUVANNAMALAI",
    "statename": "TAMIL NADU",
    "latitude": "11.6053000",
    "longitude": "79.1736000"
  },
  {
    "circlename": "Tamilnadu Circle",
    "regionname": "Chennai City Region",
    "divisionname": "Tiruvannamalai Division",
    "officename": "Elangunni BO",
    "pincode": "606703",
    "officetype": "BO",
    "delivery": "Delivery",
    "district": "TIRUVANNAMALAI",
    "statename": "TAMIL NADU",
    "latitude": "11.3516000",
    "longitude": "77.1667000"
  },
  {
    "circlename": "Tamilnadu Circle",
    "regionname": "Chennai City Region",
    "divisionname": "Tiruvannamalai Division",
    "officename": "Veluganandal BO",
    "pincode": "606802",
    "officetype": "BO",
    "delivery": "Delivery",
    "district": "TIRUVANNAMALAI",
    "statename": "TAMIL NADU",
    "latitude": "12.4935000",
    "longitude": "79.4438000"
  },
  {
    "circlename": "Tamilnadu Circle",
    "regionname": "Chennai City Region",
    "divisionname": "Tiruvannamalai Division",
    "officename": "Melpennathur BO",
    "pincode": "606704",
    "officetype": "BO",
    "delivery": "Delivery",
    "district": "TIRUVANNAMALAI",
    "statename": "TAMIL NADU",
    "latitude": "12.2681000",
    "longitude": "78.9413000"
  },
  {
    "circlename": "Tamilnadu Circle",
    "regionname": "Chennai City Region",
    "divisionname": "Tiruvannamalai Division",
    "officename": "Veraiyur BO",
    "pincode": "606806",
    "officetype": "BO",
    "delivery": "Delivery",
    "district": "TIRUVANNAMALAI",
    "statename": "TAMIL NADU",
    "latitude": "12.0917000",
    "longitude": "79.1303000"
  },
  {
    "circlename": "Tamilnadu Circle",
    "regionname": "Chennai City Region",
    "divisionname": "Tiruvannamalai Division",
    "officename": "Mambattu BO",
    "pincode": "606803",
    "officetype": "BO",
    "delivery": "Delivery",
    "district": "TIRUVANNAMALAI",
    "statename": "TAMIL NADU",
    "latitude": "13.2677000",
    "longitude": "80.0503000"
  },
  {
    "circlename": "Tamilnadu Circle",
    "regionname": "Chennai City Region",
    "divisionname": "Tiruvannamalai Division",
    "officename": "Murugapadi BO",
    "pincode": "606803",
    "officetype": "BO",
    "delivery": "Delivery",
    "district": "TIRUVANNAMALAI",
    "statename": "TAMIL NADU",
    "latitude": "13.2677000",
    "longitude": "80.0503000"
  },
  {
    "circlename": "Tamilnadu Circle",
    "regionname": "Chennai City Region",
    "divisionname": "Tiruvannamalai Division",
    "officename": "Sanikkavadi BO",
    "pincode": "606803",
    "officetype": "BO",
    "delivery": "Delivery",
    "district": "TIRUVANNAMALAI",
    "statename": "TAMIL NADU",
    "latitude": "13.2677000",
    "longitude": "80.0503000"
  },
  {
    "circlename": "Tamilnadu Circle",
    "regionname": "Chennai City Region",
    "divisionname": "Tiruvannamalai Division",
    "officename": "Thumbakkadu BO",
    "pincode": "606803",
    "officetype": "BO",
    "delivery": "Delivery",
    "district": "TIRUVANNAMALAI",
    "statename": "TAMIL NADU",
    "latitude": "13.2677000",
    "longitude": "80.0503000"
  },
  {
    "circlename": "Tamilnadu Circle",
    "regionname": "Chennai City Region",
    "divisionname": "Tiruvannamalai Division",
    "officename": "A K Padavedu BO",
    "pincode": "606905",
    "officetype": "BO",
    "delivery": "Delivery",
    "district": "TIRUVANNAMALAI",
    "statename": "TAMIL NADU",
    "latitude": "10.3757000",
    "longitude": "78.8097000"
  },
  {
    "circlename": "Tamilnadu Circle",
    "regionname": "Chennai City Region",
    "divisionname": "Tiruvannamalai Division",
    "officename": "Vellur BO",
    "pincode": "606905",
    "officetype": "BO",
    "delivery": "Delivery",
    "district": "TIRUVANNAMALAI",
    "statename": "TAMIL NADU",
    "latitude": "10.3757000",
    "longitude": "78.8097000"
  },
  {
    "circlename": "Tamilnadu Circle",
    "regionname": "Chennai City Region",
    "divisionname": "Tiruvannamalai Division",
    "officename": "Pallikondapattu BO",
    "pincode": "606611",
    "officetype": "BO",
    "delivery": "Delivery",
    "district": "TIRUVANNAMALAI",
    "statename": "TAMIL NADU",
    "latitude": "12.2266000",
    "longitude": "79.0746000"
  },
  {
    "circlename": "Tamilnadu Circle",
    "regionname": "Chennai City Region",
    "divisionname": "Tiruvannamalai Division",
    "officename": "Andampallam BO",
    "pincode": "606804",
    "officetype": "BO",
    "delivery": "Delivery",
    "district": "TIRUVANNAMALAI",
    "statename": "TAMIL NADU",
    "latitude": "12.1211000",
    "longitude": "79.1509000"
  },
  {
    "circlename": "Tamilnadu Circle",
    "regionname": "Chennai City Region",
    "divisionname": "Tiruvannamalai Division",
    "officename": "Isukkalikatteri BO",
    "pincode": "606804",
    "officetype": "BO",
    "delivery": "Delivery",
    "district": "TIRUVANNAMALAI",
    "statename": "TAMIL NADU",
    "latitude": "12.1211000",
    "longitude": "79.1509000"
  },
  {
    "circlename": "Tamilnadu Circle",
    "regionname": "Chennai City Region",
    "divisionname": "Tiruvannamalai Division",
    "officename": "Edathanur BO",
    "pincode": "606707",
    "officetype": "BO",
    "delivery": "Delivery",
    "district": "TIRUVANNAMALAI",
    "statename": "TAMIL NADU",
    "latitude": "12.0092000",
    "longitude": "78.4334000"
  },
  {
    "circlename": "Tamilnadu Circle",
    "regionname": "Chennai City Region",
    "divisionname": "Tiruvannamalai Division",
    "officename": "Chinnaimpettai BO",
    "pincode": "606708",
    "officetype": "BO",
    "delivery": "Delivery",
    "district": "TIRUVANNAMALAI",
    "statename": "TAMIL NADU",
    "latitude": "12.1082000",
    "longitude": "78.8342000"
  },
  {
    "circlename": "Tamilnadu Circle",
    "regionname": "Chennai City Region",
    "divisionname": "Tiruvannamalai Division",
    "officename": "Kuttar BO",
    "pincode": "606708",
    "officetype": "BO",
    "delivery": "Delivery",
    "district": "TIRUVANNAMALAI",
    "statename": "TAMIL NADU",
    "latitude": "12.1082000",
    "longitude": "78.8342000"
  },
  {
    "circlename": "Tamilnadu Circle",
    "regionname": "Chennai City Region",
    "divisionname": "Tiruvannamalai Division",
    "officename": "Malamanjanur BO",
    "pincode": "606708",
    "officetype": "BO",
    "delivery": "Delivery",
    "district": "TIRUVANNAMALAI",
    "statename": "TAMIL NADU",
    "latitude": "12.1082000",
    "longitude": "78.8342000"
  },
  {
    "circlename": "Tamilnadu Circle",
    "regionname": "Chennai City Region",
    "divisionname": "Tiruvannamalai Division",
    "officename": "Rayandapuram BO",
    "pincode": "606708",
    "officetype": "BO",
    "delivery": "Delivery",
    "district": "TIRUVANNAMALAI",
    "statename": "TAMIL NADU",
    "latitude": "12.1082000",
    "longitude": "78.8342000"
  },
  {
    "circlename": "Tamilnadu Circle",
    "regionname": "Chennai City Region",
    "divisionname": "Tiruvannamalai Division",
    "officename": "Elayankanni BO",
    "pincode": "606753",
    "officetype": "BO",
    "delivery": "Delivery",
    "district": "TIRUVANNAMALAI",
    "statename": "TAMIL NADU",
    "latitude": "12.5295000",
    "longitude": "80.1660000"
  },
  {
    "circlename": "Tamilnadu Circle",
    "regionname": "Chennai City Region",
    "divisionname": "Tiruvannamalai Division",
    "officename": "Meyyur BO",
    "pincode": "606753",
    "officetype": "BO",
    "delivery": "Delivery",
    "district": "TIRUVANNAMALAI",
    "statename": "TAMIL NADU",
    "latitude": "12.5295000",
    "longitude": "80.1660000"
  },
  {
    "circlename": "Tamilnadu Circle",
    "regionname": "Chennai City Region",
    "divisionname": "Tiruvannamalai Division",
    "officename": "Palayanur BO",
    "pincode": "606753",
    "officetype": "BO",
    "delivery": "Delivery",
    "district": "TIRUVANNAMALAI",
    "statename": "TAMIL NADU",
    "latitude": "12.5295000",
    "longitude": "80.1660000"
  },
  {
    "circlename": "Tamilnadu Circle",
    "regionname": "Chennai City Region",
    "divisionname": "Tiruvannamalai Division",
    "officename": "Thenkarimbalur BO",
    "pincode": "606753",
    "officetype": "BO",
    "delivery": "Delivery",
    "district": "TIRUVANNAMALAI",
    "statename": "TAMIL NADU",
    "latitude": "12.5295000",
    "longitude": "80.1660000"
  },
  {
    "circlename": "Tamilnadu Circle",
    "regionname": "Chennai City Region",
    "divisionname": "Tiruvannamalai Division",
    "officename": "Adiannamalai BO",
    "pincode": "606604",
    "officetype": "BO",
    "delivery": "Delivery",
    "district": "TIRUVANNAMALAI",
    "statename": "TAMIL NADU",
    "latitude": "12.2266000",
    "longitude": "79.0746000"
  },
  {
    "circlename": "Tamilnadu Circle",
    "regionname": "Chennai City Region",
    "divisionname": "Tiruvannamalai Division",
    "officename": "Inamkariyandal BO",
    "pincode": "606604",
    "officetype": "BO",
    "delivery": "Delivery",
    "district": "TIRUVANNAMALAI",
    "statename": "TAMIL NADU",
    "latitude": "12.2266000",
    "longitude": "79.0746000"
  },
  {
    "circlename": "Tamilnadu Circle",
    "regionname": "Chennai City Region",
    "divisionname": "Tiruvannamalai Division",
    "officename": "Naraiyur BO",
    "pincode": "606754",
    "officetype": "BO",
    "delivery": "Delivery",
    "district": "TIRUVANNAMALAI",
    "statename": "TAMIL NADU",
    "latitude": "12.1075000",
    "longitude": "79.2449000"
  },
  {
    "circlename": "Tamilnadu Circle",
    "regionname": "Chennai City Region",
    "divisionname": "Tiruvannamalai Division",
    "officename": "Olaipadi BO",
    "pincode": "606754",
    "officetype": "BO",
    "delivery": "Delivery",
    "district": "TIRUVANNAMALAI",
    "statename": "TAMIL NADU",
    "latitude": "12.1075000",
    "longitude": "79.2449000"
  },
  {
    "circlename": "Tamilnadu Circle",
    "regionname": "Chennai City Region",
    "divisionname": "Vellore Division",
    "officename": "Melkuppachinnanur B.O",
    "pincode": "632102",
    "officetype": "BO",
    "delivery": "Delivery",
    "district": "TIRUVANNAMALAI",
    "statename": "TAMIL NADU",
    "latitude": "12.6984000",
    "longitude": "79.0036000"
  },
  {
    "circlename": "Tamilnadu Circle",
    "regionname": "Chennai City Region",
    "divisionname": "Tiruvannamalai Division",
    "officename": "Arni HO",
    "pincode": "632301",
    "officetype": "HO",
    "delivery": "Delivery",
    "district": "TIRUVANNAMALAI",
    "statename": "TAMIL NADU",
    "latitude": "12.6696944",
    "longitude": "79.2854167"
  },
  {
    "circlename": "Tamilnadu Circle",
    "regionname": "Chennai City Region",
    "divisionname": "Tiruvannamalai Division",
    "officename": "Akkur SO Tiruvannamalai",
    "pincode": "631701",
    "officetype": "PO",
    "delivery": "Delivery",
    "district": "TIRUVANNAMALAI",
    "statename": "TAMIL NADU",
    "latitude": "12.2351944",
    "longitude": "79.0765833"
  },
  {
    "circlename": "Tamilnadu Circle",
    "regionname": "Chennai City Region",
    "divisionname": "Tiruvannamalai Division",
    "officename": "Mamandur Kanchipuram SO",
    "pincode": "631702",
    "officetype": "PO",
    "delivery": "Delivery",
    "district": "TIRUVANNAMALAI",
    "statename": "TAMIL NADU",
    "latitude": "12.2351944",
    "longitude": "79.0765833"
  },
  {
    "circlename": "Tamilnadu Circle",
    "regionname": "Chennai City Region",
    "divisionname": "Tiruvannamalai Division",
    "officename": "Onnupuram SO",
    "pincode": "632315",
    "officetype": "PO",
    "delivery": "Delivery",
    "district": "TIRUVANNAMALAI",
    "statename": "TAMIL NADU",
    "latitude": "12.7200000",
    "longitude": "79.1700000"
  },
  {
    "circlename": "Tamilnadu Circle",
    "regionname": "Chennai City Region",
    "divisionname": "Tiruvannamalai Division",
    "officename": "Sathiyaviziyanagaram SO",
    "pincode": "632317",
    "officetype": "PO",
    "delivery": "Delivery",
    "district": "TIRUVANNAMALAI",
    "statename": "TAMIL NADU",
    "latitude": "12.6749190",
    "longitude": "79.3188610"
  },
  {
    "circlename": "Tamilnadu Circle",
    "regionname": "Chennai City Region",
    "divisionname": "Tiruvannamalai Division",
    "officename": "Susainagar SO",
    "pincode": "632326",
    "officetype": "PO",
    "delivery": "Delivery",
    "district": "TIRUVANNAMALAI",
    "statename": "TAMIL NADU",
    "latitude": "12.2351944",
    "longitude": "79.0765833"
  },
  {
    "circlename": "Tamilnadu Circle",
    "regionname": "Chennai City Region",
    "divisionname": "Tiruvannamalai Division",
    "officename": "Tiruvettipuram Cutcherry SO",
    "pincode": "604407",
    "officetype": "PO",
    "delivery": "Non Delivery",
    "district": "TIRUVANNAMALAI",
    "statename": "TAMIL NADU",
    "latitude": "12.7923055",
    "longitude": "79.8175277"
  },
  {
    "circlename": "Tamilnadu Circle",
    "regionname": "Chennai City Region",
    "divisionname": "Tiruvannamalai Division",
    "officename": "Vallam Arni SO",
    "pincode": "604505",
    "officetype": "PO",
    "delivery": "Delivery",
    "district": "TIRUVANNAMALAI",
    "statename": "TAMIL NADU",
    "latitude": "12.9155833",
    "longitude": "79.1320278"
  },
  {
    "circlename": "Tamilnadu Circle",
    "regionname": "Chennai City Region",
    "divisionname": "Tiruvannamalai Division",
    "officename": "Ayyankulam SO",
    "pincode": "606601",
    "officetype": "PO",
    "delivery": "Non Delivery",
    "district": "TIRUVANNAMALAI",
    "statename": "TAMIL NADU",
    "latitude": "12.2255556",
    "longitude": "79.0748333"
  },
  {
    "circlename": "Tamilnadu Circle",
    "regionname": "Chennai City Region",
    "divisionname": "Tiruvannamalai Division",
    "officename": "Devikapuram SO",
    "pincode": "606902",
    "officetype": "PO",
    "delivery": "Delivery",
    "district": "TIRUVANNAMALAI",
    "statename": "TAMIL NADU",
    "latitude": "12.3000000",
    "longitude": "79.1500000"
  },
  {
    "circlename": "Tamilnadu Circle",
    "regionname": "Chennai City Region",
    "divisionname": "Tiruvannamalai Division",
    "officename": "Kalnagar SO",
    "pincode": "606601",
    "officetype": "PO",
    "delivery": "Non Delivery",
    "district": "TIRUVANNAMALAI",
    "statename": "TAMIL NADU",
    "latitude": "12.2227500",
    "longitude": "79.0662500"
  },
  {
    "circlename": "Tamilnadu Circle",
    "regionname": "Chennai City Region",
    "divisionname": "Tiruvannamalai Division",
    "officename": "Melpallipattu SO",
    "pincode": "606703",
    "officetype": "PO",
    "delivery": "Delivery",
    "district": "TIRUVANNAMALAI",
    "statename": "TAMIL NADU",
    "latitude": "12.2651667",
    "longitude": "78.7388889"
  },
  {
    "circlename": "Tamilnadu Circle",
    "regionname": "Chennai City Region",
    "divisionname": "Tiruvannamalai Division",
    "officename": "Pudupalayam SO Tiruvannamalai",
    "pincode": "606705",
    "officetype": "PO",
    "delivery": "Delivery",
    "district": "TIRUVANNAMALAI",
    "statename": "TAMIL NADU",
    "latitude": "12.2351944",
    "longitude": "79.0765833"
  },
  {
    "circlename": "Tamilnadu Circle",
    "regionname": "Chennai City Region",
    "divisionname": "Tiruvannamalai Division",
    "officename": "Sathanurdam SO",
    "pincode": "606706",
    "officetype": "PO",
    "delivery": "Delivery",
    "district": "TIRUVANNAMALAI",
    "statename": "TAMIL NADU",
    "latitude": "12.1784444",
    "longitude": "78.8601944"
  },
  {
    "circlename": "Tamilnadu Circle",
    "regionname": "Chennai City Region",
    "divisionname": "Tiruvannamalai Division",
    "officename": "Tandarampattu SO",
    "pincode": "606707",
    "officetype": "PO",
    "delivery": "Delivery",
    "district": "TIRUVANNAMALAI",
    "statename": "TAMIL NADU",
    "latitude": "12.1550556",
    "longitude": "78.9417500"
  },
  {
    "circlename": "Tamilnadu Circle",
    "regionname": "Chennai City Region",
    "divisionname": "Tiruvannamalai Division",
    "officename": "Tanipadi SO",
    "pincode": "606708",
    "officetype": "PO",
    "delivery": "Delivery",
    "district": "TIRUVANNAMALAI",
    "statename": "TAMIL NADU",
    "latitude": "12.0927222",
    "longitude": "78.8510556"
  },
  {
    "circlename": "Tamilnadu Circle",
    "regionname": "Chennai City Region",
    "divisionname": "Tiruvannamalai Division",
    "officename": "Vanapuram SO",
    "pincode": "606753",
    "officetype": "PO",
    "delivery": "Delivery",
    "district": "TIRUVANNAMALAI",
    "statename": "TAMIL NADU",
    "latitude": "12.1001944",
    "longitude": "79.0191667"
  },
  {
    "circlename": "Tamilnadu Circle",
    "regionname": "Chennai City Region",
    "divisionname": "Arakkonam Division",
    "officename": "Jagirvalavanur BO",
    "pincode": "632511",
    "officetype": "BO",
    "delivery": "Delivery",
    "district": "TIRUVANNAMALAI",
    "statename": "TAMIL NADU",
    "latitude": "12.8516500",
    "longitude": "79.4246000"
  },
  {
    "circlename": "Tamilnadu Circle",
    "regionname": "Chennai City Region",
    "divisionname": "Tiruvannamalai Division",
    "officename": "Elaneerkundram BO",
    "pincode": "604401",
    "officetype": "BO",
    "delivery": "Delivery",
    "district": "TIRUVANNAMALAI",
    "statename": "TAMIL NADU",
    "latitude": "12.2703000",
    "longitude": "78.7618000"
  },
  {
    "circlename": "Tamilnadu Circle",
    "regionname": "Chennai City Region",
    "divisionname": "Tiruvannamalai Division",
    "officename": "Morakaniyanur BO",
    "pincode": "606801",
    "officetype": "BO",
    "delivery": "Delivery",
    "district": "TIRUVANNAMALAI",
    "statename": "TAMIL NADU",
    "latitude": "12.4935000",
    "longitude": "79.4438000"
  },
  {
    "circlename": "Tamilnadu Circle",
    "regionname": "Chennai City Region",
    "divisionname": "Tiruvannamalai Division",
    "officename": "Kilnamandi BO",
    "pincode": "604501",
    "officetype": "BO",
    "delivery": "Delivery",
    "district": "TIRUVANNAMALAI",
    "statename": "TAMIL NADU",
    "latitude": "12.8757000",
    "longitude": "79.8374000"
  },
  {
    "circlename": "Tamilnadu Circle",
    "regionname": "Chennai City Region",
    "divisionname": "Tiruvannamalai Division",
    "officename": "Kunnakampoondi BO",
    "pincode": "604501",
    "officetype": "BO",
    "delivery": "Delivery",
    "district": "TIRUVANNAMALAI",
    "statename": "TAMIL NADU",
    "latitude": "12.8757000",
    "longitude": "79.8374000"
  },
  {
    "circlename": "Tamilnadu Circle",
    "regionname": "Chennai City Region",
    "divisionname": "Tiruvannamalai Division",
    "officename": "Mahamayee Tirumani BO",
    "pincode": "604501",
    "officetype": "BO",
    "delivery": "Delivery",
    "district": "TIRUVANNAMALAI",
    "statename": "TAMIL NADU",
    "latitude": "12.8757000",
    "longitude": "79.8374000"
  },
  {
    "circlename": "Tamilnadu Circle",
    "regionname": "Chennai City Region",
    "divisionname": "Tiruvannamalai Division",
    "officename": "Vayalur BO",
    "pincode": "604501",
    "officetype": "BO",
    "delivery": "Delivery",
    "district": "TIRUVANNAMALAI",
    "statename": "TAMIL NADU",
    "latitude": "13.3134000",
    "longitude": "80.2808000"
  },
  {
    "circlename": "Tamilnadu Circle",
    "regionname": "Chennai City Region",
    "divisionname": "Tiruvannamalai Division",
    "officename": "Kunnathur BO",
    "pincode": "604402",
    "officetype": "BO",
    "delivery": "Delivery",
    "district": "TIRUVANNAMALAI",
    "statename": "TAMIL NADU",
    "latitude": "12.4495000",
    "longitude": "79.5540000"
  },
  {
    "circlename": "Tamilnadu Circle",
    "regionname": "Chennai City Region",
    "divisionname": "Tiruvannamalai Division",
    "officename": "Ramakrishnapuram BO",
    "pincode": "604402",
    "officetype": "BO",
    "delivery": "Delivery",
    "district": "TIRUVANNAMALAI",
    "statename": "TAMIL NADU",
    "latitude": "12.4495000",
    "longitude": "79.5540000"
  },
  {
    "circlename": "Tamilnadu Circle",
    "regionname": "Chennai City Region",
    "divisionname": "Tiruvannamalai Division",
    "officename": "Nadukuppam BO",
    "pincode": "606903",
    "officetype": "BO",
    "delivery": "Delivery",
    "district": "TIRUVANNAMALAI",
    "statename": "TAMIL NADU",
    "latitude": "13.3430000",
    "longitude": "80.0958000"
  },
  {
    "circlename": "Tamilnadu Circle",
    "regionname": "Chennai City Region",
    "divisionname": "Tiruvannamalai Division",
    "officename": "Kulathur BO",
    "pincode": "632311",
    "officetype": "BO",
    "delivery": "Delivery",
    "district": "TIRUVANNAMALAI",
    "statename": "TAMIL NADU",
    "latitude": "13.1090000",
    "longitude": "79.6262000"
  },
  {
    "circlename": "Tamilnadu Circle",
    "regionname": "Chennai City Region",
    "divisionname": "Tiruvannamalai Division",
    "officename": "Badur BO",
    "pincode": "604403",
    "officetype": "BO",
    "delivery": "Delivery",
    "district": "TIRUVANNAMALAI",
    "statename": "TAMIL NADU",
    "latitude": "12.9506000",
    "longitude": "80.0033000"
  },
  {
    "circlename": "Tamilnadu Circle",
    "regionname": "Chennai City Region",
    "divisionname": "Tiruvannamalai Division",
    "officename": "Kuvalai BO",
    "pincode": "604403",
    "officetype": "BO",
    "delivery": "Delivery",
    "district": "TIRUVANNAMALAI",
    "statename": "TAMIL NADU",
    "latitude": "12.9506000",
    "longitude": "80.0033000"
  },
  {
    "circlename": "Tamilnadu Circle",
    "regionname": "Chennai City Region",
    "divisionname": "Tiruvannamalai Division",
    "officename": "Tirumpundi BO",
    "pincode": "604404",
    "officetype": "BO",
    "delivery": "Delivery",
    "district": "TIRUVANNAMALAI",
    "statename": "TAMIL NADU",
    "latitude": "12.4495000",
    "longitude": "79.5540000"
  },
  {
    "circlename": "Tamilnadu Circle",
    "regionname": "Chennai City Region",
    "divisionname": "Tiruvannamalai Division",
    "officename": "Kodanallur BO",
    "pincode": "604405",
    "officetype": "BO",
    "delivery": "Delivery",
    "district": "TIRUVANNAMALAI",
    "statename": "TAMIL NADU",
    "latitude": "13.1710000",
    "longitude": "80.0115000"
  },
  {
    "circlename": "Tamilnadu Circle",
    "regionname": "Chennai City Region",
    "divisionname": "Tiruvannamalai Division",
    "officename": "Punnai BO",
    "pincode": "604405",
    "officetype": "BO",
    "delivery": "Delivery",
    "district": "TIRUVANNAMALAI",
    "statename": "TAMIL NADU",
    "latitude": "13.1710000",
    "longitude": "80.0115000"
  },
  {
    "circlename": "Tamilnadu Circle",
    "regionname": "Chennai City Region",
    "divisionname": "Tiruvannamalai Division",
    "officename": "Ammapalayam BO",
    "pincode": "632315",
    "officetype": "BO",
    "delivery": "Delivery",
    "district": "TIRUVANNAMALAI",
    "statename": "TAMIL NADU",
    "latitude": "12.7209000",
    "longitude": "79.1815000"
  },
  {
    "circlename": "Tamilnadu Circle",
    "regionname": "Chennai City Region",
    "divisionname": "Tiruvannamalai Division",
    "officename": "Kaduganur BO",
    "pincode": "604503",
    "officetype": "BO",
    "delivery": "Delivery",
    "district": "TIRUVANNAMALAI",
    "statename": "TAMIL NADU",
    "latitude": "12.5456000",
    "longitude": "79.4234000"
  },
  {
    "circlename": "Tamilnadu Circle",
    "regionname": "Chennai City Region",
    "divisionname": "Tiruvannamalai Division",
    "officename": "Navalpakkam BO",
    "pincode": "604503",
    "officetype": "BO",
    "delivery": "Delivery",
    "district": "TIRUVANNAMALAI",
    "statename": "TAMIL NADU",
    "latitude": "12.5456000",
    "longitude": "79.4234000"
  },
  {
    "circlename": "Tamilnadu Circle",
    "regionname": "Chennai City Region",
    "divisionname": "Tiruvannamalai Division",
    "officename": "Adanur BO",
    "pincode": "632317",
    "officetype": "BO",
    "delivery": "Delivery",
    "district": "TIRUVANNAMALAI",
    "statename": "TAMIL NADU",
    "latitude": "12.0333000",
    "longitude": "78.9833000"
  },
  {
    "circlename": "Tamilnadu Circle",
    "regionname": "Chennai City Region",
    "divisionname": "Tiruvannamalai Division",
    "officename": "Meyyur BO",
    "pincode": "632317",
    "officetype": "BO",
    "delivery": "Delivery",
    "district": "TIRUVANNAMALAI",
    "statename": "TAMIL NADU",
    "latitude": "12.5295000",
    "longitude": "80.1660000"
  },
  {
    "circlename": "Tamilnadu Circle",
    "regionname": "Chennai City Region",
    "divisionname": "Tiruvannamalai Division",
    "officename": "Nallur BO",
    "pincode": "604406",
    "officetype": "BO",
    "delivery": "Delivery",
    "district": "TIRUVANNAMALAI",
    "statename": "TAMIL NADU",
    "latitude": "12.5823000",
    "longitude": "80.1207000"
  },
  {
    "circlename": "Tamilnadu Circle",
    "regionname": "Chennai City Region",
    "divisionname": "Tiruvannamalai Division",
    "officename": "Nerkunam BO",
    "pincode": "604406",
    "officetype": "BO",
    "delivery": "Delivery",
    "district": "TIRUVANNAMALAI",
    "statename": "TAMIL NADU",
    "latitude": "12.1916000",
    "longitude": "79.8369000"
  },
  {
    "circlename": "Tamilnadu Circle",
    "regionname": "Chennai City Region",
    "divisionname": "Tiruvannamalai Division",
    "officename": "Pennattagaram BO",
    "pincode": "604406",
    "officetype": "BO",
    "delivery": "Delivery",
    "district": "TIRUVANNAMALAI",
    "statename": "TAMIL NADU",
    "latitude": "12.4916000",
    "longitude": "79.8369000"
  },
  {
    "circlename": "Tamilnadu Circle",
    "regionname": "Chennai City Region",
    "divisionname": "Tiruvannamalai Division",
    "officename": "Thaiyar BO",
    "pincode": "604406",
    "officetype": "BO",
    "delivery": "Delivery",
    "district": "TIRUVANNAMALAI",
    "statename": "TAMIL NADU",
    "latitude": "12.4916000",
    "longitude": "79.8369000"
  },
  {
    "circlename": "Tamilnadu Circle",
    "regionname": "Chennai City Region",
    "divisionname": "Tiruvannamalai Division",
    "officename": "Vayalamoor BO",
    "pincode": "604406",
    "officetype": "BO",
    "delivery": "Delivery",
    "district": "TIRUVANNAMALAI",
    "statename": "TAMIL NADU",
    "latitude": "12.4916000",
    "longitude": "79.8369000"
  },
  {
    "circlename": "Tamilnadu Circle",
    "regionname": "Chennai City Region",
    "divisionname": "Tiruvannamalai Division",
    "officename": "Randam BO",
    "pincode": "604407",
    "officetype": "BO",
    "delivery": "Delivery",
    "district": "TIRUVANNAMALAI",
    "statename": "TAMIL NADU",
    "latitude": "12.6936000",
    "longitude": "79.5237000"
  },
  {
    "circlename": "Tamilnadu Circle",
    "regionname": "Chennai City Region",
    "divisionname": "Tiruvannamalai Division",
    "officename": "Sengattankundil BO",
    "pincode": "604407",
    "officetype": "BO",
    "delivery": "Delivery",
    "district": "TIRUVANNAMALAI",
    "statename": "TAMIL NADU",
    "latitude": "12.6936000",
    "longitude": "79.5237000"
  },
  {
    "circlename": "Tamilnadu Circle",
    "regionname": "Chennai City Region",
    "divisionname": "Tiruvannamalai Division",
    "officename": "Maligaipattu BO",
    "pincode": "604409",
    "officetype": "BO",
    "delivery": "Delivery",
    "district": "TIRUVANNAMALAI",
    "statename": "TAMIL NADU",
    "latitude": "12.4495000",
    "longitude": "79.5540000"
  },
  {
    "circlename": "Tamilnadu Circle",
    "regionname": "Chennai City Region",
    "divisionname": "Tiruvannamalai Division",
    "officename": "Ayalpadi BO",
    "pincode": "604505",
    "officetype": "BO",
    "delivery": "Delivery",
    "district": "TIRUVANNAMALAI",
    "statename": "TAMIL NADU",
    "latitude": "12.7469000",
    "longitude": "80.1847000"
  },
  {
    "circlename": "Tamilnadu Circle",
    "regionname": "Chennai City Region",
    "divisionname": "Tiruvannamalai Division",
    "officename": "Kilsathamangalam BO",
    "pincode": "604408",
    "officetype": "BO",
    "delivery": "Non Delivery",
    "district": "TIRUVANNAMALAI",
    "statename": "TAMIL NADU",
    "latitude": "12.0294000",
    "longitude": "79.6047000"
  },
  {
    "circlename": "Tamilnadu Circle",
    "regionname": "Chennai City Region",
    "divisionname": "Tiruvannamalai Division",
    "officename": "Shro Navalpakkam BO",
    "pincode": "604408",
    "officetype": "BO",
    "delivery": "Delivery",
    "district": "TIRUVANNAMALAI",
    "statename": "TAMIL NADU",
    "latitude": "12.0294000",
    "longitude": "79.6047000"
  },
  {
    "circlename": "Tamilnadu Circle",
    "regionname": "Chennai City Region",
    "divisionname": "Tiruvannamalai Division",
    "officename": "Thennankur BO",
    "pincode": "604408",
    "officetype": "BO",
    "delivery": "Delivery",
    "district": "TIRUVANNAMALAI",
    "statename": "TAMIL NADU",
    "latitude": "12.0294000",
    "longitude": "79.6047000"
  },
  {
    "circlename": "Tamilnadu Circle",
    "regionname": "Chennai City Region",
    "divisionname": "Tiruvannamalai Division",
    "officename": "Vengaram BO",
    "pincode": "604408",
    "officetype": "BO",
    "delivery": "Delivery",
    "district": "TIRUVANNAMALAI",
    "statename": "TAMIL NADU",
    "latitude": "12.0294000",
    "longitude": "79.6047000"
  },
  {
    "circlename": "Tamilnadu Circle",
    "regionname": "Chennai City Region",
    "divisionname": "Tiruvannamalai Division",
    "officename": "Pillanthangal BO",
    "pincode": "604410",
    "officetype": "BO",
    "delivery": "Delivery",
    "district": "TIRUVANNAMALAI",
    "statename": "TAMIL NADU",
    "latitude": "12.4495000",
    "longitude": "79.5540000"
  },
  {
    "circlename": "Tamilnadu Circle",
    "regionname": "Chennai City Region",
    "divisionname": "Tiruvannamalai Division",
    "officename": "Tiruppanangadu BO",
    "pincode": "604410",
    "officetype": "BO",
    "delivery": "Delivery",
    "district": "TIRUVANNAMALAI",
    "statename": "TAMIL NADU",
    "latitude": "12.4495000",
    "longitude": "79.5540000"
  },
  {
    "circlename": "Tamilnadu Circle",
    "regionname": "Chennai City Region",
    "divisionname": "Tiruvannamalai Division",
    "officename": "Gangavaram BO",
    "pincode": "606901",
    "officetype": "BO",
    "delivery": "Delivery",
    "district": "TIRUVANNAMALAI",
    "statename": "TAMIL NADU",
    "latitude": "12.1874000",
    "longitude": "79.4080000"
  },
  {
    "circlename": "Tamilnadu Circle",
    "regionname": "Chennai City Region",
    "divisionname": "Tiruvannamalai Division",
    "officename": "Kettavarampalayam BO",
    "pincode": "606901",
    "officetype": "BO",
    "delivery": "Delivery",
    "district": "TIRUVANNAMALAI",
    "statename": "TAMIL NADU",
    "latitude": "12.1874000",
    "longitude": "79.4080000"
  },
  {
    "circlename": "Tamilnadu Circle",
    "regionname": "Chennai City Region",
    "divisionname": "Tiruvannamalai Division",
    "officename": "Viralur BO",
    "pincode": "606901",
    "officetype": "BO",
    "delivery": "Delivery",
    "district": "TIRUVANNAMALAI",
    "statename": "TAMIL NADU",
    "latitude": "12.1874000",
    "longitude": "79.4080000"
  },
  {
    "circlename": "Tamilnadu Circle",
    "regionname": "Chennai City Region",
    "divisionname": "Tiruvannamalai Division",
    "officename": "Konalur BO",
    "pincode": "606755",
    "officetype": "BO",
    "delivery": "Delivery",
    "district": "TIRUVANNAMALAI",
    "statename": "TAMIL NADU",
    "latitude": "12.1689000",
    "longitude": "79.1547000"
  },
  {
    "circlename": "Tamilnadu Circle",
    "regionname": "Chennai City Region",
    "divisionname": "Tiruvannamalai Division",
    "officename": "Rajapalayam BO",
    "pincode": "606755",
    "officetype": "BO",
    "delivery": "Delivery",
    "district": "TIRUVANNAMALAI",
    "statename": "TAMIL NADU",
    "latitude": "9.4530000",
    "longitude": "77.5533000"
  },
  {
    "circlename": "Tamilnadu Circle",
    "regionname": "Chennai City Region",
    "divisionname": "Tiruvannamalai Division",
    "officename": "Valayampattu BO",
    "pincode": "606701",
    "officetype": "BO",
    "delivery": "Delivery",
    "district": "TIRUVANNAMALAI",
    "statename": "TAMIL NADU",
    "latitude": "12.3089000",
    "longitude": "78.7914000"
  },
  {
    "circlename": "Tamilnadu Circle",
    "regionname": "Chennai City Region",
    "divisionname": "Tiruvannamalai Division",
    "officename": "Athurai BO",
    "pincode": "606902",
    "officetype": "BO",
    "delivery": "Delivery",
    "district": "TIRUVANNAMALAI",
    "statename": "TAMIL NADU",
    "latitude": "12.8444000",
    "longitude": "79.7995000"
  },
  {
    "circlename": "Tamilnadu Circle",
    "regionname": "Chennai City Region",
    "divisionname": "Tiruvannamalai Division",
    "officename": "Nambedu BO",
    "pincode": "606902",
    "officetype": "BO",
    "delivery": "Delivery",
    "district": "TIRUVANNAMALAI",
    "statename": "TAMIL NADU",
    "latitude": "12.8444000",
    "longitude": "79.7995000"
  },
  {
    "circlename": "Tamilnadu Circle",
    "regionname": "Chennai City Region",
    "divisionname": "Tiruvannamalai Division",
    "officename": "Thumbur BO",
    "pincode": "606902",
    "officetype": "BO",
    "delivery": "Delivery",
    "district": "TIRUVANNAMALAI",
    "statename": "TAMIL NADU",
    "latitude": "12.8444000",
    "longitude": "79.7995000"
  },
  {
    "circlename": "Tamilnadu Circle",
    "regionname": "Chennai City Region",
    "divisionname": "Tiruvannamalai Division",
    "officename": "Rayampettai BO",
    "pincode": "604601",
    "officetype": "BO",
    "delivery": "Delivery",
    "district": "TIRUVANNAMALAI",
    "statename": "TAMIL NADU",
    "latitude": "13.3725000",
    "longitude": "80.3334000"
  },
  {
    "circlename": "Tamilnadu Circle",
    "regionname": "Chennai City Region",
    "divisionname": "Tiruvannamalai Division",
    "officename": "Kothandavadi BO",
    "pincode": "606752",
    "officetype": "BO",
    "delivery": "Delivery",
    "district": "TIRUVANNAMALAI",
    "statename": "TAMIL NADU",
    "latitude": "11.6053000",
    "longitude": "79.1736000"
  },
  {
    "circlename": "Tamilnadu Circle",
    "regionname": "Chennai City Region",
    "divisionname": "Tiruvannamalai Division",
    "officename": "Arasankanni BO",
    "pincode": "606703",
    "officetype": "BO",
    "delivery": "Delivery",
    "district": "TIRUVANNAMALAI",
    "statename": "TAMIL NADU",
    "latitude": "11.3516000",
    "longitude": "77.1667000"
  },
  {
    "circlename": "Tamilnadu Circle",
    "regionname": "Chennai City Region",
    "divisionname": "Tiruvannamalai Division",
    "officename": "Melarvandavadi BO",
    "pincode": "606703",
    "officetype": "BO",
    "delivery": "Delivery",
    "district": "TIRUVANNAMALAI",
    "statename": "TAMIL NADU",
    "latitude": "11.3516000",
    "longitude": "77.1667000"
  },
  {
    "circlename": "Tamilnadu Circle",
    "regionname": "Chennai City Region",
    "divisionname": "Tiruvannamalai Division",
    "officename": "Periyakilambadi BO",
    "pincode": "606802",
    "officetype": "BO",
    "delivery": "Delivery",
    "district": "TIRUVANNAMALAI",
    "statename": "TAMIL NADU",
    "latitude": "12.4935000",
    "longitude": "79.4438000"
  },
  {
    "circlename": "Tamilnadu Circle",
    "regionname": "Chennai City Region",
    "divisionname": "Tiruvannamalai Division",
    "officename": "Eraiyur BO",
    "pincode": "606704",
    "officetype": "BO",
    "delivery": "Delivery",
    "district": "TIRUVANNAMALAI",
    "statename": "TAMIL NADU",
    "latitude": "12.2681000",
    "longitude": "78.9413000"
  },
  {
    "circlename": "Tamilnadu Circle",
    "regionname": "Chennai City Region",
    "divisionname": "Tiruvannamalai Division",
    "officename": "Melnachipattu BO",
    "pincode": "606704",
    "officetype": "BO",
    "delivery": "Delivery",
    "district": "TIRUVANNAMALAI",
    "statename": "TAMIL NADU",
    "latitude": "12.2681000",
    "longitude": "78.9413000"
  },
  {
    "circlename": "Tamilnadu Circle",
    "regionname": "Chennai City Region",
    "divisionname": "Tiruvannamalai Division",
    "officename": "Periyakolapadi BO",
    "pincode": "606704",
    "officetype": "BO",
    "delivery": "Delivery",
    "district": "TIRUVANNAMALAI",
    "statename": "TAMIL NADU",
    "latitude": "12.2681000",
    "longitude": "78.9413000"
  },
  {
    "circlename": "Tamilnadu Circle",
    "regionname": "Chennai City Region",
    "divisionname": "Tiruvannamalai Division",
    "officename": "Kuyilam BO",
    "pincode": "606710",
    "officetype": "BO",
    "delivery": "Delivery",
    "district": "TIRUVANNAMALAI",
    "statename": "TAMIL NADU",
    "latitude": "11.7517000",
    "longitude": "79.3040000"
  },
  {
    "circlename": "Tamilnadu Circle",
    "regionname": "Chennai City Region",
    "divisionname": "Tiruvannamalai Division",
    "officename": "Arudirapattu BO",
    "pincode": "606806",
    "officetype": "BO",
    "delivery": "Delivery",
    "district": "TIRUVANNAMALAI",
    "statename": "TAMIL NADU",
    "latitude": "12.0917000",
    "longitude": "79.1303000"
  },
  {
    "circlename": "Tamilnadu Circle",
    "regionname": "Chennai City Region",
    "divisionname": "Tiruvannamalai Division",
    "officename": "Devanur BO",
    "pincode": "606806",
    "officetype": "BO",
    "delivery": "Delivery",
    "district": "TIRUVANNAMALAI",
    "statename": "TAMIL NADU",
    "latitude": "12.2351944",
    "longitude": "79.0765833"
  },
  {
    "circlename": "Tamilnadu Circle",
    "regionname": "Chennai City Region",
    "divisionname": "Tiruvannamalai Division",
    "officename": "Perumanam BO",
    "pincode": "606806",
    "officetype": "BO",
    "delivery": "Delivery",
    "district": "TIRUVANNAMALAI",
    "statename": "TAMIL NADU",
    "latitude": "12.0917000",
    "longitude": "79.1303000"
  },
  {
    "circlename": "Tamilnadu Circle",
    "regionname": "Chennai City Region",
    "divisionname": "Tiruvannamalai Division",
    "officename": "Kangeyanur BO",
    "pincode": "606803",
    "officetype": "BO",
    "delivery": "Delivery",
    "district": "TIRUVANNAMALAI",
    "statename": "TAMIL NADU",
    "latitude": "13.2677000",
    "longitude": "80.0503000"
  },
  {
    "circlename": "Tamilnadu Circle",
    "regionname": "Chennai City Region",
    "divisionname": "Tiruvannamalai Division",
    "officename": "Periagaram BO",
    "pincode": "606803",
    "officetype": "BO",
    "delivery": "Delivery",
    "district": "TIRUVANNAMALAI",
    "statename": "TAMIL NADU",
    "latitude": "13.2677000",
    "longitude": "80.0503000"
  },
  {
    "circlename": "Tamilnadu Circle",
    "regionname": "Chennai City Region",
    "divisionname": "Tiruvannamalai Division",
    "officename": "Potharai BO",
    "pincode": "606803",
    "officetype": "BO",
    "delivery": "Delivery",
    "district": "TIRUVANNAMALAI",
    "statename": "TAMIL NADU",
    "latitude": "13.2677000",
    "longitude": "80.0503000"
  },
  {
    "circlename": "Tamilnadu Circle",
    "regionname": "Chennai City Region",
    "divisionname": "Tiruvannamalai Division",
    "officename": "Kilkuppam BO",
    "pincode": "606705",
    "officetype": "BO",
    "delivery": "Delivery",
    "district": "TIRUVANNAMALAI",
    "statename": "TAMIL NADU",
    "latitude": "12.0092000",
    "longitude": "78.4334000"
  },
  {
    "circlename": "Tamilnadu Circle",
    "regionname": "Chennai City Region",
    "divisionname": "Tiruvannamalai Division",
    "officename": "Padiagraharam BO",
    "pincode": "606705",
    "officetype": "BO",
    "delivery": "Delivery",
    "district": "TIRUVANNAMALAI",
    "statename": "TAMIL NADU",
    "latitude": "12.0092000",
    "longitude": "78.4334000"
  },
  {
    "circlename": "Tamilnadu Circle",
    "regionname": "Chennai City Region",
    "divisionname": "Tiruvannamalai Division",
    "officename": "Ramanathapuram BO",
    "pincode": "606905",
    "officetype": "BO",
    "delivery": "Delivery",
    "district": "TIRUVANNAMALAI",
    "statename": "TAMIL NADU",
    "latitude": "9.3716000",
    "longitude": "78.8308000"
  },
  {
    "circlename": "Tamilnadu Circle",
    "regionname": "Chennai City Region",
    "divisionname": "Tiruvannamalai Division",
    "officename": "Kolundampattu BO",
    "pincode": "606706",
    "officetype": "BO",
    "delivery": "Delivery",
    "district": "TIRUVANNAMALAI",
    "statename": "TAMIL NADU",
    "latitude": "12.0092000",
    "longitude": "78.4334000"
  },
  {
    "circlename": "Tamilnadu Circle",
    "regionname": "Chennai City Region",
    "divisionname": "Tiruvannamalai Division",
    "officename": "Kanalapadi BO",
    "pincode": "606611",
    "officetype": "BO",
    "delivery": "Delivery",
    "district": "TIRUVANNAMALAI",
    "statename": "TAMIL NADU",
    "latitude": "12.2266000",
    "longitude": "79.0746000"
  },