{"type":"FeatureCollection", "features": [
{"type":"Feature","geometry":{"type":"Point","coordinates":[79.13372800000008,12.875357000000065]},"properties":{"ps_code":"P11","ps_name":"BAGAYAM","name":"P11 BAGAYAM","dept_code":"","status":true}},
{"type":"Feature","geometry":{"type":"Point","coordinates":[79.48751800000008,13.012478000000044]},"properties":{"ps_code":"P12","ps_name":"BANAVARAM","name":"P12 BANAVARAM","dept_code":"","status":true}},
{"type":"Feature","geometry":{"type":"Point","coordinates":[78.97342681900005,13.06825733200003]},"properties":{"ps_code":"P32","ps_name":"PARATHARAMI","name":"P32 PARATHARAMI","dept_code":"","status":true}},
{"type":"Feature","geometry":{"type":"Point","coordinates":[78.71732400000008,12.933303000000024]},"properties":{"ps_code":"P33","ps_name":"PERNAMBUT","name":"P33 PERNAMBUT","dept_code":"","status":true}},
{"type":"Feature","geometry":{"type":"Point","coordinates":[78.86580200000003,12.94105600000006]},"properties":{"ps_code":"P14","ps_name":"GUDIYATHAM TOWN","name":"P14 GUDIYATHAM TOWN","dept_code":"","status":true}},
{"type":"Feature","geometry":{"type":"Point","coordinates":[78.98571800000008,12.955091000000039]},"properties":{"ps_code":"P23","ps_name":"K.V.KUPPAM","name":"P23 K.V.KUPPAM","dept_code":"","status":true}},
{"type":"Feature","geometry":{"type":"Point","coordinates":[78.87414050500007,12.945329882000067]},"properties":{"ps_code":"P13","ps_name":"GUDIYATHAM TALUK","name":"P13 GUDIYATHAM TALUK","dept_code":"","status":true}},
{"type":"Feature","geometry":{"type":"Point","coordinates":[78.79244232200006,12.859883308000065]},"properties":{"ps_code":"P26","ps_name":"MELPATTI","name":"P26 MELPATTI","dept_code":"","status":true}},
{"type":"Feature","geometry":{"type":"Point","coordinates":[78.58023189900007,12.56761311400004]},"properties":{"ps_code":"P15","ps_name":"JOLARPET","name":"P15 JOLARPET","dept_code":"","status":true}},
{"type":"Feature","geometry":{"type":"Point","coordinates":[79.41700500000007,12.769458000000043]},"properties":{"ps_code":"P16","ps_name":"KALAVAI","name":"P16 KALAVAI","dept_code":"","status":true}},
{"type":"Feature","geometry":{"type":"Point","coordinates":[78.45401100000004,12.48010400000004]},"properties":{"ps_code":"P17","ps_name":"KANDILI","name":"P17 KANDILI","dept_code":"","status":true}},
{"type":"Feature","geometry":{"type":"Point","coordinates":[79.13681030300006,12.97709846500004]},"properties":{"ps_code":"P18","ps_name":"KATPADI","name":"P18 KATPADI","dept_code":"","status":true}},
{"type":"Feature","geometry":{"type":"Point","coordinates":[79.26665438500004,12.981462165000039]},"properties":{"ps_code":"P45","ps_name":"THIRUVALAM","name":"P45 THIRUVALAM","dept_code":"","status":true}},
{"type":"Feature","geometry":{"type":"Point","coordinates":[78.81654357900004,12.577748299000064]},"properties":{"ps_code":"P19","ps_name":"KAVALUR","name":"P19 KAVALUR","dept_code":"","status":true}},
{"type":"Feature","geometry":{"type":"Point","coordinates":[79.45945200000006,12.90080800000004]},"properties":{"ps_code":"P20","ps_name":"KAVERIPAKKAM","name":"P20 KAVERIPAKKAM","dept_code":"","status":true}},
{"type":"Feature","geometry":{"type":"Point","coordinates":[79.41957855200008,13.092482567000047]},"properties":{"ps_code":"P21","ps_name":"KONDAPALAYAM","name":"P21 KONDAPALAYAM","dept_code":"","status":true}},
{"type":"Feature","geometry":{"type":"Point","coordinates":[79.42104100000006,13.114967000000036]},"properties":{"ps_code":"P38","ps_name":"SHOLINGHUR","name":"P38 SHOLINGHUR","dept_code":"","status":true}},
{"type":"Feature","geometry":{"type":"Point","coordinates":[78.57025146500007,12.486911774000077]},"properties":{"ps_code":"P43","ps_name":"THIRUPATHUR TALUK","name":"P43 THIRUPATHUR TALUK","dept_code":"","status":true}},
{"type":"Feature","geometry":{"type":"Point","coordinates":[79.27874755900007,13.062197685000058]},"properties":{"ps_code":"P25","ps_name":"MELPADI","name":"P25 MELPADI","dept_code":"","status":true}},
{"type":"Feature","geometry":{"type":"Point","coordinates":[79.06607400000007,12.973101000000042]},"properties":{"ps_code":"P24","ps_name":"LATHERI","name":"P24 LATHERI","dept_code":"","status":true}},
{"type":"Feature","geometry":{"type":"Point","coordinates":[78.51258700000005,12.591919000000075]},"properties":{"ps_code":"P27","ps_name":"NATRAMPALLI","name":"P27 NATRAMPALLI","dept_code":"","status":true}},
{"type":"Feature","geometry":{"type":"Point","coordinates":[79.61314392100007,12.97348880800007]},"properties":{"ps_code":"P28","ps_name":"NEMILI","name":"P28 NEMILI","dept_code":"","status":true}},
{"type":"Feature","geometry":{"type":"Point","coordinates":[78.94019100000008,12.903831000000025]},"properties":{"ps_code":"P30","ps_name":"PALLIKONDA","name":"P30 PALLIKONDA","dept_code":"","status":true}},
{"type":"Feature","geometry":{"type":"Point","coordinates":[79.03673553500005,13.02635097500007]},"properties":{"ps_code":"P31","ps_name":"PANAMADANGI","name":"P31 PANAMADANGI","dept_code":"","status":true}},
{"type":"Feature","geometry":{"type":"Point","coordinates":[79.25763702400008,13.129741669000055]},"properties":{"ps_code":"P34","ps_name":"PONNAI","name":"P34 PONNAI","dept_code":"","status":true}},
{"type":"Feature","geometry":{"type":"Point","coordinates":[79.33031463600008,12.927245140000025]},"properties":{"ps_code":"P35","ps_name":"RANIPET","name":"P35 RANIPET","dept_code":"","status":true}},
{"type":"Feature","geometry":{"type":"Point","coordinates":[79.24467468300008,12.940363884000021]},"properties":{"ps_code":"P36","ps_name":"RATHINAGIRI","name":"P36 RATHINAGIRI","dept_code":"","status":true}},
{"type":"Feature","geometry":{"type":"Point","coordinates":[79.13526153600003,12.802426338000032]},"properties":{"ps_code":"P51","ps_name":"VELLORE TALUK","name":"P51 VELLORE TALUK","dept_code":"","status":true}},
{"type":"Feature","geometry":{"type":"Point","coordinates":[79.17288000000008,12.940351000000021]},"properties":{"ps_code":"P37","ps_name":"SATHUVACHARI","name":"P37 SATHUVACHARI","dept_code":"","status":true}},
{"type":"Feature","geometry":{"type":"Point","coordinates":[79.30524444600007,12.954713821000041]},"properties":{"ps_code":"P39","ps_name":"SIPCOT","name":"P39 SIPCOT","dept_code":"","status":true}},
{"type":"Feature","geometry":{"type":"Point","coordinates":[79.71414500000003,13.019467000000077]},"properties":{"ps_code":"P40","ps_name":"THAKKOLAM","name":"P40 THAKKOLAM","dept_code":"","status":true}},
{"type":"Feature","geometry":{"type":"Point","coordinates":[79.30682914100004,12.82854406100006]},"properties":{"ps_code":"P41","ps_name":"THIMMIRI","name":"P41 THIMMIRI","dept_code":"","status":true}},
{"type":"Feature","geometry":{"type":"Point","coordinates":[78.52902221700003,12.69189453100006]},"properties":{"ps_code":"P42","ps_name":"THIMMAMPETTAI","name":"P42 THIMMAMPETTAI","dept_code":"","status":true}},
{"type":"Feature","geometry":{"type":"Point","coordinates":[79.13164700000004,12.923275000000046]},"properties":{"ps_code":"P49","ps_name":"VELLORE NORTH","name":"P49 VELLORE NORTH","dept_code":"","status":true}},
{"type":"Feature","geometry":{"type":"Point","coordinates":[79.13239408100003,12.915863108000053]},"properties":{"ps_code":"P50","ps_name":"VELLORE SOUTH","name":"P50 VELLORE SOUTH","dept_code":"","status":true}},
{"type":"Feature","geometry":{"type":"Point","coordinates":[79.14154204300007,12.953201492000062]},"properties":{"ps_code":"P54","ps_name":"VIRUTHAMPET","name":"P54 VIRUTHAMPET","dept_code":"","status":true}},
{"type":"Feature","geometry":{"type":"Point","coordinates":[79.11951720000008,12.894073800000058]},"properties":{"ps_code":"P44","ps_name":"THIRUPATHUR TOWN","name":"P44 THIRUPATHUR TOWN","dept_code":"","status":true}},
{"type":"Feature","geometry":{"type":"Point","coordinates":[79.38644300000004,12.641806000000031]},"properties":{"ps_code":"P46","ps_name":"VALAPANDAL","name":"P46 VALAPANDAL","dept_code":"","status":true}},
{"type":"Feature","geometry":{"type":"Point","coordinates":[78.61824900000005,12.686974000000077]},"properties":{"ps_code":"P47","ps_name":"VANIYAMBADI TALUK","name":"P47 VANIYAMBADI TALUK","dept_code":"","status":true}},
{"type":"Feature","geometry":{"type":"Point","coordinates":[78.62522358400008,12.675229040000033]},"properties":{"ps_code":"P48","ps_name":"VANIYAMBADI TOWN","name":"P48 VANIYAMBADI TOWN","dept_code":"","status":true}},
{"type":"Feature","geometry":{"type":"Point","coordinates":[79.02441000000005,12.91593400000005]},"properties":{"ps_code":"P53","ps_name":"VIRINCHIPURAM","name":"P53 VIRINCHIPURAM","dept_code":"","status":true}},
{"type":"Feature","geometry":{"type":"Point","coordinates":[79.36423167400005,12.925012762000051]},"properties":{"ps_code":"P55","ps_name":"WALAJAH","name":"P55 WALAJAH","dept_code":"","status":true}},
{"type":"Feature","geometry":{"type":"Point","coordinates":[79.50620269800004,12.897254944000053]},"properties":{"ps_code":"P56","ps_name":"AVALOOR","name":"P56 AVALOOR","dept_code":"","status":true}},
{"type":"Feature","geometry":{"type":"Point","coordinates":[78.63156890900007,12.592886925000073]},"properties":{"ps_code":"P57","ps_name":"YELAGIRI","name":"P57 YELAGIRI","dept_code":"","status":true}},
{"type":"Feature","geometry":{"type":"Point","coordinates":[78.70774078400007,10.758761406000076]},"properties":{"ps_code":"P1","ps_name":"AIRPORT","name":"P1 AIRPORT","dept_code":"","status":true}},
{"type":"Feature","geometry":{"type":"Point","coordinates":[78.72141265900007,10.810510635000071]},"properties":{"ps_code":"P2","ps_name":"ARIYAMANGALAM","name":"P2 ARIYAMANGALAM","dept_code":"","status":true}},
{"type":"Feature","geometry":{"type":"Point","coordinates":[78.68258667000003,10.807015419000038]},"properties":{"ps_code":"P3","ps_name":"CANTONMENT","name":"P3 CANTONMENT","dept_code":"","status":true}},
{"type":"Feature","geometry":{"type":"Point","coordinates":[78.67321777300003,10.780175209000049]},"properties":{"ps_code":"P4","ps_name":"E.PUDUR","name":"P4 E.PUDUR","dept_code":"","status":true}},
{"type":"Feature","geometry":{"type":"Point","coordinates":[78.69618225100004,10.824549675000071]},"properties":{"ps_code":"P5","ps_name":"FORT","name":"P5 FORT","dept_code":"","status":true}},
{"type":"Feature","geometry":{"type":"Point","coordinates":[78.69443600000005,10.815973000000042]},"properties":{"ps_code":"P6","ps_name":"GANDHI MARKET","name":"P6 GANDHI MARKET","dept_code":"","status":true}},
{"type":"Feature","geometry":{"type":"Point","coordinates":[78.71533203100006,10.779906273000051]},"properties":{"ps_code":"P7","ps_name":"GOLDENROCK","name":"P7 GOLDENROCK","dept_code":"","status":true}},
{"type":"Feature","geometry":{"type":"Point","coordinates":[78.67834472700008,10.81247806500005]},"properties":{"ps_code":"P8","ps_name":"GOVT. HOSPITAL","name":"P8 GOVT. HOSPITAL","dept_code":"","status":true}},
{"type":"Feature","geometry":{"type":"Point","coordinates":[78.55024624100008,10.703258812000058]},"properties":{"ps_code":"P9","ps_name":"INAMKULATHUR","name":"P9 INAMKULATHUR","dept_code":"","status":true}},
{"type":"Feature","geometry":{"type":"Point","coordinates":[78.52478897500004,11.070187932000067]},"properties":{"ps_code":"P10","ps_name":"JAMBUNATHAPURAM","name":"P10 JAMBUNATHAPURAM","dept_code":"","status":true}},
{"type":"Feature","geometry":{"type":"Point","coordinates":[78.60199664100008,10.872473090000028]},"properties":{"ps_code":"P11","ps_name":"JEEYAPURAM","name":"P11 JEEYAPURAM","dept_code":"","status":true}},
{"type":"Feature","geometry":{"type":"Point","coordinates":[78.94181823700006,10.972167015000025]},"properties":{"ps_code":"P12","ps_name":"KALLAKUDI","name":"P12 KALLAKUDI","dept_code":"","status":true}},
{"type":"Feature","geometry":{"type":"Point","coordinates":[78.21916054200005,10.995946863000029]},"properties":{"ps_code":"P13","ps_name":"KATTUPUTHUR","name":"P13 KATTUPUTHUR","dept_code":"","status":true}},
{"type":"Feature","geometry":{"type":"Point","coordinates":[78.68888500000008,10.75718500000005]},"properties":{"ps_code":"P14","ps_name":"K. K. NAGAR","name":"P14 K. K. NAGAR","dept_code":"","status":true}},
{"type":"Feature","geometry":{"type":"Point","coordinates":[78.70585708500005,10.879476702000034]},"properties":{"ps_code":"P15","ps_name":"KOLLIDAM","name":"P15 KOLLIDAM","dept_code":"","status":true}},
{"type":"Feature","geometry":{"type":"Point","coordinates":[78.81707087200004,10.880025767000063]},"properties":{"ps_code":"P16","ps_name":"LALKUDI","name":"P16 LALKUDI","dept_code":"","status":true}},
{"type":"Feature","geometry":{"type":"Point","coordinates":[78.69870434700005,10.911736263000023]},"properties":{"ps_code":"P17","ps_name":"MANACHANALLUR","name":"P17 MANACHANALLUR","dept_code":"","status":true}},
{"type":"Feature","geometry":{"type":"Point","coordinates":[78.42195348000007,10.608095801000047]},"properties":{"ps_code":"P18","ps_name":"MANAPPARAI","name":"P18 MANAPPARAI","dept_code":"","status":true}},
{"type":"Feature","geometry":{"type":"Point","coordinates":[78.63355800000005,10.73715500000003]},"properties":{"ps_code":"P19","ps_name":"MANIKANDAM","name":"P19 MANIKANDAM","dept_code":"","status":true}},
{"type":"Feature","geometry":{"type":"Point","coordinates":[78.44348628500006,10.953192305000073]},"properties":{"ps_code":"P20","ps_name":"MUSIRI","name":"P20 MUSIRI","dept_code":"","status":true}},
{"type":"Feature","geometry":{"type":"Point","coordinates":[78.76165703600003,10.725616649000074]},"properties":{"ps_code":"P21","ps_name":"NAVALPATTU","name":"P21 NAVALPATTU","dept_code":"","status":true}},
{"type":"Feature","geometry":{"type":"Point","coordinates":[78.69720459000007,10.80702590900006]},"properties":{"ps_code":"P22","ps_name":"PALAKKARAI","name":"P22 PALAKKARAI","dept_code":"","status":true}},
{"type":"Feature","geometry":{"type":"Point","coordinates":[78.52296493400007,10.897182074000057]},"properties":{"ps_code":"P23","ps_name":"PETTAVAITHALAI","name":"P23 PETTAVAITHALAI","dept_code":"","status":true}},
{"type":"Feature","geometry":{"type":"Point","coordinates":[78.63864618400004,11.012010110000062]},"properties":{"ps_code":"P24","ps_name":"PULIVALAM","name":"P24 PULIVALAM","dept_code":"","status":true}},
{"type":"Feature","geometry":{"type":"Point","coordinates":[78.36925350300004,10.466518983000071]},"properties":{"ps_code":"P25","ps_name":"PUTHANATHAM","name":"P25 PUTHANATHAM","dept_code":"","status":true}},
{"type":"Feature","geometry":{"type":"Point","coordinates":[78.60940805900003,10.757325542000046]},"properties":{"ps_code":"P26","ps_name":"RAMJINAGAR","name":"P26 RAMJINAGAR","dept_code":"","status":true}},
{"type":"Feature","geometry":{"type":"Point","coordinates":[78.74141676400006,10.919766605000063]},"properties":{"ps_code":"P27","ps_name":"SAMAYAPURAM","name":"P27 SAMAYAPURAM","dept_code":"","status":true}},
{"type":"Feature","geometry":{"type":"Point","coordinates":[78.68515777600004,10.808632851000027]},"properties":{"ps_code":"P28","ps_name":"SESSION COURT","name":"P28 SESSION COURT","dept_code":"","status":true}},
{"type":"Feature","geometry":{"type":"Point","coordinates":[78.79511534700003,11.015777683000067]},"properties":{"ps_code":"P29","ps_name":"SIRUGANUR","name":"P29 SIRUGANUR","dept_code":"","status":true}},
{"type":"Feature","geometry":{"type":"Point","coordinates":[78.64459991500007,10.815940857000044]},"properties":{"ps_code":"P30","ps_name":"SOMARASAMPETTAI","name":"P30 SOMARASAMPETTAI","dept_code":"","status":true}},
{"type":"Feature","geometry":{"type":"Point","coordinates":[78.68976900000007,10.857219000000043]},"properties":{"ps_code":"P31","ps_name":"SRIRANGAM","name":"P31 SRIRANGAM","dept_code":"","status":true}},
{"type":"Feature","geometry":{"type":"Point","coordinates":[78.31826800000005,9.237384000000077]},"properties":{"ps_code":"P25","ps_name":"PERUNALI","name":"P25 PERUNALI","dept_code":"","status":true}},
{"type":"Feature","geometry":{"type":"Point","coordinates":[78.45323100000007,11.119947000000025]},"properties":{"ps_code":"P32","ps_name":"THATHAIYANGARPETTAI","name":"P32 THATHAIYANGARPETTAI","dept_code":"","status":true}},
{"type":"Feature","geometry":{"type":"Point","coordinates":[78.68272100000007,10.822884000000045]},"properties":{"ps_code":"P33","ps_name":"THILLAINAGAR","name":"P33 THILLAINAGAR","dept_code":"","status":true}},
{"type":"Feature","geometry":{"type":"Point","coordinates":[78.77882385300006,10.781368256000064]},"properties":{"ps_code":"P34","ps_name":"THIRUVERAMBUR","name":"P34 THIRUVERAMBUR","dept_code":"","status":true}},
{"type":"Feature","geometry":{"type":"Point","coordinates":[78.33615656900008,10.987534094000068]},"properties":{"ps_code":"P35","ps_name":"THOTTIYAM","name":"P35 THOTTIYAM","dept_code":"","status":true}},
{"type":"Feature","geometry":{"type":"Point","coordinates":[78.59586817500008,11.151966651000066]},"properties":{"ps_code":"P36","ps_name":"THURAIYUR","name":"P36 THURAIYUR","dept_code":"","status":true}},
{"type":"Feature","geometry":{"type":"Point","coordinates":[78.82363891600005,10.75193119000005]},"properties":{"ps_code":"P37","ps_name":"THUVAKUDI","name":"P37 THUVAKUDI","dept_code":"","status":true}},
{"type":"Feature","geometry":{"type":"Point","coordinates":[78.38602374600003,10.379083399000024]},"properties":{"ps_code":"P38","ps_name":"THUVARANKURICHI","name":"P38 THUVARANKURICHI","dept_code":"","status":true}},
{"type":"Feature","geometry":{"type":"Point","coordinates":[78.51727294900007,11.261775017000048]},"properties":{"ps_code":"P39","ps_name":"UPPULIYAPURAM","name":"P39 UPPULIYAPURAM","dept_code":"","status":true}},
{"type":"Feature","geometry":{"type":"Point","coordinates":[78.30344190000005,10.55157319600005]},"properties":{"ps_code":"P40","ps_name":"VALAMPATTI","name":"P40 VALAMPATTI","dept_code":"","status":true}},
{"type":"Feature","geometry":{"type":"Point","coordinates":[78.48763603000003,10.441089601000044]},"properties":{"ps_code":"P41","ps_name":"VALANADU","name":"P41 VALANADU","dept_code":"","status":true}},
{"type":"Feature","geometry":{"type":"Point","coordinates":[78.60074518900007,10.894188095000061]},"properties":{"ps_code":"P42","ps_name":"VATHALAI","name":"P42 VATHALAI","dept_code":"","status":true}},
{"type":"Feature","geometry":{"type":"Point","coordinates":[78.67315400000007,10.825546000000031]},"properties":{"ps_code":"P43","ps_name":"WORAIYUR","name":"P43 WORAIYUR","dept_code":"","status":true}},
{"type":"Feature","geometry":{"type":"Point","coordinates":[78.79559137200005,10.771100343000057]},"properties":{"ps_code":"P44","ps_name":"BOILER PLANT","name":"P44 BOILER PLANT","dept_code":"","status":true}},
{"type":"Feature","geometry":{"type":"Point","coordinates":[79.54422200000005,12.640356000000054]},"properties":{"ps_code":"P1","ps_name":"ANAKKAVUR","name":"P1 ANAKKAVUR","dept_code":"","status":true}},
{"type":"Feature","geometry":{"type":"Point","coordinates":[79.28557780000006,12.673418200000071]},"properties":{"ps_code":"P3","ps_name":"ARANI TOWN","name":"P3 ARANI TOWN","dept_code":"","status":true}},
{"type":"Feature","geometry":{"type":"Point","coordinates":[79.28203582800006,12.672683716000051]},"properties":{"ps_code":"P2","ps_name":"ARANI TALUK","name":"P2 ARANI TALUK","dept_code":"","status":true}},
{"type":"Feature","geometry":{"type":"Point","coordinates":[79.51622500000008,12.837645000000066]},"properties":{"ps_code":"P4","ps_name":"BRAMMADESAM","name":"P4 BRAMMADESAM","dept_code":"","status":true}},
{"type":"Feature","geometry":{"type":"Point","coordinates":[78.79312300000004,12.303560000000061]},"properties":{"ps_code":"P5","ps_name":"CHENGAM","name":"P5 CHENGAM","dept_code":"","status":true}},
{"type":"Feature","geometry":{"type":"Point","coordinates":[79.34815800000007,12.463935000000049]},"properties":{"ps_code":"P6","ps_name":"CHETPET","name":"P6 CHETPET","dept_code":"","status":true}},
{"type":"Feature","geometry":{"type":"Point","coordinates":[79.54123687700007,12.66676807400006]},"properties":{"ps_code":"P7","ps_name":"CHEYYAR","name":"P7 CHEYYAR","dept_code":"","status":true}},
{"type":"Feature","geometry":{"type":"Point","coordinates":[79.48334300000005,12.439436000000057]},"properties":{"ps_code":"P8","ps_name":"DESUR","name":"P8 DESUR","dept_code":"","status":true}},
{"type":"Feature","geometry":{"type":"Point","coordinates":[79.67925500000007,12.774818000000039]},"properties":{"ps_code":"P9","ps_name":"DUSI","name":"P9 DUSI","dept_code":"","status":true}},
{"type":"Feature","geometry":{"type":"Point","coordinates":[78.88814300000007,12.592684000000077]},"properties":{"ps_code":"P10","ps_name":"JAMANAMARATHUR","name":"P10 JAMANAMARATHUR","dept_code":"","status":true}},
{"type":"Feature","geometry":{"type":"Point","coordinates":[78.96483600000005,12.404576000000077]},"properties":{"ps_code":"P11","ps_name":"KADALADI","name":"P11 KADALADI","dept_code":"","status":true}},
{"type":"Feature","geometry":{"type":"Point","coordinates":[79.21615600600006,12.629298210000059]},"properties":{"ps_code":"P12","ps_name":"KALAMBUR","name":"P12 KALAMBUR","dept_code":"","status":true}},
{"type":"Feature","geometry":{"type":"Point","coordinates":[79.11083700000006,12.438804000000061]},"properties":{"ps_code":"P13","ps_name":"KALASAPAKKAM","name":"P13 KALASAPAKKAM","dept_code":"","status":true}},
{"type":"Feature","geometry":{"type":"Point","coordinates":[79.16702634200004,12.751520442000071]},"properties":{"ps_code":"P14","ps_name":"KANNAMANGALAM","name":"P14 KANNAMANGALAM","dept_code":"","status":true}},
{"type":"Feature","geometry":{"type":"Point","coordinates":[79.70113500000008,12.494000000000028]},"properties":{"ps_code":"P15","ps_name":"KILKODUNGALUR","name":"P15 KILKODUNGALUR","dept_code":"","status":true}},
{"type":"Feature","geometry":{"type":"Point","coordinates":[79.22484800000007,12.24646400000006]},"properties":{"ps_code":"P16","ps_name":"KILPENNATHUR","name":"P16 KILPENNATHUR","dept_code":"","status":true}},
{"type":"Feature","geometry":{"type":"Point","coordinates":[79.17594909700006,12.327567101000056]},"properties":{"ps_code":"P17","ps_name":"MANGALAM","name":"P17 MANGALAM","dept_code":"","status":true}},
{"type":"Feature","geometry":{"type":"Point","coordinates":[78.72378300000008,12.274350000000027]},"properties":{"ps_code":"P18","ps_name":"MELCHENGAM","name":"P18 MELCHENGAM","dept_code":"","status":true}},
{"type":"Feature","geometry":{"type":"Point","coordinates":[79.48449700000003,12.759286000000031]},"properties":{"ps_code":"P19","ps_name":"MORANAM","name":"P19 MORANAM","dept_code":"","status":true}},
{"type":"Feature","geometry":{"type":"Point","coordinates":[78.94344329800003,12.270720482000058]},"properties":{"ps_code":"P20","ps_name":"PACHAL","name":"P20 PACHAL","dept_code":"","status":true}},
{"type":"Feature","geometry":{"type":"Point","coordinates":[79.43464900000004,12.566148000000055]},"properties":{"ps_code":"P21","ps_name":"PERANAMALLUR","name":"P21 PERANAMALLUR","dept_code":"","status":true}},
{"type":"Feature","geometry":{"type":"Point","coordinates":[79.12252400000006,12.508101000000067]},"properties":{"ps_code":"P22","ps_name":"POLUR","name":"P22 POLUR","dept_code":"","status":true}},
{"type":"Feature","geometry":{"type":"Point","coordinates":[79.53959655800008,12.47096061700006]},"properties":{"ps_code":"P23","ps_name":"PONNUR","name":"P23 PONNUR","dept_code":"","status":true}},
{"type":"Feature","geometry":{"type":"Point","coordinates":[78.87243300000006,12.360020000000077]},"properties":{"ps_code":"P24","ps_name":"PUDUPALAYAM","name":"P24 PUDUPALAYAM","dept_code":"","status":true}},
{"type":"Feature","geometry":{"type":"Point","coordinates":[79.15883300000007,12.644814000000054]},"properties":{"ps_code":"P25","ps_name":"SANTHAVASAL","name":"P25 SANTHAVASAL","dept_code":"","status":true}},
{"type":"Feature","geometry":{"type":"Point","coordinates":[78.85867309600008,12.179738998000062]},"properties":{"ps_code":"P26","ps_name":"SATHANURDAM","name":"P26 SATHANURDAM","dept_code":"","status":true}},
{"type":"Feature","geometry":{"type":"Point","coordinates":[79.08421600000008,12.094376000000068]},"properties":{"ps_code":"P29","ps_name":"THATCHAMPET","name":"P29 THATCHAMPET","dept_code":"","status":true}},
{"type":"Feature","geometry":{"type":"Point","coordinates":[78.94938300000007,12.153528000000051]},"properties":{"ps_code":"P27","ps_name":"THANDRAMPET","name":"P27 THANDRAMPET","dept_code":"","status":true}},
{"type":"Feature","geometry":{"type":"Point","coordinates":[78.83446600000008,12.106657000000041]},"properties":{"ps_code":"P28","ps_name":"THANIPADI","name":"P28 THANIPADI","dept_code":"","status":true}},
{"type":"Feature","geometry":{"type":"Point","coordinates":[79.55100400000003,12.401164000000051]},"properties":{"ps_code":"P30","ps_name":"THELLAR","name":"P30 THELLAR","dept_code":"","status":true}},
{"type":"Feature","geometry":{"type":"Point","coordinates":[79.02032900000006,12.109317000000033]},"properties":{"ps_code":"P35","ps_name":"VANAPURAM","name":"P35 VANAPURAM","dept_code":"","status":true}},
{"type":"Feature","geometry":{"type":"Point","coordinates":[79.60454559300007,12.506884575000072]},"properties":{"ps_code":"P36","ps_name":"VANDAVASI NORTH","name":"P36 VANDAVASI NORTH","dept_code":"","status":true}},
{"type":"Feature","geometry":{"type":"Point","coordinates":[79.60432434100005,12.505644798000048]},"properties":{"ps_code":"P37","ps_name":"VANDAVASI SOUTH","name":"P37 VANDAVASI SOUTH","dept_code":"","status":true}},
{"type":"Feature","geometry":{"type":"Point","coordinates":[79.13040200000006,12.091669000000024]},"properties":{"ps_code":"P38","ps_name":"VERAIYUR","name":"P38 VERAIYUR","dept_code":"","status":true}},
{"type":"Feature","geometry":{"type":"Point","coordinates":[79.24443800000006,12.114483000000064]},"properties":{"ps_code":"P39","ps_name":"VETTAVALAM","name":"P39 VETTAVALAM","dept_code":"","status":true}},
{"type":"Feature","geometry":{"type":"Point","coordinates":[79.50670623800005,12.500807762000022]},"properties":{"ps_code":"P34","ps_name":"VADAVANAKAMABADI","name":"P34 VADAVANAKAMABADI","dept_code":"","status":true}},
{"type":"Feature","geometry":{"type":"Point","coordinates":[79.06134796100008,12.254424095000047]},"properties":{"ps_code":"P32","ps_name":"THIRUVANNAMALAI TALUK","name":"P32 THIRUVANNAMALAI TALUK","dept_code":"","status":true}},
{"type":"Feature","geometry":{"type":"Point","coordinates":[79.06991400000004,12.230220000000031]},"properties":{"ps_code":"P33","ps_name":"THIRUVANNAMALAI TOWN","name":"P33 THIRUVANNAMALAI TOWN","dept_code":"","status":true}},
{"type":"Feature","geometry":{"type":"Point","coordinates":[79.07593536400003,12.234995842000046]},"properties":{"ps_code":"P31","ps_name":"THIRUVANNAMALAI EAST","name":"P31 THIRUVANNAMALAI EAST","dept_code":"","status":true}},
{"type":"Feature","geometry":{"type":"Point","coordinates":[79.54138183600008,12.666933060000076]},"properties":{"ps_code":"P40","ps_name":"Cheyyar AWPS","name":"P40 Cheyyar AWPS","dept_code":"","status":true}},
{"type":"Feature","geometry":{"type":"Point","coordinates":[79.60522460900006,12.506528854000067]},"properties":{"ps_code":"P41","ps_name":"Vandavasi AWPS","name":"P41 Vandavasi AWPS","dept_code":"","status":true}},
{"type":"Feature","geometry":{"type":"Point","coordinates":[77.29609572700008,9.044455068000048]},"properties":{"ps_code":"P1","ps_name":"ACHANPUDUR","name":"P1 ACHANPUDUR","dept_code":"","status":true}},
{"type":"Feature","geometry":{"type":"Point","coordinates":[77.50015913200008,8.86492469600006]},"properties":{"ps_code":"P2","ps_name":"ALANGULAM","name":"P2 ALANGULAM","dept_code":"","status":true}},
{"type":"Feature","geometry":{"type":"Point","coordinates":[77.39300675400006,8.781858336000028]},"properties":{"ps_code":"P3","ps_name":"ALWARKURUYCHI","name":"P3 ALWARKURUYCHI","dept_code":"","status":true}},
{"type":"Feature","geometry":{"type":"Point","coordinates":[77.34276137300003,9.000626038000064]},"properties":{"ps_code":"P5","ps_name":"AYAKUDI","name":"P5 AYAKUDI","dept_code":"","status":true}},
{"type":"Feature","geometry":{"type":"Point","coordinates":[77.60115506700004,8.433324387000027]},"properties":{"ps_code":"P11","ps_name":"ERUVADI","name":"P11 ERUVADI","dept_code":"","status":true}},
{"type":"Feature","geometry":{"type":"Point","coordinates":[77.77986776400007,8.857928480000055]},"properties":{"ps_code":"P12","ps_name":"GANGAIKONDAN","name":"P12 GANGAIKONDAN","dept_code":"","status":true}},
{"type":"Feature","geometry":{"type":"Point","coordinates":[77.36983272400005,8.82489012000002]},"properties":{"ps_code":"P13","ps_name":"KADAYAM","name":"P13 KADAYAM","dept_code":"","status":true}},
{"type":"Feature","geometry":{"type":"Point","coordinates":[77.34779593000007,9.087093879000065]},"properties":{"ps_code":"P14","ps_name":"KADAYANALLUR","name":"P14 KADAYANALLUR","dept_code":"","status":true}},
{"type":"Feature","geometry":{"type":"Point","coordinates":[77.54810739500005,8.51550938400004]},"properties":{"ps_code":"P15","ps_name":"KALAKAD","name":"P15 KALAKAD","dept_code":"","status":true}},
{"type":"Feature","geometry":{"type":"Point","coordinates":[77.47000473100007,8.680551680000065]},"properties":{"ps_code":"P16","ps_name":"KALLIDAIKURICHI","name":"P16 KALLIDAIKURICHI","dept_code":"","status":true}},
{"type":"Feature","geometry":{"type":"Point","coordinates":[77.69610818600006,8.189281512000036]},"properties":{"ps_code":"P17","ps_name":"KOODANKULAM","name":"P17 KOODANKULAM","dept_code":"","status":true}},
{"type":"Feature","geometry":{"type":"Point","coordinates":[77.66923719300007,9.177192964000028]},"properties":{"ps_code":"P18","ps_name":"KURUVIKULAM","name":"P18 KURUVIKULAM","dept_code":"","status":true}},
{"type":"Feature","geometry":{"type":"Point","coordinates":[77.65354267500004,8.854500315000053]},"properties":{"ps_code":"P21","ps_name":"MANUR","name":"P21 MANUR","dept_code":"","status":true}},
{"type":"Feature","geometry":{"type":"Point","coordinates":[77.38433200000003,8.915161000000069]},"properties":{"ps_code":"P32","ps_name":"PAVOORCHATRAM","name":"P32 PAVOORCHATRAM","dept_code":"","status":true}},
{"type":"Feature","geometry":{"type":"Point","coordinates":[77.43703543800007,9.065654047000066]},"properties":{"ps_code":"P39","ps_name":"SENDAMARAM","name":"P39 SENDAMARAM","dept_code":"","status":true}},
{"type":"Feature","geometry":{"type":"Point","coordinates":[77.25557043500004,8.974663013000054]},"properties":{"ps_code":"P40","ps_name":"SHENKOTTAI","name":"P40 SHENKOTTAI","dept_code":"","status":true}},
{"type":"Feature","geometry":{"type":"Point","coordinates":[77.63635180600005,8.707442743000058]},"properties":{"ps_code":"P44","ps_name":"SUTHAMALAI","name":"P44 SUTHAMALAI","dept_code":"","status":true}},
{"type":"Feature","geometry":{"type":"Point","coordinates":[77.66332244900008,8.723370552000063]},"properties":{"ps_code":"P44","ps_name":"PETTAI","name":"P44 PETTAI","dept_code":"","status":true}},
{"type":"Feature","geometry":{"type":"Point","coordinates":[77.30569300000008,8.962791000000038]},"properties":{"ps_code":"P46","ps_name":"TENKASI","name":"P46 TENKASI","dept_code":"","status":true}},
{"type":"Feature","geometry":{"type":"Point","coordinates":[77.73437128600006,8.801698909000038]},"properties":{"ps_code":"P47","ps_name":"THALAYUTHU","name":"P47 THALAYUTHU","dept_code":"","status":true}},
{"type":"Feature","geometry":{"type":"Point","coordinates":[77.77124553700008,8.738707937000072]},"properties":{"ps_code":"P60","ps_name":"TIRUNELVELI TALUK","name":"P60 TIRUNELVELI TALUK","dept_code":"","status":true}},
{"type":"Feature","geometry":{"type":"Point","coordinates":[78.43237800000009,9.441577000000052]},"properties":{"ps_code":"P1","ps_name":"ABIRAMAM","name":"P1 ABIRAMAM","dept_code":"","status":true}},
{"type":"Feature","geometry":{"type":"Point","coordinates":[77.73740703500005,8.721490606000032]},"properties":{"ps_code":"P60","ps_name":"PALAYAMKOTTAI","name":"P60 PALAYAMKOTTAI","dept_code":"","status":true}},
{"type":"Feature","geometry":{"type":"Point","coordinates":[77.90012156600005,8.28648894500003]},"properties":{"ps_code":"P27","ps_name":"OVARI","name":"P27 OVARI","dept_code":"","status":true}},
{"type":"Feature","geometry":{"type":"Point","coordinates":[77.85403455400007,8.336563021000075]},"properties":{"ps_code":"P52","ps_name":"THISAYANVILAI","name":"P52 THISAYANVILAI","dept_code":"","status":true}},
{"type":"Feature","geometry":{"type":"Point","coordinates":[77.61198256200004,8.383276373000058]},"properties":{"ps_code":"P55","ps_name":"VALLIYUR","name":"P55 VALLIYUR","dept_code":"","status":true}},
{"type":"Feature","geometry":{"type":"Point","coordinates":[77.44420727700003,8.652836467000043]},"properties":{"ps_code":"P20","ps_name":"MANJOLAI","name":"P20 MANJOLAI","dept_code":"","status":true}},
{"type":"Feature","geometry":{"type":"Point","coordinates":[77.52412260900007,8.687507205000031]},"properties":{"ps_code":"P57","ps_name":"VEERAVANALLUR","name":"P57 VEERAVANALLUR","dept_code":"","status":true}},
{"type":"Feature","geometry":{"type":"Point","coordinates":[77.56467569200004,8.677675968000074]},"properties":{"ps_code":"P6","ps_name":"CHERANMAHADEVI","name":"P6 CHERANMAHADEVI","dept_code":"","status":true}},
{"type":"Feature","geometry":{"type":"Point","coordinates":[77.23955820200007,8.931505154000035]},"properties":{"ps_code":"P9","ps_name":"COURTALAM","name":"P9 COURTALAM","dept_code":"","status":true}},
{"type":"Feature","geometry":{"type":"Point","coordinates":[77.45530075900007,8.713854741000034]},"properties":{"ps_code":"P4","ps_name":"AMBASAMUDRAM","name":"P4 AMBASAMUDRAM","dept_code":"","status":true}},
{"type":"Feature","geometry":{"type":"Point","coordinates":[77.53990230000005,9.269884800000057]},"properties":{"ps_code":"P19","ps_name":"K.V.NALLUR","name":"P19 K.V.NALLUR","dept_code":"","status":true}},
{"type":"Feature","geometry":{"type":"Point","coordinates":[77.55409063500008,9.109902134000038]},"properties":{"ps_code":"P7","ps_name":"CHINNAKOVILANKULAM","name":"P7 CHINNAKOVILANKULAM","dept_code":"","status":true}},
{"type":"Feature","geometry":{"type":"Point","coordinates":[77.28547178300005,9.013848762000066]},"properties":{"ps_code":"P10","ps_name":"ELATHUR","name":"P10 ELATHUR","dept_code":"","status":true}},
{"type":"Feature","geometry":{"type":"Point","coordinates":[77.66991177300008,8.549681691000046]},"properties":{"ps_code":"P23","ps_name":"MOONRADAIPPU","name":"P23 MOONRADAIPPU","dept_code":"","status":true}},
{"type":"Feature","geometry":{"type":"Point","coordinates":[77.76885100900006,8.541218194000066]},"properties":{"ps_code":"P22","ps_name":"MOOLAKARAIPATTI","name":"P22 MOOLAKARAIPATTI","dept_code":"","status":true}},
{"type":"Feature","geometry":{"type":"Point","coordinates":[77.51970038000007,8.735850850000077]},"properties":{"ps_code":"P24","ps_name":"MUKKUDAL","name":"P24 MUKKUDAL","dept_code":"","status":true}},
{"type":"Feature","geometry":{"type":"Point","coordinates":[77.69866402600007,8.681916027000057]},"properties":{"ps_code":"P25","ps_name":"MUNEERPALLAM","name":"P25 MUNEERPALLAM","dept_code":"","status":true}},
{"type":"Feature","geometry":{"type":"Point","coordinates":[77.73194504300005,8.70412015200003]},"properties":{"ps_code":"P60","ps_name":"PERUMALPURAM","name":"P60 PERUMALPURAM","dept_code":"","status":true}},
{"type":"Feature","geometry":{"type":"Point","coordinates":[77.68616955200008,8.726689160000035]},"properties":{"ps_code":"P60","ps_name":"TOWN PS","name":"P60 TOWN PS","dept_code":"","status":true}},
{"type":"Feature","geometry":{"type":"Point","coordinates":[77.57910580000004,8.325294600000063]},"properties":{"ps_code":"P28","ps_name":"PANAGUDI","name":"P28 PANAGUDI","dept_code":"","status":true}},
{"type":"Feature","geometry":{"type":"Point","coordinates":[77.61139451100007,9.051258271000052]},"properties":{"ps_code":"P29","ps_name":"PANAVADALICHATRAM","name":"P29 PANAVADALICHATRAM","dept_code":"","status":true}},
{"type":"Feature","geometry":{"type":"Point","coordinates":[77.50105315800005,8.751893412000072]},"properties":{"ps_code":"P30","ps_name":"PAPPAKUDI","name":"P30 PAPPAKUDI","dept_code":"","status":true}},
{"type":"Feature","geometry":{"type":"Point","coordinates":[77.58409293600005,8.667166123000072]},"properties":{"ps_code":"P31","ps_name":"PATHAMADAI","name":"P31 PATHAMADAI","dept_code":"","status":true}},
{"type":"Feature","geometry":{"type":"Point","coordinates":[77.57158057500004,8.204867080000042]},"properties":{"ps_code":"P33","ps_name":"PAZHAVOOR","name":"P33 PAZHAVOOR","dept_code":"","status":true}},
{"type":"Feature","geometry":{"type":"Point","coordinates":[77.65997980600008,8.491199428000073]},"properties":{"ps_code":"P26","ps_name":"NANGUNERI","name":"P26 NANGUNERI","dept_code":"","status":true}},
{"type":"Feature","geometry":{"type":"Point","coordinates":[77.39752619200004,9.180855219000023]},"properties":{"ps_code":"P34","ps_name":"PULIYANKUDI","name":"P34 PULIYANKUDI","dept_code":"","status":true}},
{"type":"Feature","geometry":{"type":"Point","coordinates":[77.18950062400006,9.005587263000052]},"properties":{"ps_code":"P35","ps_name":"PULIYARAI","name":"P35 PULIYARAI","dept_code":"","status":true}},
{"type":"Feature","geometry":{"type":"Point","coordinates":[77.68403143600005,8.263657072000058]},"properties":{"ps_code":"P36","ps_name":"RADHAPURAM","name":"P36 RADHAPURAM","dept_code":"","status":true}},
{"type":"Feature","geometry":{"type":"Point","coordinates":[77.38890075200004,8.999132865000036]},"properties":{"ps_code":"P45","ps_name":"S.V.KARAI","name":"P45 S.V.KARAI","dept_code":"","status":true}},
{"type":"Feature","geometry":{"type":"Point","coordinates":[77.81046868900006,8.790423747000034]},"properties":{"ps_code":"P38","ps_name":"SEEVALAPERI","name":"P38 SEEVALAPERI","dept_code":"","status":true}},
{"type":"Feature","geometry":{"type":"Point","coordinates":[77.43048977500007,9.343582888000071]},"properties":{"ps_code":"P41","ps_name":"SIVAGIRI","name":"P41 SIVAGIRI","dept_code":"","status":true}},
{"type":"Feature","geometry":{"type":"Point","coordinates":[77.78668517600005,8.643316300000038]},"properties":{"ps_code":"P42","ps_name":"SIVANTHIPATTI","name":"P42 SIVANTHIPATTI","dept_code":"","status":true}},
{"type":"Feature","geometry":{"type":"Point","coordinates":[77.42295974500007,8.97946326300007]},"properties":{"ps_code":"P43","ps_name":"SURANDAI","name":"P43 SURANDAI","dept_code":"","status":true}},
{"type":"Feature","geometry":{"type":"Point","coordinates":[77.63235161200004,8.970112215000029]},"properties":{"ps_code":"P48","ps_name":"THEVARKULAM","name":"P48 THEVARKULAM","dept_code":"","status":true}},
{"type":"Feature","geometry":{"type":"Point","coordinates":[77.56361257800006,8.434664588000032]},"properties":{"ps_code":"P49","ps_name":"THIRUKKARANGUDI","name":"P49 THIRUKKARANGUDI","dept_code":"","status":true}},
{"type":"Feature","geometry":{"type":"Point","coordinates":[77.67354062400005,9.261437202000025]},"properties":{"ps_code":"P51","ps_name":"THIRUVENGADAM","name":"P51 THIRUVENGADAM","dept_code":"","status":true}},
{"type":"Feature","geometry":{"type":"Point","coordinates":[77.44919284800005,8.938756951000073]},"properties":{"ps_code":"P59","ps_name":"V.K. PUDUR","name":"P59 V.K. PUDUR","dept_code":"","status":true}},
{"type":"Feature","geometry":{"type":"Point","coordinates":[77.53114214000004,8.983282145000032]},"properties":{"ps_code":"P53","ps_name":"UTHUMALAI","name":"P53 UTHUMALAI","dept_code":"","status":true}},
{"type":"Feature","geometry":{"type":"Point","coordinates":[77.39695969800005,8.712198859000068]},"properties":{"ps_code":"P54","ps_name":"V.K. PURAM","name":"P54 V.K. PURAM","dept_code":"","status":true}},
{"type":"Feature","geometry":{"type":"Point","coordinates":[77.40977399600007,9.238553879000051]},"properties":{"ps_code":"P56","ps_name":"VASUDEVANALLUR","name":"P56 VASUDEVANALLUR","dept_code":"","status":true}},
{"type":"Feature","geometry":{"type":"Point","coordinates":[77.78680807800004,8.420847062000064]},"properties":{"ps_code":"P58","ps_name":"VIJAYANARAYANAM","name":"P58 VIJAYANARAYANAM","dept_code":"","status":true}},
{"type":"Feature","geometry":{"type":"Point","coordinates":[77.36179811000005,9.126530872000046]},"properties":{"ps_code":"P8","ps_name":"CHOKKAMPATTI","name":"P8 CHOKKAMPATTI","dept_code":"","status":true}},
{"type":"Feature","geometry":{"type":"Point","coordinates":[77.53507000000008,9.186151000000052]},"properties":{"ps_code":"P37","ps_name":"SANKARANKOVIL TOWN","name":"P37 SANKARANKOVIL TOWN","dept_code":"","status":true}},
{"type":"Feature","geometry":{"type":"Point","coordinates":[77.69476456200005,8.752175613000077]},"properties":{"ps_code":"P60","ps_name":"THATCHANALLUR","name":"P60 THATCHANALLUR","dept_code":"","status":true}},
{"type":"Feature","geometry":{"type":"Point","coordinates":[77.68266778800006,9.089399229000037]},"properties":{"ps_code":"P61","ps_name":"AYYAPURAM","name":"P61 AYYAPURAM","dept_code":"","status":true}},
{"type":"Feature","geometry":{"type":"Point","coordinates":[77.42751961100004,8.648023452000075]},"properties":{"ps_code":"P62","ps_name":"MANIMUTHAR","name":"P62 MANIMUTHAR","dept_code":"","status":true}},
{"type":"Feature","geometry":{"type":"Point","coordinates":[77.53209515700007,9.17017727700005]},"properties":{"ps_code":"P63","ps_name":"SANKARANKOVIL TALUK","name":"P63 SANKARANKOVIL TALUK","dept_code":"","status":true}},
{"type":"Feature","geometry":{"type":"Point","coordinates":[77.60501860000005,8.788842000000045]},"properties":{"ps_code":"P64","ps_name":"SEETHAPARBANALLUR","name":"P64 SEETHAPARBANALLUR","dept_code":"","status":true}},
{"type":"Feature","geometry":{"type":"Point","coordinates":[77.75055000000003,8.712566667000033]},"properties":{"ps_code":"P65","ps_name":"TVMCH PS","name":"P65 TVMCH PS","dept_code":"","status":true}},
{"type":"Feature","geometry":{"type":"Point","coordinates":[77.68621063200004,8.72659778600007]},"properties":{"ps_code":"P66","ps_name":"TOWNCRIME PS","name":"P66 TOWNCRIME PS","dept_code":"","status":true}},
{"type":"Feature","geometry":{"type":"Point","coordinates":[77.74064636200006,8.720413208000025]},"properties":{"ps_code":"P67","ps_name":"PALAYAMKOTTAI CRIME PS","name":"P67 PALAYAMKOTTAI CRIME PS","dept_code":"","status":true}},
{"type":"Feature","geometry":{"type":"Point","coordinates":[77.69335391200008,8.725966882000023]},"properties":{"ps_code":"P68","ps_name":"JUNCTION","name":"P68 JUNCTION","dept_code":"","status":true}},
{"type":"Feature","geometry":{"type":"Point","coordinates":[77.68663000000004,8.707118900000069]},"properties":{"ps_code":"P69","ps_name":"MELAPALAYAM","name":"P69 MELAPALAYAM","dept_code":"","status":true}},
{"type":"Feature","geometry":{"type":"Point","coordinates":[77.93718719500004,8.606815338000047]},"properties":{"ps_code":"P1","ps_name":"ALWARTHIRUNAGIRI","name":"P1 ALWARTHIRUNAGIRI","dept_code":"","status":true}},
{"type":"Feature","geometry":{"type":"Point","coordinates":[78.09270300000003,8.57293100000004]},"properties":{"ps_code":"P2","ps_name":"ARUMUGANERI","name":"P2 ARUMUGANERI","dept_code":"","status":true}},
{"type":"Feature","geometry":{"type":"Point","coordinates":[78.06975900000003,8.61805000000004]},"properties":{"ps_code":"P3","ps_name":"AUTHOOR","name":"P3 AUTHOOR","dept_code":"","status":true}},
{"type":"Feature","geometry":{"type":"Point","coordinates":[78.05324600000006,9.01770700000003]},"properties":{"ps_code":"P4","ps_name":"EPPODUMVENDRAN","name":"P4 EPPODUMVENDRAN","dept_code":"","status":true}},
{"type":"Feature","geometry":{"type":"Point","coordinates":[78.02195739700005,8.624299049000058]},"properties":{"ps_code":"P5","ps_name":"ERAL","name":"P5 ERAL","dept_code":"","status":true}},
{"type":"Feature","geometry":{"type":"Point","coordinates":[78.00120400000003,9.153516000000025]},"properties":{"ps_code":"P6","ps_name":"ETTAIYAPURAM","name":"P6 ETTAIYAPURAM","dept_code":"","status":true}},
{"type":"Feature","geometry":{"type":"Point","coordinates":[78.24553303200008,9.205989894000027]},"properties":{"ps_code":"P7","ps_name":"KADALKUDI","name":"P7 KADALKUDI","dept_code":"","status":true}},
{"type":"Feature","geometry":{"type":"Point","coordinates":[77.85631377100003,8.994777723000027]},"properties":{"ps_code":"P8","ps_name":"KADAMBUR","name":"P8 KADAMBUR","dept_code":"","status":true}},
{"type":"Feature","geometry":{"type":"Point","coordinates":[77.70209749500003,9.14753161300007]},"properties":{"ps_code":"P9","ps_name":"KALUGUMALAI","name":"P9 KALUGUMALAI","dept_code":"","status":true}},
{"type":"Feature","geometry":{"type":"Point","coordinates":[77.77257600000007,8.947489000000076]},"properties":{"ps_code":"P10","ps_name":"KAYATHAR","name":"P10 KAYATHAR","dept_code":"","status":true}},
{"type":"Feature","geometry":{"type":"Point","coordinates":[77.91036841100004,9.072755793000056]},"properties":{"ps_code":"P11","ps_name":"KOPPAMPATTI","name":"P11 KOPPAMPATTI","dept_code":"","status":true}},
{"type":"Feature","geometry":{"type":"Point","coordinates":[77.87585449200003,9.17593574500006]},"properties":{"ps_code":"P12","ps_name":"KOVILPATTI EAST","name":"P12 KOVILPATTI EAST","dept_code":"","status":true}},
{"type":"Feature","geometry":{"type":"Point","coordinates":[77.85472869900008,9.16837692300004]},"properties":{"ps_code":"P13","ps_name":"KOVILPATTI WEST","name":"P13 KOVILPATTI WEST","dept_code":"","status":true}},
{"type":"Feature","geometry":{"type":"Point","coordinates":[78.05243600000006,8.399964000000068]},"properties":{"ps_code":"P14","ps_name":"KULASEKARAPATTINAM","name":"P14 KULASEKARAPATTINAM","dept_code":"","status":true}},
{"type":"Feature","geometry":{"type":"Point","coordinates":[78.18849400000005,9.003085000000056]},"properties":{"ps_code":"P15","ps_name":"KULATHUR","name":"P15 KULATHUR","dept_code":"","status":true}},
{"type":"Feature","geometry":{"type":"Point","coordinates":[78.04154900000003,8.591539000000068]},"properties":{"ps_code":"P16","ps_name":"KURUMBUR","name":"P16 KURUMBUR","dept_code":"","status":true}},
{"type":"Feature","geometry":{"type":"Point","coordinates":[77.89353179900007,8.86299705500005]},"properties":{"ps_code":"P17","ps_name":"MANIYACHI","name":"P17 MANIYACHI","dept_code":"","status":true}},
{"type":"Feature","geometry":{"type":"Point","coordinates":[78.03330903000005,9.289631876000044]},"properties":{"ps_code":"P18","ps_name":"MASARPATTI","name":"P18 MASARPATTI","dept_code":"","status":true}},
{"type":"Feature","geometry":{"type":"Point","coordinates":[77.99983256800004,8.474327895000044]},"properties":{"ps_code":"P19","ps_name":"MEIGNANAPURAM","name":"P19 MEIGNANAPURAM","dept_code":"","status":true}},
{"type":"Feature","geometry":{"type":"Point","coordinates":[77.83070531700008,8.713269869000044]},"properties":{"ps_code":"P20","ps_name":"MURAPPANADU","name":"P20 MURAPPANADU","dept_code":"","status":true}},
{"type":"Feature","geometry":{"type":"Point","coordinates":[78.12449076300004,8.743437075000031]},"properties":{"ps_code":"P21","ps_name":"MUTHAIAYAPURAM","name":"P21 MUTHAIAYAPURAM","dept_code":"","status":true}},
{"type":"Feature","geometry":{"type":"Point","coordinates":[77.78920745800008,9.142446518000042]},"properties":{"ps_code":"P22","ps_name":"NALATTINPUDHUR","name":"P22 NALATTINPUDHUR","dept_code":"","status":true}},
{"type":"Feature","geometry":{"type":"Point","coordinates":[77.84345245400004,8.857930183000065]},"properties":{"ps_code":"P23","ps_name":"NARAIKINARU","name":"P23 NARAIKINARU","dept_code":"","status":true}},
{"type":"Feature","geometry":{"type":"Point","coordinates":[77.97864169100006,8.563223837000066]},"properties":{"ps_code":"P24","ps_name":"NAZERTH","name":"P24 NAZERTH","dept_code":"","status":true}},
{"type":"Feature","geometry":{"type":"Point","coordinates":[78.02118601200004,8.915737695000075]},"properties":{"ps_code":"P25","ps_name":"OTTAPIDARAM","name":"P25 OTTAPIDARAM","dept_code":"","status":true}},
{"type":"Feature","geometry":{"type":"Point","coordinates":[77.96967315700005,9.000141144000054]},"properties":{"ps_code":"P26","ps_name":"PASUVANTHANAI","name":"P26 PASUVANTHANAI","dept_code":"","status":true}},
{"type":"Feature","geometry":{"type":"Point","coordinates":[78.04437255900007,8.736589432000073]},"properties":{"ps_code":"P28","ps_name":"PUDHUKOTTAI","name":"P28 PUDHUKOTTAI","dept_code":"","status":true}},
{"type":"Feature","geometry":{"type":"Point","coordinates":[78.13593200000008,9.291015000000073]},"properties":{"ps_code":"P29","ps_name":"PUDHUR","name":"P29 PUDHUR","dept_code":"","status":true}},
{"type":"Feature","geometry":{"type":"Point","coordinates":[77.84817504900008,8.825120926000068]},"properties":{"ps_code":"P30","ps_name":"PULIYAMPATTI","name":"P30 PULIYAMPATTI","dept_code":"","status":true}},
{"type":"Feature","geometry":{"type":"Point","coordinates":[78.02644348100006,8.872528076000037]},"properties":{"ps_code":"P27","ps_name":"PUDHIYAMPUTHUR","name":"P27 PUDHIYAMPUTHUR","dept_code":"","status":true}},
{"type":"Feature","geometry":{"type":"Point","coordinates":[78.12141000000008,9.243055000000027]},"properties":{"ps_code":"P31","ps_name":"SANKARLINGAPURAM","name":"P31 SANKARLINGAPURAM","dept_code":"","status":true}},
{"type":"Feature","geometry":{"type":"Point","coordinates":[77.90868300000005,8.441868000000056]},"properties":{"ps_code":"P32","ps_name":"SATHANKULAM","name":"P32 SATHANKULAM","dept_code":"","status":true}},
{"type":"Feature","geometry":{"type":"Point","coordinates":[78.03733062700007,8.684254646000056]},"properties":{"ps_code":"P33","ps_name":"SAWYERPURAM","name":"P33 SAWYERPURAM","dept_code":"","status":true}},
{"type":"Feature","geometry":{"type":"Point","coordinates":[77.82864700000005,8.661657000000048]},"properties":{"ps_code":"P34","ps_name":"SETHINGANALLUR","name":"P34 SETHINGANALLUR","dept_code":"","status":true}},
{"type":"Feature","geometry":{"type":"Point","coordinates":[78.08311300000008,8.807476000000065]},"properties":{"ps_code":"P28","ps_name":"SIPCOT","name":"P28 SIPCOT","dept_code":"","status":true}},
{"type":"Feature","geometry":{"type":"Point","coordinates":[77.90811157200005,8.62540817300004]},"properties":{"ps_code":"P36","ps_name":"SRIVAIKUNDAM","name":"P36 SRIVAIKUNDAM","dept_code":"","status":true}},
{"type":"Feature","geometry":{"type":"Point","coordinates":[78.31832122800006,9.105772018000039]},"properties":{"ps_code":"P37","ps_name":"SURANGUDI","name":"P37 SURANGUDI","dept_code":"","status":true}},
{"type":"Feature","geometry":{"type":"Point","coordinates":[78.14551300000005,8.83604900000006]},"properties":{"ps_code":"P38","ps_name":"THALAMUTHU","name":"P38 THALAMUTHU","dept_code":"","status":true}},
{"type":"Feature","geometry":{"type":"Point","coordinates":[78.17173004200004,8.892518044000042]},"properties":{"ps_code":"P39","ps_name":"THARUVAIKULAM","name":"P39 THARUVAIKULAM","dept_code":"","status":true}},
{"type":"Feature","geometry":{"type":"Point","coordinates":[78.02055900000005,8.828962000000047]},"properties":{"ps_code":"P40","ps_name":"THATTAMPARAI","name":"P40 THATTAMPARAI","dept_code":"","status":true}},
{"type":"Feature","geometry":{"type":"Point","coordinates":[77.93612700000006,8.371531000000061]},"properties":{"ps_code":"P41","ps_name":"THATTARAMADAM","name":"P41 THATTARAMADAM","dept_code":"","status":true}},
{"type":"Feature","geometry":{"type":"Point","coordinates":[78.17522600000007,8.753108000000054]},"properties":{"ps_code":"P44","ps_name":"THERMAL NAGAR","name":"P44 THERMAL NAGAR","dept_code":"","status":true}},
{"type":"Feature","geometry":{"type":"Point","coordinates":[78.15774000000005,8.803446000000065]},"properties":{"ps_code":"P46","ps_name":"TUK CENTRAL","name":"P46 TUK CENTRAL","dept_code":"","status":true}},
{"type":"Feature","geometry":{"type":"Point","coordinates":[78.16312408400006,8.811637878000056]},"properties":{"ps_code":"P47","ps_name":"TUK NORTH","name":"P47 TUK NORTH","dept_code":"","status":true}},
{"type":"Feature","geometry":{"type":"Point","coordinates":[78.13682556200007,8.800304413000049]},"properties":{"ps_code":"P45","ps_name":"TUK SOUTH","name":"P45 TUK SOUTH","dept_code":"","status":true}},
{"type":"Feature","geometry":{"type":"Point","coordinates":[78.12606811500007,8.496089935000043]},"properties":{"ps_code":"P42","ps_name":"TIRUCHENDUR","name":"P42 TIRUCHENDUR","dept_code":"","status":true}},
{"type":"Feature","geometry":{"type":"Point","coordinates":[78.12612152100007,8.498999596000033]},"properties":{"ps_code":"P48","ps_name":"TIRUCHENDUR TEMPLE","name":"P48 TIRUCHENDUR TEMPLE","dept_code":"","status":true}},
{"type":"Feature","geometry":{"type":"Point","coordinates":[78.16858673100006,9.129712105000067]},"properties":{"ps_code":"P43","ps_name":"VILATHIKULAM","name":"P43 VILATHIKULAM","dept_code":"","status":true}},
{"type":"Feature","geometry":{"type":"Point","coordinates":[77.82035827600004,8.577498436000042]},"properties":{"ps_code":"P49","ps_name":"SERAKULAM","name":"P49 SERAKULAM","dept_code":"","status":true}},
{"type":"Feature","geometry":{"type":"Point","coordinates":[79.54853120000007,10.541525800000045]},"properties":{"ps_code":"P5","ps_name":"KALAPPAL","name":"P5 KALAPPAL","dept_code":"","status":true}},
{"type":"Feature","geometry":{"type":"Point","coordinates":[79.51723427000007,10.716174367000065]},"properties":{"ps_code":"P7","ps_name":"KOOTHANALLUR","name":"P7 KOOTHANALLUR","dept_code":"","status":true}},
{"type":"Feature","geometry":{"type":"Point","coordinates":[79.56024212700004,10.613089521000063]},"properties":{"ps_code":"P9","ps_name":"KOTTUR","name":"P9 KOTTUR","dept_code":"","status":true}},
{"type":"Feature","geometry":{"type":"Point","coordinates":[79.65977363000007,10.962917238000045]},"properties":{"ps_code":"P16","ps_name":"PERALAM","name":"P16 PERALAM","dept_code":"","status":true}},
{"type":"Feature","geometry":{"type":"Point","coordinates":[79.58549499500003,10.470785141000022]},"properties":{"ps_code":"P3","ps_name":"EDAIYUR","name":"P3 EDAIYUR","dept_code":"","status":true}},
{"type":"Feature","geometry":{"type":"Point","coordinates":[79.55976867700008,10.934789658000057]},"properties":{"ps_code":"P4","ps_name":"ERAVANCHERY","name":"P4 ERAVANCHERY","dept_code":"","status":true}},
{"type":"Feature","geometry":{"type":"Point","coordinates":[79.48309793800007,10.857084345000032]},"properties":{"ps_code":"P6","ps_name":"KODAVASAL","name":"P6 KODAVASAL","dept_code":"","status":true}},
{"type":"Feature","geometry":{"type":"Point","coordinates":[79.44590759300007,10.66905403100003]},"properties":{"ps_code":"P11","ps_name":"MANNARGUDI TOWN","name":"P11 MANNARGUDI TOWN","dept_code":"","status":true}},
{"type":"Feature","geometry":{"type":"Point","coordinates":[79.49705043800003,10.399477722000029]},"properties":{"ps_code":"P12","ps_name":"MUTHUPETTAI","name":"P12 MUTHUPETTAI","dept_code":"","status":true}},
{"type":"Feature","geometry":{"type":"Point","coordinates":[79.42677546300007,10.572895569000025]},"properties":{"ps_code":"P15","ps_name":"PARAVAKOTTAI","name":"P15 PARAVAKOTTAI","dept_code":"","status":true}},
{"type":"Feature","geometry":{"type":"Point","coordinates":[79.63246917700008,10.537599564000061]},"properties":{"ps_code":"P21","ps_name":"THIRUTHURAIPOONDI","name":"P21 THIRUTHURAIPOONDI","dept_code":"","status":true}},
{"type":"Feature","geometry":{"type":"Point","coordinates":[79.57117871800006,10.699429505000069]},"properties":{"ps_code":"P24","ps_name":"VADAPATHIMANGALAM","name":"P24 VADAPATHIMANGALAM","dept_code":"","status":true}},
{"type":"Feature","geometry":{"type":"Point","coordinates":[79.32754355200007,10.696110107000038]},"properties":{"ps_code":"P25","ps_name":"VADUVOOR","name":"P25 VADUVOOR","dept_code":"","status":true}},
{"type":"Feature","geometry":{"type":"Point","coordinates":[79.66007232700008,10.606318474000034]},"properties":{"ps_code":"P1","ps_name":"ALIVALAM","name":"P1 ALIVALAM","dept_code":"","status":true}},
{"type":"Feature","geometry":{"type":"Point","coordinates":[79.46671295200008,10.723928452000052]},"properties":{"ps_code":"P2","ps_name":"DEVANGUDI","name":"P2 DEVANGUDI","dept_code":"","status":true}},
{"type":"Feature","geometry":{"type":"Point","coordinates":[79.49275970500008,10.771599770000023]},"properties":{"ps_code":"P8","ps_name":"KORADACHERY","name":"P8 KORADACHERY","dept_code":"","status":true}},
{"type":"Feature","geometry":{"type":"Point","coordinates":[79.44694519000006,10.669124603000057]},"properties":{"ps_code":"P10","ps_name":"MANNARGUDI TALUK/ PAMINI","name":"P10 MANNARGUDI TALUK/ PAMINI","dept_code":"","status":true}},
{"type":"Feature","geometry":{"type":"Point","coordinates":[79.60906679500005,10.881768935000025]},"properties":{"ps_code":"P13","ps_name":"NANNILAM","name":"P13 NANNILAM","dept_code":"","status":true}},
{"type":"Feature","geometry":{"type":"Point","coordinates":[79.41516876200006,10.769755363000058]},"properties":{"ps_code":"P14","ps_name":"NEEDAMANGALAM","name":"P14 NEEDAMANGALAM","dept_code":"","status":true}},
{"type":"Feature","geometry":{"type":"Point","coordinates":[79.49707794200003,10.480150223000066]},"properties":{"ps_code":"P17","ps_name":"PERUGAVALNTHAN","name":"P17 PERUGAVALNTHAN","dept_code":"","status":true}},
{"type":"Feature","geometry":{"type":"Point","coordinates":[79.47631835900006,10.594824791000065]},"properties":{"ps_code":"P18","ps_name":"THALAYAMANGALAM","name":"P18 THALAYAMANGALAM","dept_code":"","status":true}},
{"type":"Feature","geometry":{"type":"Point","coordinates":[79.57039529500008,10.561132815000065]},"properties":{"ps_code":"P19","ps_name":"THIRUKKALAR","name":"P19 THIRUKKALAR","dept_code":"","status":true}},
{"type":"Feature","geometry":{"type":"Point","coordinates":[79.62060411800007,10.776929866000046]},"properties":{"ps_code":"P22","ps_name":"THIRUVARUR TALUK","name":"P22 THIRUVARUR TALUK","dept_code":"","status":true}},
{"type":"Feature","geometry":{"type":"Point","coordinates":[79.69821929900007,10.81870460500005]},"properties":{"ps_code":"P26","ps_name":"VAIPPUR","name":"P26 VAIPPUR","dept_code":"","status":true}},
{"type":"Feature","geometry":{"type":"Point","coordinates":[79.46405139400008,10.582563449000077]},"properties":{"ps_code":"P20","ps_name":"THIRUMAKOTTAI","name":"P20 THIRUMAKOTTAI","dept_code":"","status":true}},
{"type":"Feature","geometry":{"type":"Point","coordinates":[79.63222503700007,10.774613380000062]},"properties":{"ps_code":"P23","ps_name":"THIRUVARUR TOWN","name":"P23 THIRUVARUR TOWN","dept_code":"","status":true}},
{"type":"Feature","geometry":{"type":"Point","coordinates":[79.58781433100006,10.643518448000066]},"properties":{"ps_code":"P27","ps_name":"VIKRAPANDIYAM","name":"P27 VIKRAPANDIYAM","dept_code":"","status":true}},
{"type":"Feature","geometry":{"type":"Point","coordinates":[79.34947967500005,10.831192017000035]},"properties":{"ps_code":"P28","ps_name":"HARIDWARA MANGALAM","name":"P28 HARIDWARA MANGALAM","dept_code":"","status":true}},
{"type":"Feature","geometry":{"type":"Point","coordinates":[79.39279174800004,10.889058113000033]},"properties":{"ps_code":"P29","ps_name":"VALANGAIMAN PS","name":"P29 VALANGAIMAN PS","dept_code":"","status":true}},
{"type":"Feature","geometry":{"type":"Point","coordinates":[80.06980000000004,13.541333000000066]},"properties":{"ps_code":"P1","ps_name":"ARAMBAKKAM","name":"P1 ARAMBAKKAM","dept_code":"","status":true}},
{"type":"Feature","geometry":{"type":"Point","coordinates":[80.08518981900005,13.330680847000053]},"properties":{"ps_code":"P2","ps_name":"ARANI","name":"P2 ARANI","dept_code":"","status":true}},
{"type":"Feature","geometry":{"type":"Point","coordinates":[80.13423919700006,13.415862083000036]},"properties":{"ps_code":"P3","ps_name":"GUMMUDIPOONDI","name":"P3 GUMMUDIPOONDI","dept_code":"","status":true}},
{"type":"Feature","geometry":{"type":"Point","coordinates":[79.75609905800007,13.205758443000036]},"properties":{"ps_code":"P4","ps_name":"K.K.CHATRAM","name":"P4 K.K.CHATRAM","dept_code":"","status":true}},
{"type":"Feature","geometry":{"type":"Point","coordinates":[79.86720500000007,13.110487000000035]},"properties":{"ps_code":"P5","ps_name":"KADAMBATHUR","name":"P5 KADAMBATHUR","dept_code":"","status":true}},
{"type":"Feature","geometry":{"type":"Point","coordinates":[80.28288269000006,13.358645439000043]},"properties":{"ps_code":"P6","ps_name":"KATTUR","name":"P6 KATTUR","dept_code":"","status":true}},
{"type":"Feature","geometry":{"type":"Point","coordinates":[80.13925244800004,13.367179110000052]},"properties":{"ps_code":"P7","ps_name":"KAVARAPETTAI","name":"P7 KAVARAPETTAI","dept_code":"","status":true}},
{"type":"Feature","geometry":{"type":"Point","coordinates":[79.90270233200005,13.084442139000032]},"properties":{"ps_code":"P8","ps_name":"MANAVALANAGAR","name":"P8 MANAVALANAGAR","dept_code":"","status":true}},
{"type":"Feature","geometry":{"type":"Point","coordinates":[79.85355885400008,13.03346220700007]},"properties":{"ps_code":"P9","ps_name":"MAPPEDU","name":"P9 MAPPEDU","dept_code":"","status":true}},
{"type":"Feature","geometry":{"type":"Point","coordinates":[80.26250999600006,13.271827673000075]},"properties":{"ps_code":"P10","ps_name":"MINJUR","name":"P10 MINJUR","dept_code":"","status":true}},
{"type":"Feature","geometry":{"type":"Point","coordinates":[80.00176653600005,13.443208198000036]},"properties":{"ps_code":"P11","ps_name":"PADHIRIVEDU","name":"P11 PADHIRIVEDU","dept_code":"","status":true}},
{"type":"Feature","geometry":{"type":"Point","coordinates":[79.44027304600007,13.33712725600003]},"properties":{"ps_code":"P12","ps_name":"PALLIPET","name":"P12 PALLIPET","dept_code":"","status":true}},
{"type":"Feature","geometry":{"type":"Point","coordinates":[79.85407356900004,13.306438477000029]},"properties":{"ps_code":"P13","ps_name":"PENNALURPET","name":"P13 PENNALURPET","dept_code":"","status":true}},
{"type":"Feature","geometry":{"type":"Point","coordinates":[80.04741544000007,13.312729816000058]},"properties":{"ps_code":"P14","ps_name":"PERIYAPALAYAM","name":"P14 PERIYAPALAYAM","dept_code":"","status":true}},
{"type":"Feature","geometry":{"type":"Point","coordinates":[80.19534292100008,13.33237473500003]},"properties":{"ps_code":"P15","ps_name":"PONNERI","name":"P15 PONNERI","dept_code":"","status":true}},
{"type":"Feature","geometry":{"type":"Point","coordinates":[79.47976728900005,13.287303980000047]},"properties":{"ps_code":"P16","ps_name":"POTADURPETTAI","name":"P16 POTADURPETTAI","dept_code":"","status":true}},
{"type":"Feature","geometry":{"type":"Point","coordinates":[79.89102194600008,13.172869009000067]},"properties":{"ps_code":"P17","ps_name":"PULLARAMPAKKAM","name":"P17 PULLARAMPAKKAM","dept_code":"","status":true}},
{"type":"Feature","geometry":{"type":"Point","coordinates":[79.43163189400008,13.150719667000033]},"properties":{"ps_code":"P18","ps_name":"R.K.PET","name":"P18 R.K.PET","dept_code":"","status":true}},
{"type":"Feature","geometry":{"type":"Point","coordinates":[79.96549867200008,13.121744824000075]},"properties":{"ps_code":"P19","ps_name":"SEVVAPET","name":"P19 SEVVAPET","dept_code":"","status":true}},
{"type":"Feature","geometry":{"type":"Point","coordinates":[80.16212595000007,13.243003681000062]},"properties":{"ps_code":"P21","ps_name":"SOLAVARAM","name":"P21 SOLAVARAM","dept_code":"","status":true}},
{"type":"Feature","geometry":{"type":"Point","coordinates":[80.11199188200004,13.411573410000074]},"properties":{"ps_code":"P20","ps_name":"SIPCOT","name":"P20 SIPCOT","dept_code":"","status":true}},
{"type":"Feature","geometry":{"type":"Point","coordinates":[80.24694164400006,13.400874544000033]},"properties":{"ps_code":"P22","ps_name":"THIRUPALAIVANAM","name":"P22 THIRUPALAIVANAM","dept_code":"","status":true}},
{"type":"Feature","geometry":{"type":"Point","coordinates":[79.77930818900006,13.130599158000052]},"properties":{"ps_code":"P24","ps_name":"THIRUVALANGADU","name":"P24 THIRUVALANGADU","dept_code":"","status":true}},
{"type":"Feature","geometry":{"type":"Point","coordinates":[79.89650806300006,13.144354982000038]},"properties":{"ps_code":"P25","ps_name":"THIRUVALLUR TALUK","name":"P25 THIRUVALLUR TALUK","dept_code":"","status":true}},
{"type":"Feature","geometry":{"type":"Point","coordinates":[79.90556533400007,13.144674661000067]},"properties":{"ps_code":"P26","ps_name":"THIRUVALLUR TOWN","name":"P26 THIRUVALLUR TOWN","dept_code":"","status":true}},
{"type":"Feature","geometry":{"type":"Point","coordinates":[79.61001586900005,13.167669296000042]},"properties":{"ps_code":"P23","ps_name":"THIRUTHANI","name":"P23 THIRUTHANI","dept_code":"","status":true}},
{"type":"Feature","geometry":{"type":"Point","coordinates":[79.89579981900005,13.335103331000028]},"properties":{"ps_code":"P27","ps_name":"UTHUKOTTAI","name":"P27 UTHUKOTTAI","dept_code":"","status":true}},
{"type":"Feature","geometry":{"type":"Point","coordinates":[80.03651272800005,13.068027478000033]},"properties":{"ps_code":"P28","ps_name":"VELLAVEDU","name":"P28 VELLAVEDU","dept_code":"","status":true}},
{"type":"Feature","geometry":{"type":"Point","coordinates":[80.01432523100004,13.251564446000032]},"properties":{"ps_code":"P29","ps_name":"VENGAL","name":"P29 VENGAL","dept_code":"","status":true}},
{"type":"Feature","geometry":{"type":"Point","coordinates":[77.49925362500005,10.046229484000037]},"properties":{"ps_code":"P1","ps_name":"ALLINAGARAM","name":"P1 ALLINAGARAM","dept_code":"","status":true}},
{"type":"Feature","geometry":{"type":"Point","coordinates":[77.62293100000005,9.99927800000006]},"properties":{"ps_code":"P2","ps_name":"ANDIPATTI","name":"P2 ANDIPATTI","dept_code":"","status":true}},
{"type":"Feature","geometry":{"type":"Point","coordinates":[77.66867899400006,10.03623936400004]},"properties":{"ps_code":"P3","ps_name":"ANDIPATTY ETHAKOIL OPP","name":"P3 ANDIPATTY ETHAKOIL OPP","dept_code":"","status":true}},
{"type":"Feature","geometry":{"type":"Point","coordinates":[77.35124819200007,10.02261216900007]},"properties":{"ps_code":"P4","ps_name":"BODI TALUK","name":"P4 BODI TALUK","dept_code":"","status":true}},
{"type":"Feature","geometry":{"type":"Point","coordinates":[77.35111400000005,10.010729000000026]},"properties":{"ps_code":"P5","ps_name":"BODI TOWN","name":"P5 BODI TOWN","dept_code":"","status":true}},
{"type":"Feature","geometry":{"type":"Point","coordinates":[77.38045400000004,9.84272500000003]},"properties":{"ps_code":"P6","ps_name":"CHINNAMANUR","name":"P6 CHINNAMANUR","dept_code":"","status":true}},
{"type":"Feature","geometry":{"type":"Point","coordinates":[77.28632800000008,9.741412000000025]},"properties":{"ps_code":"P7","ps_name":"CUMBUM NORTH","name":"P7 CUMBUM NORTH","dept_code":"","status":true}},
{"type":"Feature","geometry":{"type":"Point","coordinates":[77.28203900000005,9.731341000000043]},"properties":{"ps_code":"P8","ps_name":"CUMBUM SOUTH","name":"P8 CUMBUM SOUTH","dept_code":"","status":true}},
{"type":"Feature","geometry":{"type":"Point","coordinates":[77.64228105200004,10.14616602500007]},"properties":{"ps_code":"P9","ps_name":"DEVATHANAPATTY","name":"P9 DEVATHANAPATTY","dept_code":"","status":true}},
{"type":"Feature","geometry":{"type":"Point","coordinates":[77.51680407400005,9.921496502000025]},"properties":{"ps_code":"P10","ps_name":"GANDAMANUR VILLAKKU","name":"P10 GANDAMANUR VILLAKKU","dept_code":"","status":true}},
{"type":"Feature","geometry":{"type":"Point","coordinates":[77.24901321400006,9.68619190000004]},"properties":{"ps_code":"P11","ps_name":"GUDALUR NORTH","name":"P11 GUDALUR NORTH","dept_code":"","status":true}},
{"type":"Feature","geometry":{"type":"Point","coordinates":[77.24864246200008,9.678431044000035]},"properties":{"ps_code":"P12","ps_name":"GUDALUR SOUTH","name":"P12 GUDALUR SOUTH","dept_code":"","status":true}},
{"type":"Feature","geometry":{"type":"Point","coordinates":[77.35673732300006,9.644194438000056]},"properties":{"ps_code":"P13","ps_name":"HIGHWAYS","name":"P13 HIGHWAYS","dept_code":"","status":true}},
{"type":"Feature","geometry":{"type":"Point","coordinates":[77.59533568800003,10.099716864000072]},"properties":{"ps_code":"P14","ps_name":"JEYAMANGALAM","name":"P14 JEYAMANGALAM","dept_code":"","status":true}},
{"type":"Feature","geometry":{"type":"Point","coordinates":[77.50189723500006,9.80796422800006]},"properties":{"ps_code":"P15","ps_name":"KADAMALIKUNDU","name":"P15 KADAMALIKUNDU","dept_code":"","status":true}},
{"type":"Feature","geometry":{"type":"Point","coordinates":[77.52087772700008,9.922825686000067]},"properties":{"ps_code":"P16","ps_name":"GANDAMANUR","name":"P16 GANDAMANUR","dept_code":"","status":true}},
{"type":"Feature","geometry":{"type":"Point","coordinates":[77.59917411500004,9.966728358000069]},"properties":{"ps_code":"P17","ps_name":"KANNIAPPAPILLAIPATTY O.P.","name":"P17 KANNIAPPAPILLAIPATTY O.P.","dept_code":"","status":true}},
{"type":"Feature","geometry":{"type":"Point","coordinates":[77.30145757000008,9.842404047000059]},"properties":{"ps_code":"P18","ps_name":"KOMBAI","name":"P18 KOMBAI","dept_code":"","status":true}},
{"type":"Feature","geometry":{"type":"Point","coordinates":[77.17035500000003,9.60943700000007]},"properties":{"ps_code":"P19","ps_name":"KUMULI PS","name":"P19 KUMULI PS","dept_code":"","status":true}},
{"type":"Feature","geometry":{"type":"Point","coordinates":[77.24863617800008,10.084104689000071]},"properties":{"ps_code":"P20","ps_name":"KURANGANI","name":"P20 KURANGANI","dept_code":"","status":true}},
{"type":"Feature","geometry":{"type":"Point","coordinates":[77.51832767300004,9.787220742000045]},"properties":{"ps_code":"P21","ps_name":"MYLADUMPARAI","name":"P21 MYLADUMPARAI","dept_code":"","status":true}},
{"type":"Feature","geometry":{"type":"Point","coordinates":[77.43902985200003,9.83501308800004]},"properties":{"ps_code":"P22","ps_name":"ODAIPATTY","name":"P22 ODAIPATTY","dept_code":"","status":true}},
{"type":"Feature","geometry":{"type":"Point","coordinates":[77.46652679300007,9.99729282800007]},"properties":{"ps_code":"P23","ps_name":"PALANICHETTIPATTY","name":"P23 PALANICHETTIPATTY","dept_code":"","status":true}},
{"type":"Feature","geometry":{"type":"Point","coordinates":[77.54697034200007,10.123225522000041]},"properties":{"ps_code":"P24","ps_name":"PERIYAKULAM","name":"P24 PERIYAKULAM","dept_code":"","status":true}},
{"type":"Feature","geometry":{"type":"Point","coordinates":[77.59240400000004,9.929761000000042]},"properties":{"ps_code":"P25","ps_name":"RAJATHANI","name":"P25 RAJATHANI","dept_code":"","status":true}},
{"type":"Feature","geometry":{"type":"Point","coordinates":[77.33621600000004,9.772597000000076]},"properties":{"ps_code":"P26","ps_name":"RAYAPPANPATTY","name":"P26 RAYAPPANPATTY","dept_code":"","status":true}},
{"type":"Feature","geometry":{"type":"Point","coordinates":[77.47714730000007,10.015875000000051]},"properties":{"ps_code":"P27","ps_name":"THENI","name":"P27 THENI","dept_code":"","status":true}},
{"type":"Feature","geometry":{"type":"Point","coordinates":[77.53370682200006,10.125339199000052]},"properties":{"ps_code":"P28","ps_name":"THENKARAI","name":"P28 THENKARAI","dept_code":"","status":true}},
{"type":"Feature","geometry":{"type":"Point","coordinates":[77.28354100000007,9.896619000000044]},"properties":{"ps_code":"P29","ps_name":"THEVARAM","name":"P29 THEVARAM","dept_code":"","status":true}},
{"type":"Feature","geometry":{"type":"Point","coordinates":[77.32805904900005,9.804009516000065]},"properties":{"ps_code":"P30","ps_name":"UTHAMAPALAYAM","name":"P30 UTHAMAPALAYAM","dept_code":"","status":true}},
{"type":"Feature","geometry":{"type":"Point","coordinates":[77.59443059800003,10.05101611300006]},"properties":{"ps_code":"P31","ps_name":"VAIGAI DAM","name":"P31 VAIGAI DAM","dept_code":"","status":true}},
{"type":"Feature","geometry":{"type":"Point","coordinates":[77.51350876700008,9.721207710000044]},"properties":{"ps_code":"P32","ps_name":"VARUSANADU","name":"P32 VARUSANADU","dept_code":"","status":true}},
{"type":"Feature","geometry":{"type":"Point","coordinates":[77.43526368100004,9.965598268000065]},"properties":{"ps_code":"P33","ps_name":"VEERAPANDI","name":"P33 VEERAPANDI","dept_code":"","status":true}},
{"type":"Feature","geometry":{"type":"Point","coordinates":[79.38553504900005,10.340407697000046]},"properties":{"ps_code":"P1","ps_name":"ADIRAMPATTINAM","name":"P1 ADIRAMPATTINAM","dept_code":"","status":true}},
{"type":"Feature","geometry":{"type":"Point","coordinates":[79.31806855400004,10.784321954000063]},"properties":{"ps_code":"P2","ps_name":"AMMAPETTAI","name":"P2 AMMAPETTAI","dept_code":"","status":true}},
{"type":"Feature","geometry":{"type":"Point","coordinates":[79.32099914600008,10.791655540000022]},"properties":{"ps_code":"P5","ps_name":"HT MANGALAM","name":"P5 HT MANGALAM","dept_code":"","status":true}},
{"type":"Feature","geometry":{"type":"Point","coordinates":[79.18819534800008,10.885711507000053]},"properties":{"ps_code":"P3","ps_name":"AYYAMPETTAI","name":"P3 AYYAMPETTAI","dept_code":"","status":true}},
{"type":"Feature","geometry":{"type":"Point","coordinates":[78.97713882500005,10.793567351000036]},"properties":{"ps_code":"P4","ps_name":"BUDALUR","name":"P4 BUDALUR","dept_code":"","status":true}},
{"type":"Feature","geometry":{"type":"Point","coordinates":[79.26570892300003,10.946139336000044]},"properties":{"ps_code":"P6","ps_name":"KABISTHALAM","name":"P6 KABISTHALAM","dept_code":"","status":true}},
{"type":"Feature","geometry":{"type":"Point","coordinates":[79.03679657000004,10.811783791000039]},"properties":{"ps_code":"P7","ps_name":"KALLAPERAMBUR","name":"P7 KALLAPERAMBUR","dept_code":"","status":true}},
{"type":"Feature","geometry":{"type":"Point","coordinates":[79.39348602300004,10.966038704000027]},"properties":{"ps_code":"P8","ps_name":"KUMBAKONAM EAST","name":"P8 KUMBAKONAM EAST","dept_code":"","status":true}},
{"type":"Feature","geometry":{"type":"Point","coordinates":[79.36552429200003,10.955349922000039]},"properties":{"ps_code":"P9","ps_name":"KUMBAKONAM TALUK","name":"P9 KUMBAKONAM TALUK","dept_code":"","status":true}},
{"type":"Feature","geometry":{"type":"Point","coordinates":[79.39318353200008,10.480224755000052]},"properties":{"ps_code":"P11","ps_name":"MADUKKUR","name":"P11 MADUKKUR","dept_code":"","status":true}},
{"type":"Feature","geometry":{"type":"Point","coordinates":[79.04154205300006,10.87840557100003]},"properties":{"ps_code":"P12","ps_name":"MARUVUR","name":"P12 MARUVUR","dept_code":"","status":true}},
{"type":"Feature","geometry":{"type":"Point","coordinates":[79.23860931400003,10.856666565000069]},"properties":{"ps_code":"P13","ps_name":"MELATTUR","name":"P13 MELATTUR","dept_code":"","status":true}},
{"type":"Feature","geometry":{"type":"Point","coordinates":[79.04305267300003,10.858888626000066]},"properties":{"ps_code":"P14","ps_name":"NADUCAUVERY","name":"P14 NADUCAUVERY","dept_code":"","status":true}},
{"type":"Feature","geometry":{"type":"Point","coordinates":[79.44514465300006,10.914933205000068]},"properties":{"ps_code":"P15","ps_name":"NATCHIYAR KOIL","name":"P15 NATCHIYAR KOIL","dept_code":"","status":true}},
{"type":"Feature","geometry":{"type":"Point","coordinates":[79.25396051400008,10.621358317000045]},"properties":{"ps_code":"P16","ps_name":"ORATHANADU","name":"P16 ORATHANADU","dept_code":"","status":true}},
{"type":"Feature","geometry":{"type":"Point","coordinates":[79.51103210400004,11.131472588000065]},"properties":{"ps_code":"P17","ps_name":"PANDANALLUR","name":"P17 PANDANALLUR","dept_code":"","status":true}},
{"type":"Feature","geometry":{"type":"Point","coordinates":[79.26963806200007,10.92436409000004]},"properties":{"ps_code":"P18","ps_name":"PAPANASAM","name":"P18 PAPANASAM","dept_code":"","status":true}},
{"type":"Feature","geometry":{"type":"Point","coordinates":[79.28233444100005,10.537979839000059]},"properties":{"ps_code":"P19","ps_name":"PAPPANADU","name":"P19 PAPPANADU","dept_code":"","status":true}},
{"type":"Feature","geometry":{"type":"Point","coordinates":[79.34724100500006,10.926278424000031]},"properties":{"ps_code":"P20","ps_name":"PATTEESWARAM","name":"P20 PATTEESWARAM","dept_code":"","status":true}},
{"type":"Feature","geometry":{"type":"Point","coordinates":[79.31683860000004,10.417259700000045]},"properties":{"ps_code":"P21","ps_name":"PATTUKOTTAI TALUK","name":"P21 PATTUKOTTAI TALUK","dept_code":"","status":true}},
{"type":"Feature","geometry":{"type":"Point","coordinates":[79.32023620600006,10.42669963800006]},"properties":{"ps_code":"P22","ps_name":"PATTUKOTTAI TOWN","name":"P22 PATTUKOTTAI TOWN","dept_code":"","status":true}},
{"type":"Feature","geometry":{"type":"Point","coordinates":[79.19023588900006,10.280621970000027]},"properties":{"ps_code":"P23","ps_name":"PERAVURANI","name":"P23 PERAVURANI","dept_code":"","status":true}},
{"type":"Feature","geometry":{"type":"Point","coordinates":[79.28206634500003,10.25270557400006]},"properties":{"ps_code":"P24","ps_name":"SB CHATRAM","name":"P24 SB CHATRAM","dept_code":"","status":true}},
{"type":"Feature","geometry":{"type":"Point","coordinates":[78.95780181900005,10.709628105000036]},"properties":{"ps_code":"P25","ps_name":"SENGIPATTI","name":"P25 SENGIPATTI","dept_code":"","status":true}},
{"type":"Feature","geometry":{"type":"Point","coordinates":[79.33568283800008,10.959958409000023]},"properties":{"ps_code":"P26","ps_name":"SWAMIMALAI","name":"P26 SWAMIMALAI","dept_code":"","status":true}},
{"type":"Feature","geometry":{"type":"Point","coordinates":[79.09826019400003,10.733595738000076]},"properties":{"ps_code":"P27","ps_name":"TAMIL UNIVERSITY","name":"P27 TAMIL UNIVERSITY","dept_code":"","status":true}},
{"type":"Feature","geometry":{"type":"Point","coordinates":[79.14062175600003,10.795405047000031]},"properties":{"ps_code":"P28","ps_name":"TAN EAST","name":"P28 TAN EAST","dept_code":"","status":true}},
{"type":"Feature","geometry":{"type":"Point","coordinates":[79.12937164300007,10.768428802000074]},"properties":{"ps_code":"P29","ps_name":"TAN SOUTH","name":"P29 TAN SOUTH","dept_code":"","status":true}},
{"type":"Feature","geometry":{"type":"Point","coordinates":[79.14105224600007,10.78817176800004]},"properties":{"ps_code":"P31","ps_name":"TAN TALUK","name":"P31 TAN TALUK","dept_code":"","status":true}},
{"type":"Feature","geometry":{"type":"Point","coordinates":[79.19863128700007,10.366961479000054]},"properties":{"ps_code":"P32","ps_name":"THIRUCHITRAMBALAM","name":"P32 THIRUCHITRAMBALAM","dept_code":"","status":true}},
{"type":"Feature","geometry":{"type":"Point","coordinates":[78.95482397000006,10.849157603000037]},"properties":{"ps_code":"P33","ps_name":"THIRUKATTUPALLI","name":"P33 THIRUKATTUPALLI","dept_code":"","status":true}},
{"type":"Feature","geometry":{"type":"Point","coordinates":[79.48664093000008,10.985025406000034]},"properties":{"ps_code":"P34","ps_name":"THIRUNEELAKUDI","name":"P34 THIRUNEELAKUDI","dept_code":"","status":true}},
{"type":"Feature","geometry":{"type":"Point","coordinates":[79.45290163700008,11.091357881000022]},"properties":{"ps_code":"P35","ps_name":"THIRUPPANANTHAL","name":"P35 THIRUPPANANTHAL","dept_code":"","status":true}},
{"type":"Feature","geometry":{"type":"Point","coordinates":[79.09883880600006,10.878100395000047]},"properties":{"ps_code":"P36","ps_name":"THIRUVAIYAR W","name":"P36 THIRUVAIYAR W","dept_code":"","status":true}},
{"type":"Feature","geometry":{"type":"Point","coordinates":[79.45492975200006,10.998356262000073]},"properties":{"ps_code":"P37","ps_name":"THIRUVIDAIMARUTHUR","name":"P37 THIRUVIDAIMARUTHUR","dept_code":"","status":true}},
{"type":"Feature","geometry":{"type":"Point","coordinates":[79.16197967500005,10.505022049000047]},"properties":{"ps_code":"P38","ps_name":"THIRUVONAM","name":"P38 THIRUVONAM","dept_code":"","status":true}},
{"type":"Feature","geometry":{"type":"Point","coordinates":[78.82418823200004,10.832602501000054]},"properties":{"ps_code":"P39","ps_name":"THOGUR","name":"P39 THOGUR","dept_code":"","status":true}},
{"type":"Feature","geometry":{"type":"Point","coordinates":[79.10435485800008,10.75866699200003]},"properties":{"ps_code":"P40","ps_name":"TMCH","name":"P40 TMCH","dept_code":"","status":true}},
{"type":"Feature","geometry":{"type":"Point","coordinates":[79.06230926500007,10.716670036000039]},"properties":{"ps_code":"P42","ps_name":"VALLAM","name":"P42 VALLAM","dept_code":"","status":true}},
{"type":"Feature","geometry":{"type":"Point","coordinates":[79.18844604500003,10.390619278000031]},"properties":{"ps_code":"P43","ps_name":"VATTATHIKOTTAI","name":"P43 VATTATHIKOTTAI","dept_code":"","status":true}},
{"type":"Feature","geometry":{"type":"Point","coordinates":[79.37463886800003,10.958571931000051]},"properties":{"ps_code":"P10","ps_name":"KUMBAKONAM WEST","name":"P10 KUMBAKONAM WEST","dept_code":"","status":true}},
{"type":"Feature","geometry":{"type":"Point","coordinates":[79.13285064700005,10.77435588800006]},"properties":{"ps_code":"P30","ps_name":"TAN WEST","name":"P30 TAN WEST","dept_code":"","status":true}},
{"type":"Feature","geometry":{"type":"Point","coordinates":[78.14497300000005,11.641737000000035]},"properties":{"ps_code":"P2","ps_name":"ANNATHANAPATTI","name":"P2 ANNATHANAPATTI","dept_code":"","status":true}},
{"type":"Feature","geometry":{"type":"Point","coordinates":[78.05079184000004,11.531396139000037]},"properties":{"ps_code":"P3","ps_name":"ATTAYAMPATTI","name":"P3 ATTAYAMPATTI","dept_code":"","status":true}},
{"type":"Feature","geometry":{"type":"Point","coordinates":[78.58864071300007,11.601407165000069]},"properties":{"ps_code":"P4","ps_name":"ATTUR1","name":"P4 ATTUR1","dept_code":"","status":true}},
{"type":"Feature","geometry":{"type":"Point","coordinates":[78.06923660000007,11.854049000000032]},"properties":{"ps_code":"P5","ps_name":"DEEVATTIPATTI","name":"P5 DEEVATTIPATTI","dept_code":"","status":true}},
{"type":"Feature","geometry":{"type":"Point","coordinates":[77.83509714600007,11.585547746000032]},"properties":{"ps_code":"P6","ps_name":"EDAPADI1","name":"P6 EDAPADI1","dept_code":"","status":true}},
{"type":"Feature","geometry":{"type":"Point","coordinates":[78.14235400000007,11.677218903000039]},"properties":{"ps_code":"P7","ps_name":"FAIRLANDS","name":"P7 FAIRLANDS","dept_code":"","status":true}},
{"type":"Feature","geometry":{"type":"Point","coordinates":[78.64383697500006,11.500840187000051]},"properties":{"ps_code":"P8","ps_name":"GANGAVALLI","name":"P8 GANGAVALLI","dept_code":"","status":true}},
{"type":"Feature","geometry":{"type":"Point","coordinates":[78.15295906000006,11.653970903000072]},"properties":{"ps_code":"P9","ps_name":"GH_CAMPUS","name":"P9 GH_CAMPUS","dept_code":"","status":true}},
{"type":"Feature","geometry":{"type":"Point","coordinates":[78.16445974500004,11.677878389000057]},"properties":{"ps_code":"P10","ps_name":"HASTHAMPATTI","name":"P10 HASTHAMPATTI","dept_code":"","status":true}},
{"type":"Feature","geometry":{"type":"Point","coordinates":[77.88269300000007,11.698596146000057]},"properties":{"ps_code":"P11","ps_name":"JALAKANDAPURAM","name":"P11 JALAKANDAPURAM","dept_code":"","status":true}},
{"type":"Feature","geometry":{"type":"Point","coordinates":[78.17690425000006,11.696762938000063]},"properties":{"ps_code":"P12","ps_name":"KANNANKURICHI","name":"P12 KANNANKURICHI","dept_code":"","status":true}},
{"type":"Feature","geometry":{"type":"Point","coordinates":[78.28510332800005,11.664967326000067]},"properties":{"ps_code":"P13","ps_name":"KARIPATTI","name":"P13 KARIPATTI","dept_code":"","status":true}},
{"type":"Feature","geometry":{"type":"Point","coordinates":[78.60003662100007,11.754429817000073]},"properties":{"ps_code":"P14","ps_name":"KARIYAKOIL","name":"P14 KARIYAKOIL","dept_code":"","status":true}},
{"type":"Feature","geometry":{"type":"Point","coordinates":[77.83094500000004,11.80767000000003]},"properties":{"ps_code":"P15","ps_name":"KARUMALAIKOODAL","name":"P15 KARUMALAIKOODAL","dept_code":"","status":true}},
{"type":"Feature","geometry":{"type":"Point","coordinates":[78.62729783200007,11.824187299000073]},"properties":{"ps_code":"P16","ps_name":"KARUMANDURAI","name":"P16 KARUMANDURAI","dept_code":"","status":true}},
{"type":"Feature","geometry":{"type":"Point","coordinates":[77.75149402500006,11.849313821000067]},"properties":{"ps_code":"P18","ps_name":"KOLATHUR","name":"P18 KOLATHUR","dept_code":"","status":true}},
{"type":"Feature","geometry":{"type":"Point","coordinates":[78.12294900000006,11.629156000000023]},"properties":{"ps_code":"P19","ps_name":"KONDALAMPATTI","name":"P19 KONDALAMPATTI","dept_code":"","status":true}},
{"type":"Feature","geometry":{"type":"Point","coordinates":[78.02221679700006,11.564019203000043]},"properties":{"ps_code":"P20","ps_name":"M_D_CHOULTRY","name":"P20 M_D_CHOULTRY","dept_code":"","status":true}},
{"type":"Feature","geometry":{"type":"Point","coordinates":[78.49805586900004,11.571748941000067]},"properties":{"ps_code":"P21","ps_name":"MALLIYAKARAI","name":"P21 MALLIYAKARAI","dept_code":"","status":true}},
{"type":"Feature","geometry":{"type":"Point","coordinates":[78.14286041300005,11.545999527000049]},"properties":{"ps_code":"P22","ps_name":"MALLUR","name":"P22 MALLUR","dept_code":"","status":true}},
{"type":"Feature","geometry":{"type":"Point","coordinates":[77.94534233500008,11.834225447000051]},"properties":{"ps_code":"P23","ps_name":"MECHERI","name":"P23 MECHERI","dept_code":"","status":true}},
{"type":"Feature","geometry":{"type":"Point","coordinates":[77.79958885000008,11.792846697000073]},"properties":{"ps_code":"P24","ps_name":"METTUR","name":"P24 METTUR","dept_code":"","status":true}},
{"type":"Feature","geometry":{"type":"Point","coordinates":[77.89509309100004,11.757462286000077]},"properties":{"ps_code":"P25","ps_name":"NANGAVALLI","name":"P25 NANGAVALLI","dept_code":"","status":true}},
{"type":"Feature","geometry":{"type":"Point","coordinates":[78.04359602600005,11.74183911800003]},"properties":{"ps_code":"P26","ps_name":"OMALUR","name":"P26 OMALUR","dept_code":"","status":true}},
{"type":"Feature","geometry":{"type":"Point","coordinates":[78.13937700000008,11.669954764000067]},"properties":{"ps_code":"P27","ps_name":"PALLAPATTI","name":"P27 PALLAPATTI","dept_code":"","status":true}},
{"type":"Feature","geometry":{"type":"Point","coordinates":[78.16441610100003,11.561337835000074]},"properties":{"ps_code":"P28","ps_name":"PANAMARATHUPATTI","name":"P28 PANAMARATHUPATTI","dept_code":"","status":true}},
{"type":"Feature","geometry":{"type":"Point","coordinates":[77.76409604100007,11.654895994000071]},"properties":{"ps_code":"P29","ps_name":"POOLAMPATTI","name":"P29 POOLAMPATTI","dept_code":"","status":true}},
{"type":"Feature","geometry":{"type":"Point","coordinates":[77.86724175000006,11.473445563000041]},"properties":{"ps_code":"P31","ps_name":"SANKARI","name":"P31 SANKARI","dept_code":"","status":true}},
{"type":"Feature","geometry":{"type":"Point","coordinates":[78.14813232400007,11.649973869000064]},"properties":{"ps_code":"P32","ps_name":"SEVAPET","name":"P32 SEVAPET","dept_code":"","status":true}},
{"type":"Feature","geometry":{"type":"Point","coordinates":[78.11685000000006,11.670949000000064]},"properties":{"ps_code":"P34","ps_name":"SOORAMANGALAM","name":"P34 SOORAMANGALAM","dept_code":"","status":true}},
{"type":"Feature","geometry":{"type":"Point","coordinates":[78.07470703100006,11.672815323000066]},"properties":{"ps_code":"P33","ps_name":"STEELPLANT","name":"P33 STEELPLANT","dept_code":"","status":true}},
{"type":"Feature","geometry":{"type":"Point","coordinates":[78.75366042900004,11.585826145000055]},"properties":{"ps_code":"P35","ps_name":"THALAIVASAL","name":"P35 THALAIVASAL","dept_code":"","status":true}},
{"type":"Feature","geometry":{"type":"Point","coordinates":[78.48610535000006,11.440615757000046]},"properties":{"ps_code":"P36","ps_name":"THAMMAMPATTI","name":"P36 THAMMAMPATTI","dept_code":"","status":true}},
{"type":"Feature","geometry":{"type":"Point","coordinates":[77.96997833300003,11.695739746000072]},"properties":{"ps_code":"P37","ps_name":"THARAMANGALAM","name":"P37 THARAMANGALAM","dept_code":"","status":true}},
{"type":"Feature","geometry":{"type":"Point","coordinates":[77.75322947300003,11.526431470000034]},"properties":{"ps_code":"P38","ps_name":"THEVUR","name":"P38 THEVUR","dept_code":"","status":true}},
{"type":"Feature","geometry":{"type":"Point","coordinates":[77.97954112200006,11.760268106000069]},"properties":{"ps_code":"P39","ps_name":"THOLASAMPATTI","name":"P39 THOLASAMPATTI","dept_code":"","status":true}},
{"type":"Feature","geometry":{"type":"Point","coordinates":[78.40188841600008,11.656305385000053]},"properties":{"ps_code":"P40","ps_name":"VALAPADI","name":"P40 VALAPADI","dept_code":"","status":true}},
{"type":"Feature","geometry":{"type":"Point","coordinates":[78.73777119100004,11.475798050000037]},"properties":{"ps_code":"P41","ps_name":"VEERAGANUR","name":"P41 VEERAGANUR","dept_code":"","status":true}},
{"type":"Feature","geometry":{"type":"Point","coordinates":[78.21455383300008,11.683553696000047]},"properties":{"ps_code":"P42","ps_name":"VEERANAM","name":"P42 VEERANAM","dept_code":"","status":true}},
{"type":"Feature","geometry":{"type":"Point","coordinates":[78.20726776100008,11.775731087000054]},"properties":{"ps_code":"P43","ps_name":"YERCAUD","name":"P43 YERCAUD","dept_code":"","status":true}},
{"type":"Feature","geometry":{"type":"Point","coordinates":[78.47861900000004,11.662333000000046]},"properties":{"ps_code":"P44","ps_name":"YETHAPUR","name":"P44 YETHAPUR","dept_code":"","status":true}},
{"type":"Feature","geometry":{"type":"Point","coordinates":[78.18168640100004,11.65904998800005]},"properties":{"ps_code":"P1","ps_name":"AMMAPET","name":"P1 AMMAPET","dept_code":"","status":true}},
{"type":"Feature","geometry":{"type":"Point","coordinates":[78.16379547100007,11.649704933000066]},"properties":{"ps_code":"P17","ps_name":"Kitchipalayam","name":"P17 Kitchipalayam","dept_code":"","status":true}},
{"type":"Feature","geometry":{"type":"Point","coordinates":[78.16034698500005,11.653519630000062]},"properties":{"ps_code":"P30","ps_name":"Salem_City","name":"P30 Salem_City","dept_code":"","status":true}},
{"type":"Feature","geometry":{"type":"Point","coordinates":[78.83437900000007,9.363958000000025]},"properties":{"ps_code":"P28","ps_name":"RAMANANTHAPURAM TOWN","name":"P28 RAMANANTHAPURAM TOWN","dept_code":"","status":true}},
{"type":"Feature","geometry":{"type":"Point","coordinates":[78.83212900000007,9.36738900000006]},"properties":{"ps_code":"P27","ps_name":"RAMANANTHAPURAM BAZAAR","name":"P27 RAMANANTHAPURAM BAZAAR","dept_code":"","status":true}},
{"type":"Feature","geometry":{"type":"Point","coordinates":[78.85889000000003,9.35877400000004]},"properties":{"ps_code":"P14","ps_name":"KENIKARAI","name":"P14 KENIKARAI","dept_code":"","status":true}},
{"type":"Feature","geometry":{"type":"Point","coordinates":[78.89811900000007,9.477093000000025]},"properties":{"ps_code":"P3","ps_name":"DEVIPATTINAM","name":"P3 DEVIPATTINAM","dept_code":"","status":true}},
{"type":"Feature","geometry":{"type":"Point","coordinates":[78.58731600000004,9.548290000000065]},"properties":{"ps_code":"P22","ps_name":"PARAMAKUDI TOWN","name":"P22 PARAMAKUDI TOWN","dept_code":"","status":true}},
{"type":"Feature","geometry":{"type":"Point","coordinates":[78.60351300000008,9.541953000000035]},"properties":{"ps_code":"P6","ps_name":"EMANESWARAM","name":"P6 EMANESWARAM","dept_code":"","status":true}},
{"type":"Feature","geometry":{"type":"Point","coordinates":[78.58717600000006,9.548576000000025]},"properties":{"ps_code":"P21","ps_name":"PARAMAKUDI TALUK","name":"P21 PARAMAKUDI TALUK","dept_code":"","status":true}},
{"type":"Feature","geometry":{"type":"Point","coordinates":[78.69929600000006,9.409821000000022]},"properties":{"ps_code":"P2","ps_name":"CHATHIRAKUDI","name":"P2 CHATHIRAKUDI","dept_code":"","status":true}},
{"type":"Feature","geometry":{"type":"Point","coordinates":[78.69418300000007,9.545290000000023]},"properties":{"ps_code":"P19","ps_name":"NAINARKOIL","name":"P19 NAINARKOIL","dept_code":"","status":true}},
{"type":"Feature","geometry":{"type":"Point","coordinates":[78.45804300000003,9.588152000000036]},"properties":{"ps_code":"P23","ps_name":"PARTHIBANUR","name":"P23 PARTHIBANUR","dept_code":"","status":true}},
{"type":"Feature","geometry":{"type":"Point","coordinates":[78.51538900000008,9.351077000000032]},"properties":{"ps_code":"P18","ps_name":"MUDUKULATHUR","name":"P18 MUDUKULATHUR","dept_code":"","status":true}},
{"type":"Feature","geometry":{"type":"Point","coordinates":[78.44469800000007,9.356767000000048]},"properties":{"ps_code":"P24","ps_name":"PERAIYUR","name":"P24 PERAIYUR","dept_code":"","status":true}},
{"type":"Feature","geometry":{"type":"Point","coordinates":[78.62337900000006,9.324295000000063]},"properties":{"ps_code":"P36","ps_name":"THERIRUVELI","name":"P36 THERIRUVELI","dept_code":"","status":true}},
{"type":"Feature","geometry":{"type":"Point","coordinates":[78.54818600000004,9.418232000000046]},"properties":{"ps_code":"P13","ps_name":"KEELATHOOVAL","name":"P13 KEELATHOOVAL","dept_code":"","status":true}},
{"type":"Feature","geometry":{"type":"Point","coordinates":[78.49612300000007,9.218441000000041]},"properties":{"ps_code":"P9","ps_name":"KADALADI","name":"P9 KADALADI","dept_code":"","status":true}},
{"type":"Feature","geometry":{"type":"Point","coordinates":[78.53008033400005,9.302416678000043]},"properties":{"ps_code":"P5","ps_name":"ELANJEMBUR","name":"P5 ELANJEMBUR","dept_code":"","status":true}},
{"type":"Feature","geometry":{"type":"Point","coordinates":[78.56534100000005,9.209763000000066]},"properties":{"ps_code":"P12","ps_name":"KEELASELVANUR","name":"P12 KEELASELVANUR","dept_code":"","status":true}},
{"type":"Feature","geometry":{"type":"Point","coordinates":[78.36327500000004,9.414172000000065]},"properties":{"ps_code":"P10","ps_name":"KAMUTHI","name":"P10 KAMUTHI","dept_code":"","status":true}},
{"type":"Feature","geometry":{"type":"Point","coordinates":[78.33709600000003,9.458671000000038]},"properties":{"ps_code":"P16","ps_name":"MANDALAMANICKAM","name":"P16 MANDALAMANICKAM","dept_code":"","status":true}},
{"type":"Feature","geometry":{"type":"Point","coordinates":[78.41647900000004,9.271062000000029]},"properties":{"ps_code":"P15","ps_name":"KOVILANGULAM","name":"P15 KOVILANGULAM","dept_code":"","status":true}},
{"type":"Feature","geometry":{"type":"Point","coordinates":[79.31855000000007,9.289368000000024]},"properties":{"ps_code":"P29","ps_name":"RAMESWARAM TEMPLE","name":"P29 RAMESWARAM TEMPLE","dept_code":"","status":true}},
{"type":"Feature","geometry":{"type":"Point","coordinates":[79.30579000000006,9.257228000000055]},"properties":{"ps_code":"P4","ps_name":"DHANUSHKODI","name":"P4 DHANUSHKODI","dept_code":"","status":true}},
{"type":"Feature","geometry":{"type":"Point","coordinates":[79.31489400000004,9.280998000000068]},"properties":{"ps_code":"P8","ps_name":"JETTY","name":"P8 JETTY","dept_code":"","status":true}},
{"type":"Feature","geometry":{"type":"Point","coordinates":[79.24970000000008,9.284558000000061]},"properties":{"ps_code":"P35","ps_name":"THANGACHIMADAM","name":"P35 THANGACHIMADAM","dept_code":"","status":true}},
{"type":"Feature","geometry":{"type":"Point","coordinates":[79.21518800000007,9.28363100000007]},"properties":{"ps_code":"P20","ps_name":"PAMBAN","name":"P20 PAMBAN","dept_code":"","status":true}},
{"type":"Feature","geometry":{"type":"Point","coordinates":[79.14760800000005,9.278656000000069]},"properties":{"ps_code":"P17","ps_name":"MANDAPAM","name":"P17 MANDAPAM","dept_code":"","status":true}},
{"type":"Feature","geometry":{"type":"Point","coordinates":[79.01859400000006,9.309960000000046]},"properties":{"ps_code":"P41","ps_name":"UCHIPULI","name":"P41 UCHIPULI","dept_code":"","status":true}},
{"type":"Feature","geometry":{"type":"Point","coordinates":[78.78361700000005,9.239904000000024]},"properties":{"ps_code":"P11","ps_name":"KEELAKARAI","name":"P11 KEELAKARAI","dept_code":"","status":true}},
{"type":"Feature","geometry":{"type":"Point","coordinates":[78.82313600000003,9.281827000000021]},"properties":{"ps_code":"P38","ps_name":"THIRUPULLANI","name":"P38 THIRUPULLANI","dept_code":"","status":true}},
{"type":"Feature","geometry":{"type":"Point","coordinates":[78.70991300000003,9.209036000000026]},"properties":{"ps_code":"P7","ps_name":"ERWADI DHARGA","name":"P7 ERWADI DHARGA","dept_code":"","status":true}},
{"type":"Feature","geometry":{"type":"Point","coordinates":[78.73734742200008,9.310624775000065]},"properties":{"ps_code":"P34","ps_name":"T.U.MANGAI","name":"P34 T.U.MANGAI","dept_code":"","status":true}},
{"type":"Feature","geometry":{"type":"Point","coordinates":[78.64159600000005,9.248182000000043]},"properties":{"ps_code":"P33","ps_name":"SIKKAL","name":"P33 SIKKAL","dept_code":"","status":true}},
{"type":"Feature","geometry":{"type":"Point","coordinates":[78.64551500000005,9.163362000000063]},"properties":{"ps_code":"P42","ps_name":"VALINOKAM","name":"P42 VALINOKAM","dept_code":"","status":true}},
{"type":"Feature","geometry":{"type":"Point","coordinates":[78.44847900000008,9.169006000000024]},"properties":{"ps_code":"P32","ps_name":"SAYALKUDI","name":"P32 SAYALKUDI","dept_code":"","status":true}},
{"type":"Feature","geometry":{"type":"Point","coordinates":[78.87974884400006,9.795906734000027]},"properties":{"ps_code":"P39","ps_name":"THIRUVADANAI","name":"P39 THIRUVADANAI","dept_code":"","status":true}},
{"type":"Feature","geometry":{"type":"Point","coordinates":[79.01929200000006,9.747025000000065]},"properties":{"ps_code":"P40","ps_name":"THONDI","name":"P40 THONDI","dept_code":"","status":true}},
{"type":"Feature","geometry":{"type":"Point","coordinates":[79.09462300000007,9.843866000000048]},"properties":{"ps_code":"P31","ps_name":"S.P.PATTINAM","name":"P31 S.P.PATTINAM","dept_code":"","status":true}},
{"type":"Feature","geometry":{"type":"Point","coordinates":[78.84577500000006,9.635811000000047]},"properties":{"ps_code":"P26","ps_name":"R.S.MANGALAM","name":"P26 R.S.MANGALAM","dept_code":"","status":true}},
{"type":"Feature","geometry":{"type":"Point","coordinates":[78.91127200000005,9.542451000000028]},"properties":{"ps_code":"P37","ps_name":"THIRUPALAIKUDI","name":"P37 THIRUPALAIKUDI","dept_code":"","status":true}},
{"type":"Feature","geometry":{"type":"Point","coordinates":[79.30972460900006,9.28768466400004]},"properties":{"ps_code":"P30","ps_name":"RAMESWARAM TOWN","name":"P30 RAMESWARAM TOWN","dept_code":"","status":true}},
{"type":"Feature","geometry":{"type":"Point","coordinates":[78.95654296900005,10.519458771000075]},"properties":{"ps_code":"P1","ps_name":"Adhanakottai","name":"P1 Adhanakottai","dept_code":"","status":true}},
{"type":"Feature","geometry":{"type":"Point","coordinates":[78.97486114500003,10.36101055100005]},"properties":{"ps_code":"P2","ps_name":"ALANGUDI","name":"P2 ALANGUDI","dept_code":"","status":true}},
{"type":"Feature","geometry":{"type":"Point","coordinates":[78.71359886300007,10.445494514000075]},"properties":{"ps_code":"P3","ps_name":"ANNAVASAL","name":"P3 ANNAVASAL","dept_code":"","status":true}},
{"type":"Feature","geometry":{"type":"Point","coordinates":[79.00510700000007,10.174738000000048]},"properties":{"ps_code":"P4","ps_name":"ARANTHANGI","name":"P4 ARANTHANGI","dept_code":"","status":true}},
{"type":"Feature","geometry":{"type":"Point","coordinates":[78.89166259800004,10.261467934000052]},"properties":{"ps_code":"P5","ps_name":"ARIMALAM","name":"P5 ARIMALAM","dept_code":"","status":true}},
{"type":"Feature","geometry":{"type":"Point","coordinates":[79.04220581100003,10.078663826000025]},"properties":{"ps_code":"P6","ps_name":"AVUDAIYARKOIL","name":"P6 AVUDAIYARKOIL","dept_code":"","status":true}},
{"type":"Feature","geometry":{"type":"Point","coordinates":[78.95756530800008,10.022931099000061]},"properties":{"ps_code":"P7","ps_name":"EMBAL","name":"P7 EMBAL","dept_code":"","status":true}},
{"type":"Feature","geometry":{"type":"Point","coordinates":[79.01557695200006,10.573653772000057]},"properties":{"ps_code":"P8","ps_name":"GANDHARVAKOTTAI","name":"P8 GANDHARVAKOTTAI","dept_code":"","status":true}},
{"type":"Feature","geometry":{"type":"Point","coordinates":[78.61700439500004,10.516262054000038]},