{"type":"FeatureCollection","features":[{"type":"Feature","geometry":{"type":"Point","coordinates":[77.5545,11.4784]},"properties":{"district":"Erode","taluk":"Anthiyur (TK)","village":"Koothampoondi","name":"Koothampoondi","area_type":"Rural","shop_code":"09FP029PN","search_string":"  anthiyur (tk) erode "},"bbox":[77.5545,11.4784,77.5545,11.4784]},{"type":"Feature","geometry":{"type":"Point","coordinates":[77.5676,11.4949]},"properties":{"district":"Erode","taluk":"Anthiyur (TK)","village":"Vempathy","name":"Vellalapalayam","area_type":"Rural","shop_code":"09FP004PN","search_string":"  anthiyur (tk) erode "},"bbox":[77.5676,11.4949,77.5676,11.4949]},{"type":"Feature","geometry":{"type":"Point","coordinates":[77.5789,11.4983]},"properties":{"district":"Erode","taluk":"Anthiyur (TK)","village":"Vempathy","name":"Osaipatty","area_type":"Rural","shop_code":"09FP039PN","search_string":"  anthiyur (tk) erode "},"bbox":[77.5789,11.4983,77.5789,11.4983]},{"type":"Feature","geometry":{"type":"Point","coordinates":[77.5464,11.5009]},"properties":{"district":"Erode","taluk":"Anthiyur (TK)","village":"Keelvani","name":"Ponnaiyanagar","area_type":"Rural","shop_code":"09FP027P1","search_string":"  anthiyur (tk) erode "},"bbox":[77.5464,11.5009,77.5464,11.5009]},{"type":"Feature","geometry":{"type":"Point","coordinates":[77.5331,11.5035]},"properties":{"district":"Erode","taluk":"Anthiyur (TK)","village":"Keelvani","name":"Keelvani","area_type":"Rural","shop_code":"09FP027PY","search_string":"  anthiyur (tk) erode "},"bbox":[77.5331,11.5035,77.5331,11.5035]},{"type":"Feature","geometry":{"type":"Point","coordinates":[77.5772,11.5082]},"properties":{"district":"Erode","taluk":"Anthiyur (TK)","village":"Vempathy","name":"Vempathy","area_type":"Rural","shop_code":"09FP040PY","search_string":"  anthiyur (tk) erode "},"bbox":[77.5772,11.5082,77.5772,11.5082]},{"type":"Feature","geometry":{"type":"Point","coordinates":[77.5377,11.5084]},"properties":{"district":"Erode","taluk":"Anthiyur (TK)","village":"Moongilpatti","name":"Moongilpatti","area_type":"Rural","shop_code":"09FP028PN","search_string":"  anthiyur (tk) erode "},"bbox":[77.5377,11.5084,77.5377,11.5084]},{"type":"Feature","geometry":{"type":"Point","coordinates":[77.5731,11.514]},"properties":{"district":"Erode","taluk":"Anthiyur (TK)","village":"Vempathy","name":"Thalakuttaipudur","area_type":"Rural","shop_code":"09FP040P2","search_string":"  anthiyur (tk) erode "},"bbox":[77.5731,11.514,77.5731,11.514]},{"type":"Feature","geometry":{"type":"Point","coordinates":[77.5929,11.5178]},"properties":{"district":"Erode","taluk":"Anthiyur (TK)","village":"Vempathy","name":"Ettikuttaipalayam","area_type":"Rural","shop_code":"09FP118PN","search_string":"  anthiyur (tk) erode "},"bbox":[77.5929,11.5178,77.5929,11.5178]},{"type":"Feature","geometry":{"type":"Point","coordinates":[77.6039,11.5208]},"properties":{"district":"Erode","taluk":"Anthiyur (TK)","village":"Vempathy","name":"Sethunampalayam","area_type":"Rural","shop_code":"09FP041P1","search_string":"  anthiyur (tk) erode "},"bbox":[77.6039,11.5208,77.6039,11.5208]},{"type":"Feature","geometry":{"type":"Point","coordinates":[77.5116,11.5213]},"properties":{"district":"Erode","taluk":"Anthiyur (TK)","village":"Athani Tp","name":"Athani 3","area_type":"Urban","shop_code":"09FP032PN","search_string":"  anthiyur (tk) erode "},"bbox":[77.5116,11.5213,77.5116,11.5213]},{"type":"Feature","geometry":{"type":"Point","coordinates":[77.528,11.5225]},"properties":{"district":"Erode","taluk":"Anthiyur (TK)","village":"Kuppandampalayam","name":"Karuvalvadipudur","area_type":"Rural","shop_code":"09FP135PN","search_string":"  anthiyur (tk) erode "},"bbox":[77.528,11.5225,77.528,11.5225]},{"type":"Feature","geometry":{"type":"Point","coordinates":[77.5187,11.5229]},"properties":{"district":"Erode","taluk":"Anthiyur (TK)","village":"Athani Tp","name":"Athani 1","area_type":"Urban","shop_code":"09FP030PN","search_string":"  anthiyur (tk) erode "},"bbox":[77.5187,11.5229,77.5187,11.5229]},{"type":"Feature","geometry":{"type":"Point","coordinates":[77.5945,11.5279]},"properties":{"district":"Erode","taluk":"Anthiyur (TK)","village":"Vempathy","name":"Sinthagoundanpalayam","area_type":"Rural","shop_code":"09FP041PY","search_string":"  anthiyur (tk) erode "},"bbox":[77.5945,11.5279,77.5945,11.5279]},{"type":"Feature","geometry":{"type":"Point","coordinates":[77.5723,11.529]},"properties":{"district":"Erode","taluk":"Anthiyur (TK)","village":"Vempathy","name":"Thottakudiampalayam","area_type":"Rural","shop_code":"09FP040P1","search_string":"  anthiyur (tk) erode "},"bbox":[77.5723,11.529,77.5723,11.529]},{"type":"Feature","geometry":{"type":"Point","coordinates":[77.5292,11.5329]},"properties":{"district":"Erode","taluk":"Anthiyur (TK)","village":"Kuppandampalayam","name":"Karattur","area_type":"Rural","shop_code":"09FP026PN","search_string":"  anthiyur (tk) erode "},"bbox":[77.5292,11.5329,77.5292,11.5329]},{"type":"Feature","geometry":{"type":"Point","coordinates":[77.5215,11.5331]},"properties":{"district":"Erode","taluk":"Anthiyur (TK)","village":"Kuppandampalayam","name":"Kuppandampalayam","area_type":"Rural","shop_code":"09FP025PN","search_string":"  anthiyur (tk) erode "},"bbox":[77.5215,11.5331,77.5215,11.5331]},{"type":"Feature","geometry":{"type":"Point","coordinates":[77.6087,11.5368]},"properties":{"district":"Erode","taluk":"Anthiyur (TK)","village":"Paruvachi","name":"Pothigi Women Chinnaparuvachi","area_type":"Rural","shop_code":"09FP130PN","search_string":"  anthiyur (tk) erode "},"bbox":[77.6087,11.5368,77.6087,11.5368]},{"type":"Feature","geometry":{"type":"Point","coordinates":[77.5701,11.5404]},"properties":{"district":"Erode","taluk":"Anthiyur (TK)","village":"Brammadesam","name":"Pudukaradianur","area_type":"Rural","shop_code":"09FP024P1","search_string":"  anthiyur (tk) erode "},"bbox":[77.5701,11.5404,77.5701,11.5404]},{"type":"Feature","geometry":{"type":"Point","coordinates":[77.5067,11.5426]},"properties":{"district":"Erode","taluk":"Anthiyur (TK)","village":"Athani Tp","name":"Athani 2","area_type":"Urban","shop_code":"09FP031PN","search_string":"  anthiyur (tk) erode "},"bbox":[77.5067,11.5426,77.5067,11.5426]},{"type":"Feature","geometry":{"type":"Point","coordinates":[77.5033,11.5447]},"properties":{"district":"Erode","taluk":"Anthiyur (TK)","village":"Athani Tp","name":"Athani 4","area_type":"Urban","shop_code":"09FP111PN","search_string":"  anthiyur (tk) erode "},"bbox":[77.5033,11.5447,77.5033,11.5447]},{"type":"Feature","geometry":{"type":"Point","coordinates":[77.596,11.5454]},"properties":{"district":"Erode","taluk":"Anthiyur (TK)","village":"Brammadesam","name":"Kattupalayam","area_type":"Rural","shop_code":"09FP136PN","search_string":"  anthiyur (tk) erode "},"bbox":[77.596,11.5454,77.596,11.5454]},{"type":"Feature","geometry":{"type":"Point","coordinates":[77.5643,11.5461]},"properties":{"district":"Erode","taluk":"Anthiyur (TK)","village":"Brammadesam","name":"Attakkallur","area_type":"Rural","shop_code":"09FP145PN","search_string":"  anthiyur (tk) erode "},"bbox":[77.5643,11.5461,77.5643,11.5461]},{"type":"Feature","geometry":{"type":"Point","coordinates":[77.5338,11.548]},"properties":{"district":"Erode","taluk":"Anthiyur (TK)","village":"Nagalur","name":"Kondaiyampalayam","area_type":"Urban","shop_code":"09FP018PY","search_string":"  anthiyur (tk) erode "},"bbox":[77.5338,11.548,77.5338,11.548]},{"type":"Feature","geometry":{"type":"Point","coordinates":[77.6127,11.5483]},"properties":{"district":"Erode","taluk":"Anthiyur (TK)","village":"Brammadesam","name":"Sembulicham palayam","area_type":"Rural","shop_code":"09FP152PN","search_string":"  anthiyur (tk) erode "},"bbox":[77.6127,11.5483,77.6127,11.5483]},{"type":"Feature","geometry":{"type":"Point","coordinates":[77.581,11.5489]},"properties":{"district":"Erode","taluk":"Anthiyur (TK)","village":"Brammadesam","name":"Brammadesam 1","area_type":"Rural","shop_code":"09FP023PY","search_string":"  anthiyur (tk) erode "},"bbox":[77.581,11.5489,77.581,11.5489]},{"type":"Feature","geometry":{"type":"Point","coordinates":[77.5809,11.549]},"properties":{"district":"Erode","taluk":"Anthiyur (TK)","village":"Brammadesam","name":"Brammadesam 2","area_type":"Rural","shop_code":"09FP024PY","search_string":"  anthiyur (tk) erode "},"bbox":[77.5809,11.549,77.5809,11.549]},{"type":"Feature","geometry":{"type":"Point","coordinates":[77.6182,11.5517]},"properties":{"district":"Erode","taluk":"Anthiyur (TK)","village":"Oddapalayam","name":"Oddapalayam 1","area_type":"Rural","shop_code":"09FP019PN","search_string":"  anthiyur (tk) erode "},"bbox":[77.6182,11.5517,77.6182,11.5517]},{"type":"Feature","geometry":{"type":"Point","coordinates":[77.6052,11.5531]},"properties":{"district":"Erode","taluk":"Anthiyur (TK)","village":"Pachampalayam","name":"Pachampalayam 1","area_type":"Urban","shop_code":"09FP021PY","search_string":"  anthiyur (tk) erode "},"bbox":[77.6052,11.5531,77.6052,11.5531]},{"type":"Feature","geometry":{"type":"Point","coordinates":[77.6051,11.5532]},"properties":{"district":"Erode","taluk":"Anthiyur (TK)","village":"Oddapalayam","name":"Oddapalayam 2","area_type":"Rural","shop_code":"09FP020PY","search_string":"  anthiyur (tk) erode "},"bbox":[77.6051,11.5532,77.6051,11.5532]},{"type":"Feature","geometry":{"type":"Point","coordinates":[77.5919,11.5538]},"properties":{"district":"Erode","taluk":"Anthiyur (TK)","village":"Brammadesam","name":"Santhiayampalayam","area_type":"Rural","shop_code":"09FP023P1","search_string":"  anthiyur (tk) erode "},"bbox":[77.5919,11.5538,77.5919,11.5538]},{"type":"Feature","geometry":{"type":"Point","coordinates":[77.5858,11.5586]},"properties":{"district":"Erode","taluk":"Anthiyur (TK)","village":"Anthiyur","name":"Vellaiyampalayam","area_type":"Rural","shop_code":"09FP010P2","search_string":"  anthiyur (tk) erode "},"bbox":[77.5858,11.5586,77.5858,11.5586]},{"type":"Feature","geometry":{"type":"Point","coordinates":[77.5498,11.5588]},"properties":{"district":"Erode","taluk":"Anthiyur (TK)","village":"Nagalur","name":"Nagalur","area_type":"Rural","shop_code":"09FP017PY","search_string":"  anthiyur (tk) erode "},"bbox":[77.5498,11.5588,77.5498,11.5588]},{"type":"Feature","geometry":{"type":"Point","coordinates":[77.5635,11.5598]},"properties":{"district":"Erode","taluk":"Anthiyur (TK)","village":"Anthiyur","name":"Chinnathambipalayam 1","area_type":"Rural","shop_code":"09FP010PY","search_string":"  anthiyur (tk) erode "},"bbox":[77.5635,11.5598,77.5635,11.5598]},{"type":"Feature","geometry":{"type":"Point","coordinates":[77.6337,11.5625]},"properties":{"district":"Erode","taluk":"Anthiyur (TK)","village":"Oddapalayam","name":"Oddapalayam 2 A","area_type":"Rural","shop_code":"09FP020P1","search_string":"  anthiyur (tk) erode "},"bbox":[77.6337,11.5625,77.6337,11.5625]},{"type":"Feature","geometry":{"type":"Point","coordinates":[77.5724,11.5669]},"properties":{"district":"Erode","taluk":"Anthiyur (TK)","village":"Anthiyur","name":"Pudumettur","area_type":"Rural","shop_code":"09FP010P1","search_string":"  anthiyur (tk) erode "},"bbox":[77.5724,11.5669,77.5724,11.5669]},{"type":"Feature","geometry":{"type":"Point","coordinates":[77.6109,11.5693]},"properties":{"district":"Erode","taluk":"Anthiyur (TK)","village":"Pachampalayam","name":"Pallipalayam","area_type":"Rural","shop_code":"09FP021P1","search_string":"  anthiyur (tk) erode "},"bbox":[77.6109,11.5693,77.6109,11.5693]},{"type":"Feature","geometry":{"type":"Point","coordinates":[77.6099,11.5718]},"properties":{"district":"Erode","taluk":"Anthiyur (TK)","village":"Pachampalayam","name":"Pachampalayam 2","area_type":"Rural","shop_code":"09FP022PY","search_string":"  anthiyur (tk) erode "},"bbox":[77.6099,11.5718,77.6099,11.5718]},{"type":"Feature","geometry":{"type":"Point","coordinates":[77.5765,11.5728]},"properties":{"district":"Erode","taluk":"Anthiyur (TK)","village":"Anthiyur","name":"Thavittupalayam -4 (Palaniappa St.)","area_type":"Urban","shop_code":"09FP149PN","search_string":"  anthiyur (tk) erode "},"bbox":[77.5765,11.5728,77.5765,11.5728]},{"type":"Feature","geometry":{"type":"Point","coordinates":[77.5202,11.5734]},"properties":{"district":"Erode","taluk":"Anthiyur (TK)","village":"Nagalur","name":"Perumapalayam","area_type":"Rural","shop_code":"09FP018P1","search_string":"  anthiyur (tk) erode "},"bbox":[77.5202,11.5734,77.5202,11.5734]},{"type":"Feature","geometry":{"type":"Point","coordinates":[77.5841,11.574]},"properties":{"district":"Erode","taluk":"Anthiyur (TK)","village":"Anthiyur","name":"Thavittupalayam 3","area_type":"Urban","shop_code":"09FP016PN","search_string":"  anthiyur (tk) erode "},"bbox":[77.5841,11.574,77.5841,11.574]},{"type":"Feature","geometry":{"type":"Point","coordinates":[77.584,11.574]},"properties":{"district":"Erode","taluk":"Anthiyur (TK)","village":"Anthiyur","name":"Thavittupalayam 2","area_type":"Urban","shop_code":"09FP015PN","search_string":"  anthiyur (tk) erode "},"bbox":[77.584,11.574,77.584,11.574]},{"type":"Feature","geometry":{"type":"Point","coordinates":[77.584,11.574]},"properties":{"district":"Erode","taluk":"Anthiyur (TK)","village":"Anthiyur","name":"Thavittupalayam 1","area_type":"Urban","shop_code":"09FP014PN","search_string":"  anthiyur (tk) erode "},"bbox":[77.584,11.574,77.584,11.574]},{"type":"Feature","geometry":{"type":"Point","coordinates":[77.5624,11.574]},"properties":{"district":"Erode","taluk":"Anthiyur (TK)","village":"Anthiyur","name":"Chinnathambipalayam 1","area_type":"Rural","shop_code":"09FP011PY","search_string":"  anthiyur (tk) erode "},"bbox":[77.5624,11.574,77.5624,11.574]},{"type":"Feature","geometry":{"type":"Point","coordinates":[77.588,11.5771]},"properties":{"district":"Erode","taluk":"Anthiyur (TK)","village":"Gettisamutguram","name":"Gettisamuthiram 2","area_type":"Rural","shop_code":"09FP007PN","search_string":"  anthiyur (tk) erode "},"bbox":[77.588,11.5771,77.588,11.5771]},{"type":"Feature","geometry":{"type":"Point","coordinates":[77.5858,11.5785]},"properties":{"district":"Erode","taluk":"Anthiyur (TK)","village":"Anthiyur","name":"Anthiyur -4 (Theppakulam)","area_type":"Urban","shop_code":"09FP148PN","search_string":"  anthiyur (tk) erode "},"bbox":[77.5858,11.5785,77.5858,11.5785]},{"type":"Feature","geometry":{"type":"Point","coordinates":[77.5856,11.5785]},"properties":{"district":"Erode","taluk":"Anthiyur (TK)","village":"Anthiyur","name":"Anthiyur 3","area_type":"Urban","shop_code":"09FP140PN","search_string":"  anthiyur (tk) erode "},"bbox":[77.5856,11.5785,77.5856,11.5785]},{"type":"Feature","geometry":{"type":"Point","coordinates":[77.6819,11.5786]},"properties":{"district":"Erode","taluk":"Anthiyur (TK)","village":"Poonachi","name":"Poonachi","area_type":"Rural","shop_code":"09FP105PN","search_string":"  anthiyur (tk) erode "},"bbox":[77.6819,11.5786,77.6819,11.5786]},{"type":"Feature","geometry":{"type":"Point","coordinates":[77.5855,11.5804]},"properties":{"district":"Erode","taluk":"Anthiyur (TK)","village":"Anthiyur","name":"Anthiyur 2","area_type":"Urban","shop_code":"09FP013PN","search_string":"  anthiyur (tk) erode "},"bbox":[77.5855,11.5804,77.5855,11.5804]},{"type":"Feature","geometry":{"type":"Point","coordinates":[77.5856,11.5805]},"properties":{"district":"Erode","taluk":"Anthiyur (TK)","village":"Anthiyur","name":"Anthiyur 1","area_type":"Urban","shop_code":"09FP012PN","search_string":"  anthiyur (tk) erode "},"bbox":[77.5856,11.5805,77.5856,11.5805]},{"type":"Feature","geometry":{"type":"Point","coordinates":[77.615,11.5806]},"properties":{"district":"Erode","taluk":"Anthiyur (TK)","village":"Patlur","name":"Maravankuttai","area_type":"Rural","shop_code":"09FP091P1","search_string":"  anthiyur (tk) erode "},"bbox":[77.615,11.5806,77.615,11.5806]},{"type":"Feature","geometry":{"type":"Point","coordinates":[77.6359,11.5812]},"properties":{"district":"Erode","taluk":"Anthiyur (TK)","village":"Patlur","name":"Patlur Nallroad","area_type":"Rural","shop_code":"09FP091PY","search_string":"  anthiyur (tk) erode "},"bbox":[77.6359,11.5812,77.6359,11.5812]},{"type":"Feature","geometry":{"type":"Point","coordinates":[77.6331,11.586]},"properties":{"district":"Erode","taluk":"Anthiyur (TK)","village":"Patlur","name":"Patlur","area_type":"Rural","shop_code":"09FP119PY","search_string":"  anthiyur (tk) erode "},"bbox":[77.6331,11.586,77.6331,11.586]},{"type":"Feature","geometry":{"type":"Point","coordinates":[77.6813,11.5862]},"properties":{"district":"Erode","taluk":"Anthiyur (TK)","village":"Poonachi","name":"Nathamedu","area_type":"Rural","shop_code":"09FP125PN","search_string":"  anthiyur (tk) erode "},"bbox":[77.6813,11.5862,77.6813,11.5862]},{"type":"Feature","geometry":{"type":"Point","coordinates":[77.5458,11.5882]},"properties":{"district":"Erode","taluk":"Anthiyur (TK)","village":"Anthiyur","name":"Anthiyur Colony","area_type":"Rural","shop_code":"09FP011P1","search_string":"  anthiyur (tk) erode "},"bbox":[77.5458,11.5882,77.5458,11.5882]},{"type":"Feature","geometry":{"type":"Point","coordinates":[77.6568,11.5883]},"properties":{"district":"Erode","taluk":"Anthiyur (TK)","village":"Attavanaipudur","name":"Attavanaipudur","area_type":"Rural","shop_code":"09FP103PN","search_string":"  anthiyur (tk) erode "},"bbox":[77.6568,11.5883,77.6568,11.5883]},{"type":"Feature","geometry":{"type":"Point","coordinates":[77.6069,11.5893]},"properties":{"district":"Erode","taluk":"Anthiyur (TK)","village":"Pachampalayam","name":"Kollapalayam","area_type":"Rural","shop_code":"09FP022P1","search_string":"  anthiyur (tk) erode "},"bbox":[77.6069,11.5893,77.6069,11.5893]},{"type":"Feature","geometry":{"type":"Point","coordinates":[77.5348,11.5893]},"properties":{"district":"Erode","taluk":"Anthiyur (TK)","village":"Nagalur","name":"Eshapparaiyur","area_type":"Rural","shop_code":"09FP017P1","search_string":"  anthiyur (tk) erode "},"bbox":[77.5348,11.5893,77.5348,11.5893]},{"type":"Feature","geometry":{"type":"Point","coordinates":[77.6444,11.5934]},"properties":{"district":"Erode","taluk":"Anthiyur (TK)","village":"Patlur","name":"Poosariyur","area_type":"Rural","shop_code":"09FP119P1","search_string":"  anthiyur (tk) erode "},"bbox":[77.6444,11.5934,77.6444,11.5934]},{"type":"Feature","geometry":{"type":"Point","coordinates":[77.5878,11.5943]},"properties":{"district":"Erode","taluk":"Anthiyur (TK)","village":"Gettisamutguram","name":"Gettisamuthiram 1","area_type":"Rural","shop_code":"09FP006PN","search_string":"  anthiyur (tk) erode "},"bbox":[77.5878,11.5943,77.5878,11.5943]},{"type":"Feature","geometry":{"type":"Point","coordinates":[77.5649,11.5945]},"properties":{"district":"Erode","taluk":"Anthiyur (TK)","village":"Anthiyur","name":"Michelpalayam 1","area_type":"Rural","shop_code":"09FP008PN","search_string":"  anthiyur (tk) erode "},"bbox":[77.5649,11.5945,77.5649,11.5945]},{"type":"Feature","geometry":{"type":"Point","coordinates":[77.5871,11.5958]},"properties":{"district":"Erode","taluk":"Anthiyur (TK)","village":"Gettisamutguram","name":"Gettisamudram 3","area_type":"Rural","shop_code":"09FP126PN","search_string":"  anthiyur (tk) erode "},"bbox":[77.5871,11.5958,77.5871,11.5958]},{"type":"Feature","geometry":{"type":"Point","coordinates":[77.5747,11.596]},"properties":{"district":"Erode","taluk":"Anthiyur (TK)","village":"Anthiyur","name":"Samathuvapuram","area_type":"Rural","shop_code":"09FP123P1","search_string":"  anthiyur (tk) erode "},"bbox":[77.5747,11.596,77.5747,11.596]},{"type":"Feature","geometry":{"type":"Point","coordinates":[77.6263,11.5961]},"properties":{"district":"Erode","taluk":"Anthiyur (TK)","village":"Patlur","name":"Kalipatty","area_type":"Rural","shop_code":"09FP092P2","search_string":"  anthiyur (tk) erode "},"bbox":[77.6263,11.5961,77.6263,11.5961]},{"type":"Feature","geometry":{"type":"Point","coordinates":[77.6318,11.5986]},"properties":{"district":"Erode","taluk":"Anthiyur (TK)","village":"Patlur","name":"Chokkanathamalayur","area_type":"Rural","shop_code":"09FP092P1","search_string":"  anthiyur (tk) erode "},"bbox":[77.6318,11.5986,77.6318,11.5986]},{"type":"Feature","geometry":{"type":"Point","coordinates":[77.5714,11.6073]},"properties":{"district":"Erode","taluk":"Anthiyur (TK)","village":"Anthiyur","name":"Michelpalayam 2","area_type":"Rural","shop_code":"09FP009PY","search_string":"  anthiyur (tk) erode "},"bbox":[77.5714,11.6073,77.5714,11.6073]},{"type":"Feature","geometry":{"type":"Point","coordinates":[77.7005,11.6079]},"properties":{"district":"Erode","taluk":"Anthiyur (TK)","village":"Boodapadi","name":"Boodapadi","area_type":"Urban","shop_code":"09FP096PN","search_string":"  anthiyur (tk) erode "},"bbox":[77.7005,11.6079,77.7005,11.6079]},{"type":"Feature","geometry":{"type":"Point","coordinates":[77.713,11.6095]},"properties":{"district":"Erode","taluk":"Anthiyur (TK)","village":"Boodapadi","name":"Boothapadi Satnhiai","area_type":"Rural","shop_code":"09FP002PN","search_string":"  anthiyur (tk) erode "},"bbox":[77.713,11.6095,77.713,11.6095]},{"type":"Feature","geometry":{"type":"Point","coordinates":[77.6914,11.6142]},"properties":{"district":"Erode","taluk":"Anthiyur (TK)","village":"Kannappalli","name":"Munianur","area_type":"Rural","shop_code":"09FP084P1","search_string":"  anthiyur (tk) erode "},"bbox":[77.6914,11.6142,77.6914,11.6142]},{"type":"Feature","geometry":{"type":"Point","coordinates":[77.7268,11.6149]},"properties":{"district":"Erode","taluk":"Anthiyur (TK)","village":"Padavalkalvai","name":"Pattanchavai","area_type":"Urban","shop_code":"09FP101P1","search_string":"  anthiyur (tk) erode "},"bbox":[77.7268,11.6149,77.7268,11.6149]},{"type":"Feature","geometry":{"type":"Point","coordinates":[77.6317,11.6185]},"properties":{"district":"Erode","taluk":"Anthiyur (TK)","village":"Patlur","name":"Bommanpatty 2","area_type":"Rural","shop_code":"09FP137PN","search_string":"  anthiyur (tk) erode "},"bbox":[77.6317,11.6185,77.6317,11.6185]},{"type":"Feature","geometry":{"type":"Point","coordinates":[77.6318,11.6185]},"properties":{"district":"Erode","taluk":"Anthiyur (TK)","village":"Patlur","name":"Bommanpatty","area_type":"Rural","shop_code":"09FP092PY","search_string":"  anthiyur (tk) erode "},"bbox":[77.6318,11.6185,77.6318,11.6185]},{"type":"Feature","geometry":{"type":"Point","coordinates":[77.6785,11.6193]},"properties":{"district":"Erode","taluk":"Anthiyur (TK)","village":"Kannappalli","name":"Vengarettiyur","area_type":"Rural","shop_code":"09FP085P1","search_string":"  anthiyur (tk) erode "},"bbox":[77.6785,11.6193,77.6785,11.6193]},{"type":"Feature","geometry":{"type":"Point","coordinates":[77.7427,11.6201]},"properties":{"district":"Erode","taluk":"Anthiyur (TK)","village":"Padavalkalvai","name":"Padavalkalvai","area_type":"Urban","shop_code":"09FP101PY","search_string":"  anthiyur (tk) erode "},"bbox":[77.7427,11.6201,77.7427,11.6201]},{"type":"Feature","geometry":{"type":"Point","coordinates":[77.627,11.6218]},"properties":{"district":"Erode","taluk":"Anthiyur (TK)","village":"Mathur","name":"Maravapalayam","area_type":"Rural","shop_code":"09FP089P1","search_string":"  anthiyur (tk) erode "},"bbox":[77.627,11.6218,77.627,11.6218]},{"type":"Feature","geometry":{"type":"Point","coordinates":[77.5867,11.6233]},"properties":{"district":"Erode","taluk":"Anthiyur (TK)","village":"Sankarapalayam","name":"Sankarapalayam","area_type":"Rural","shop_code":"09FP005PY","search_string":"  anthiyur (tk) erode "},"bbox":[77.5867,11.6233,77.5867,11.6233]},{"type":"Feature","geometry":{"type":"Point","coordinates":[77.6332,11.6237]},"properties":{"district":"Erode","taluk":"Anthiyur (TK)","village":"Vellithiruppur","name":"Vellithiruppur","area_type":"Rural","shop_code":"09FP086PN","search_string":"  anthiyur (tk) erode "},"bbox":[77.6332,11.6237,77.6332,11.6237]},{"type":"Feature","geometry":{"type":"Point","coordinates":[77.7438,11.6238]},"properties":{"district":"Erode","taluk":"Anthiyur (TK)","village":"Ammapettai","name":"Ammapettai","area_type":"Urban","shop_code":"09FP147PN","search_string":"  anthiyur (tk) erode "},"bbox":[77.7438,11.6238,77.7438,11.6238]},{"type":"Feature","geometry":{"type":"Point","coordinates":[77.6182,11.6255]},"properties":{"district":"Erode","taluk":"Anthiyur (TK)","village":"Mathur","name":"Mathur","area_type":"Rural","shop_code":"09FP089PY","search_string":"  anthiyur (tk) erode "},"bbox":[77.6182,11.6255,77.6182,11.6255]},{"type":"Feature","geometry":{"type":"Point","coordinates":[77.6004,11.6264]},"properties":{"district":"Erode","taluk":"Anthiyur (TK)","village":"Mathur","name":"Alampalayam","area_type":"Rural","shop_code":"09FP090PN","search_string":"  anthiyur (tk) erode "},"bbox":[77.6004,11.6264,77.6004,11.6264]},{"type":"Feature","geometry":{"type":"Point","coordinates":[77.6337,11.6272]},"properties":{"district":"Erode","taluk":"Anthiyur (TK)","village":"Vellithiruppur","name":"Vellithiruppur-2","area_type":"Rural","shop_code":"09FP151PN","search_string":"  anthiyur (tk) erode "},"bbox":[77.6337,11.6272,77.6337,11.6272]},{"type":"Feature","geometry":{"type":"Point","coordinates":[77.5952,11.6274]},"properties":{"district":"Erode","taluk":"Anthiyur (TK)","village":"Ennamangalam R F","name":"Moongilpalayam","area_type":"Rural","shop_code":"09FP144P1","search_string":"  anthiyur (tk) erode "},"bbox":[77.5952,11.6274,77.5952,11.6274]},{"type":"Feature","geometry":{"type":"Point","coordinates":[77.5639,11.6287]},"properties":{"district":"Erode","taluk":"Anthiyur (TK)","village":"Anthiyur","name":"Kaluthaipali","area_type":"Rural","shop_code":"09FP009P1","search_string":"  anthiyur (tk) erode "},"bbox":[77.5639,11.6287,77.5639,11.6287]},{"type":"Feature","geometry":{"type":"Point","coordinates":[77.7117,11.6292]},"properties":{"district":"Erode","taluk":"Anthiyur (TK)","village":"Ammapettai","name":"Moonanchavadi","area_type":"Urban","shop_code":"09FP100P1","search_string":"  anthiyur (tk) erode "},"bbox":[77.7117,11.6292,77.7117,11.6292]},{"type":"Feature","geometry":{"type":"Point","coordinates":[77.6801,11.6299]},"properties":{"district":"Erode","taluk":"Anthiyur (TK)","village":"Muhasipudur","name":"Muhasipudur","area_type":"Rural","shop_code":"09FP102PN","search_string":"  anthiyur (tk) erode "},"bbox":[77.6801,11.6299,77.6801,11.6299]},{"type":"Feature","geometry":{"type":"Point","coordinates":[77.6753,11.6307]},"properties":{"district":"Erode","taluk":"Anthiyur (TK)","village":"Kannappalli","name":"Kannappalli 2","area_type":"Rural","shop_code":"09FP085PY","search_string":"  anthiyur (tk) erode "},"bbox":[77.6753,11.6307,77.6753,11.6307]},{"type":"Feature","geometry":{"type":"Point","coordinates":[77.7369,11.6334]},"properties":{"district":"Erode","taluk":"Anthiyur (TK)","village":"Ammapettai","name":"Umardddiyur","area_type":"Urban","shop_code":"09FP100PY","search_string":"  anthiyur (tk) erode "},"bbox":[77.7369,11.6334,77.7369,11.6334]},{"type":"Feature","geometry":{"type":"Point","coordinates":[77.5838,11.6339]},"properties":{"district":"Erode","taluk":"Anthiyur (TK)","village":"Ennamangalam","name":"Ennamangalam 2","area_type":"Rural","shop_code":"09FP144PY","search_string":"  anthiyur (tk) erode "},"bbox":[77.5838,11.6339,77.5838,11.6339]},{"type":"Feature","geometry":{"type":"Point","coordinates":[77.6908,11.636]},"properties":{"district":"Erode","taluk":"Anthiyur (TK)","village":"Kannappalli","name":"Kannappalli 1","area_type":"Rural","shop_code":"09FP084PY","search_string":"  anthiyur (tk) erode "},"bbox":[77.6908,11.636,77.6908,11.636]},{"type":"Feature","geometry":{"type":"Point","coordinates":[77.7296,11.636]},"properties":{"district":"Erode","taluk":"Anthiyur (TK)","village":"Padavalkalvai","name":"SundaramPalayam","area_type":"Urban","shop_code":"09FP146PN","search_string":"  anthiyur (tk) erode "},"bbox":[77.7296,11.636,77.7296,11.636]},{"type":"Feature","geometry":{"type":"Point","coordinates":[77.6552,11.6367]},"properties":{"district":"Erode","taluk":"Anthiyur (TK)","village":"Vellithiruppur","name":"Kurumbapalayam","area_type":"Rural","shop_code":"09FP088PY","search_string":"  anthiyur (tk) erode "},"bbox":[77.6552,11.6367,77.6552,11.6367]},{"type":"Feature","geometry":{"type":"Point","coordinates":[77.754,11.6423]},"properties":{"district":"Erode","taluk":"Anthiyur (TK)","village":"Nerinjipettai","name":"Kombur","area_type":"Urban","shop_code":"09FP097P1","search_string":"  anthiyur (tk) erode "},"bbox":[77.754,11.6423,77.754,11.6423]},{"type":"Feature","geometry":{"type":"Point","coordinates":[77.6792,11.6445]},"properties":{"district":"Erode","taluk":"Anthiyur (TK)","village":"Illippili","name":"Guruvareddiyur","area_type":"Rural","shop_code":"09FP001PN","search_string":"  anthiyur (tk) erode "},"bbox":[77.6792,11.6445,77.6792,11.6445]},{"type":"Feature","geometry":{"type":"Point","coordinates":[77.6825,11.6451]},"properties":{"district":"Erode","taluk":"Anthiyur (TK)","village":"Illippili","name":"Illippili 1","area_type":"Rural","shop_code":"09FP081PN","search_string":"  anthiyur (tk) erode "},"bbox":[77.6825,11.6451,77.6825,11.6451]},{"type":"Feature","geometry":{"type":"Point","coordinates":[77.5921,11.6462]},"properties":{"district":"Erode","taluk":"Anthiyur (TK)","village":"Ennamangalam","name":"Ennamangalam 1","area_type":"Rural","shop_code":"09FP143PN","search_string":"  anthiyur (tk) erode "},"bbox":[77.5921,11.6462,77.5921,11.6462]},{"type":"Feature","geometry":{"type":"Point","coordinates":[77.6223,11.6466]},"properties":{"district":"Erode","taluk":"Anthiyur (TK)","village":"Mathur","name":"Kundanthottam","area_type":"Rural","shop_code":"09FP089P2","search_string":"  anthiyur (tk) erode "},"bbox":[77.6223,11.6466,77.6223,11.6466]},{"type":"Feature","geometry":{"type":"Point","coordinates":[77.7341,11.6488]},"properties":{"district":"Erode","taluk":"Anthiyur (TK)","village":"Nerinjipettai","name":"Koilkaradu","area_type":"Urban","shop_code":"09FP097P2","search_string":"  anthiyur (tk) erode "},"bbox":[77.7341,11.6488,77.7341,11.6488]},{"type":"Feature","geometry":{"type":"Point","coordinates":[77.5689,11.6491]},"properties":{"district":"Erode","taluk":"Anthiyur (TK)","village":"Sankarapalayam","name":"Vattakadu","area_type":"Rural","shop_code":"09FP005P1","search_string":"  anthiyur (tk) erode "},"bbox":[77.5689,11.6491,77.5689,11.6491]},{"type":"Feature","geometry":{"type":"Point","coordinates":[77.6352,11.6502]},"properties":{"district":"Erode","taluk":"Anthiyur (TK)","village":"Vellithiruppur","name":"Viralikattur","area_type":"Rural","shop_code":"09FP003PN","search_string":"  anthiyur (tk) erode "},"bbox":[77.6352,11.6502,77.6352,11.6502]},{"type":"Feature","geometry":{"type":"Point","coordinates":[77.6545,11.6511]},"properties":{"district":"Erode","taluk":"Anthiyur (TK)","village":"Vellithiruppur","name":"Reddipalayam","area_type":"Rural","shop_code":"09FP087PY","search_string":"  anthiyur (tk) erode "},"bbox":[77.6545,11.6511,77.6545,11.6511]},{"type":"Feature","geometry":{"type":"Point","coordinates":[77.7573,11.6522]},"properties":{"district":"Erode","taluk":"Anthiyur (TK)","village":"Nerinjipettai","name":"Nerinjipettai 1","area_type":"Urban","shop_code":"09FP097PY","search_string":"  anthiyur (tk) erode "},"bbox":[77.7573,11.6522,77.7573,11.6522]},{"type":"Feature","geometry":{"type":"Point","coordinates":[77.7587,11.653]},"properties":{"district":"Erode","taluk":"Anthiyur (TK)","village":"Nerinjipettai","name":"Nerinjipettai 2","area_type":"Urban","shop_code":"09FP098PN","search_string":"  anthiyur (tk) erode "},"bbox":[77.7587,11.653,77.7587,11.653]},{"type":"Feature","geometry":{"type":"Point","coordinates":[77.6822,11.6614]},"properties":{"district":"Erode","taluk":"Anthiyur (TK)","village":"Illippili","name":"Illippili 3","area_type":"Rural","shop_code":"09FP083PN","search_string":"  anthiyur (tk) erode "},"bbox":[77.6822,11.6614,77.6822,11.6614]},{"type":"Feature","geometry":{"type":"Point","coordinates":[77.5908,11.6706]},"properties":{"district":"Erode","taluk":"Anthiyur (TK)","village":"Ennamangalam R F","name":"Kovilur","area_type":"Rural","shop_code":"09FP115PN","search_string":"  anthiyur (tk) erode "},"bbox":[77.5908,11.6706,77.5908,11.6706]},{"type":"Feature","geometry":{"type":"Point","coordinates":[77.6715,11.6748]},"properties":{"district":"Erode","taluk":"Anthiyur (TK)","village":"Illippili","name":"Illippili 2","area_type":"Rural","shop_code":"09FP082PN","search_string":"  anthiyur (tk) erode "},"bbox":[77.6715,11.6748,77.6715,11.6748]},{"type":"Feature","geometry":{"type":"Point","coordinates":[77.6511,11.6786]},"properties":{"district":"Erode","taluk":"Anthiyur (TK)","village":"Vellithiruppur","name":"Vellakarattur","area_type":"Rural","shop_code":"09FP087P1","search_string":"  anthiyur (tk) erode "},"bbox":[77.6511,11.6786,77.6511,11.6786]},{"type":"Feature","geometry":{"type":"Point","coordinates":[77.7655,11.6806]},"properties":{"district":"Erode","taluk":"Anthiyur (TK)","village":"Nerinjipettai","name":"Chinnappallam","area_type":"Urban","shop_code":"09FP099PN","search_string":"  anthiyur (tk) erode "},"bbox":[77.7655,11.6806,77.7655,11.6806]},{"type":"Feature","geometry":{"type":"Point","coordinates":[77.6703,11.6838]},"properties":{"district":"Erode","taluk":"Anthiyur (TK)","village":"Chennampatti  Murali","name":"SANTHAIPETTAI","area_type":"Rural","shop_code":"09FP150PN","search_string":"  anthiyur (tk) erode "},"bbox":[77.6703,11.6838,77.6703,11.6838]},{"type":"Feature","geometry":{"type":"Point","coordinates":[77.6585,11.6865]},"properties":{"district":"Erode","taluk":"Anthiyur (TK)","village":"Chennampatti  Murali","name":"Chennampatti (Murali)","area_type":"Rural","shop_code":"09FP077PN","search_string":"  anthiyur (tk) erode "},"bbox":[77.6585,11.6865,77.6585,11.6865]},{"type":"Feature","geometry":{"type":"Point","coordinates":[77.6785,11.7021]},"properties":{"district":"Erode","taluk":"Anthiyur (TK)","village":"Pudur","name":"Pudur","area_type":"Rural","shop_code":"09FP078PY","search_string":"  anthiyur (tk) erode "},"bbox":[77.6785,11.7021,77.6785,11.7021]},{"type":"Feature","geometry":{"type":"Point","coordinates":[77.6663,11.7076]},"properties":{"district":"Erode","taluk":"Anthiyur (TK)","village":"Komarayanur","name":"Jarathal","area_type":"Rural","shop_code":"09FP079PN","search_string":"  anthiyur (tk) erode "},"bbox":[77.6663,11.7076,77.6663,11.7076]},{"type":"Feature","geometry":{"type":"Point","coordinates":[77.6841,11.7199]},"properties":{"district":"Erode","taluk":"Anthiyur (TK)","village":"Komarayanur","name":"Pappathikattu Pudur","area_type":"Rural","shop_code":"09FP080P1","search_string":"  anthiyur (tk) erode "},"bbox":[77.6841,11.7199,77.6841,11.7199]},{"type":"Feature","geometry":{"type":"Point","coordinates":[77.6935,11.73]},"properties":{"district":"Erode","taluk":"Anthiyur (TK)","village":"Komarayanur","name":"Komarayanur","area_type":"Rural","shop_code":"09FP080PY","search_string":"  anthiyur (tk) erode "},"bbox":[77.6935,11.73,77.6935,11.73]},{"type":"Feature","geometry":{"type":"Point","coordinates":[77.5349,11.7483]},"properties":{"district":"Erode","taluk":"Anthiyur (TK)","village":"Burgur","name":"Thalakarai","area_type":"Rural","shop_code":"09FP142P1","search_string":"  anthiyur (tk) erode "},"bbox":[77.5349,11.7483,77.5349,11.7483]},{"type":"Feature","geometry":{"type":"Point","coordinates":[77.7052,11.7647]},"properties":{"district":"Erode","taluk":"Anthiyur (TK)","village":"Komarayanur","name":"Sembakottai","area_type":"Rural","shop_code":"09FP080P2","search_string":"  anthiyur (tk) erode "},"bbox":[77.7052,11.7647,77.7052,11.7647]},{"type":"Feature","geometry":{"type":"Point","coordinates":[77.5631,11.7654]},"properties":{"district":"Erode","taluk":"Anthiyur (TK)","village":"Burgur","name":"Konkadai","area_type":"Rural","shop_code":"09FP142P2","search_string":"  anthiyur (tk) erode "},"bbox":[77.5631,11.7654,77.5631,11.7654]},{"type":"Feature","geometry":{"type":"Point","coordinates":[77.563,11.7654]},"properties":{"district":"Erode","taluk":"Anthiyur (TK)","village":"Burgur North R F","name":"Burgur 2","area_type":"Rural","shop_code":"09FP142PY","search_string":"  anthiyur (tk) erode "},"bbox":[77.563,11.7654,77.563,11.7654]},{"type":"Feature","geometry":{"type":"Point","coordinates":[77.5632,11.7654]},"properties":{"district":"Erode","taluk":"Anthiyur (TK)","village":"Burgur","name":"Kovilnatham","area_type":"Rural","shop_code":"09FP142P4","search_string":"  anthiyur (tk) erode "},"bbox":[77.5632,11.7654,77.5632,11.7654]},{"type":"Feature","geometry":{"type":"Point","coordinates":[77.5633,11.7655]},"properties":{"district":"Erode","taluk":"Anthiyur (TK)","village":"Burgur","name":"Hosur","area_type":"Rural","shop_code":"09FP142P5","search_string":"  anthiyur (tk) erode "},"bbox":[77.5633,11.7655,77.5633,11.7655]},{"type":"Feature","geometry":{"type":"Point","coordinates":[77.6002,11.7829]},"properties":{"district":"Erode","taluk":"Anthiyur (TK)","village":"Burgur South R F","name":"Devarmalai","area_type":"Rural","shop_code":"09FP114PY","search_string":"  anthiyur (tk) erode "},"bbox":[77.6002,11.7829,77.6002,11.7829]},{"type":"Feature","geometry":{"type":"Point","coordinates":[77.5325,11.8012]},"properties":{"district":"Erode","taluk":"Anthiyur (TK)","village":"Burgur","name":"Bejilpalayam","area_type":"Rural","shop_code":"09FP141P1","search_string":"  anthiyur (tk) erode "},"bbox":[77.5325,11.8012,77.5325,11.8012]},{"type":"Feature","geometry":{"type":"Point","coordinates":[77.5422,11.8136]},"properties":{"district":"Erode","taluk":"Anthiyur (TK)","village":"Burgur","name":"Burgur 1","area_type":"Rural","shop_code":"09FP141PY","search_string":"  anthiyur (tk) erode "},"bbox":[77.5422,11.8136,77.5422,11.8136]},{"type":"Feature","geometry":{"type":"Point","coordinates":[77.5422,11.8137]},"properties":{"district":"Erode","taluk":"Anthiyur (TK)","village":"Thamarakkarai R F","name":"Eraddy","area_type":"Rural","shop_code":"09FP142P3","search_string":"  anthiyur (tk) erode "},"bbox":[77.5422,11.8137,77.5422,11.8137]},{"type":"Feature","geometry":{"type":"Point","coordinates":[77.5422,11.8139]},"properties":{"district":"Erode","taluk":"Anthiyur (TK)","village":"Burgur","name":"Bejilaty","area_type":"Rural","shop_code":"09FP114P1","search_string":"  anthiyur (tk) erode "},"bbox":[77.5422,11.8139,77.5422,11.8139]},{"type":"Feature","geometry":{"type":"Point","coordinates":[77.5405,11.8349]},"properties":{"district":"Erode","taluk":"Anthiyur (TK)","village":"Burgur","name":"Oosimalai","area_type":"Rural","shop_code":"09FP141P2","search_string":"  anthiyur (tk) erode "},"bbox":[77.5405,11.8349,77.5405,11.8349]},{"type":"Feature","geometry":{"type":"Point","coordinates":[77.5435,11.3984]},"properties":{"district":"Erode","taluk":"Bhavani (Tk)","village":"Manickavalasu","name":"Manickavalasu","area_type":"Rural","shop_code":"09CP075P2","search_string":"  bhavani (tk) erode "},"bbox":[77.5435,11.3984,77.5435,11.3984]},{"type":"Feature","geometry":{"type":"Point","coordinates":[77.5294,11.3986]},"properties":{"district":"Erode","taluk":"Bhavani (Tk)","village":"K Velampalayam","name":"K.Velampalayam","area_type":"Rural","shop_code":"09CP075P3","search_string":"  bhavani (tk) erode "},"bbox":[77.5294,11.3986,77.5294,11.3986]},{"type":"Feature","geometry":{"type":"Point","coordinates":[77.5633,11.4034]},"properties":{"district":"Erode","taluk":"Bhavani (Tk)","village":"Mettur","name":"Mettur","area_type":"Urban","shop_code":"09CP074P1","search_string":"  bhavani (tk) erode "},"bbox":[77.5633,11.4034,77.5633,11.4034]},{"type":"Feature","geometry":{"type":"Point","coordinates":[77.5721,11.4035]},"properties":{"district":"Erode","taluk":"Bhavani (Tk)","village":"Enjaram","name":"Enjaram","area_type":"Urban","shop_code":"09CP075PY","search_string":"  bhavani (tk) erode "},"bbox":[77.5721,11.4035,77.5721,11.4035]},{"type":"Feature","geometry":{"type":"Point","coordinates":[77.5493,11.4059]},"properties":{"district":"Erode","taluk":"Bhavani (Tk)","village":"Ayyanvalasu","name":"Ayyanvalasu","area_type":"Rural","shop_code":"09CP075P1","search_string":"  bhavani (tk) erode "},"bbox":[77.5493,11.4059,77.5493,11.4059]},{"type":"Feature","geometry":{"type":"Point","coordinates":[77.6011,11.4139]},"properties":{"district":"Erode","taluk":"Bhavani (Tk)","village":"Chettipalayam","name":"Chettipalayam","area_type":"Rural","shop_code":"09CP062PN","search_string":"  bhavani (tk) erode "},"bbox":[77.6011,11.4139,77.6011,11.4139]},{"type":"Feature","geometry":{"type":"Point","coordinates":[77.5836,11.4158]},"properties":{"district":"Erode","taluk":"Bhavani (Tk)","village":"Rettai Vaikkaal","name":"Rettai Vaikkaal","area_type":"Urban","shop_code":"09CP073P1","search_string":"  bhavani (tk) erode "},"bbox":[77.5836,11.4158,77.5836,11.4158]},{"type":"Feature","geometry":{"type":"Point","coordinates":[77.5654,11.4159]},"properties":{"district":"Erode","taluk":"Bhavani (Tk)","village":"Krishnapuram","name":"Krishnapuram","area_type":"Urban","shop_code":"09CP073PY","search_string":"  bhavani (tk) erode "},"bbox":[77.5654,11.4159,77.5654,11.4159]},{"type":"Feature","geometry":{"type":"Point","coordinates":[77.5266,11.4166]},"properties":{"district":"Erode","taluk":"Bhavani (Tk)","village":"Pachapali","name":"Pachapali","area_type":"Rural","shop_code":"09CP076PY","search_string":"  bhavani (tk) erode "},"bbox":[77.5266,11.4166,77.5266,11.4166]},{"type":"Feature","geometry":{"type":"Point","coordinates":[77.5054,11.4218]},"properties":{"district":"Erode","taluk":"Bhavani (Tk)","village":"Chandirapuram","name":"Chandirapuram","area_type":"Rural","shop_code":"09DP060PN","search_string":"  bhavani (tk) erode "},"bbox":[77.5054,11.4218,77.5054,11.4218]},{"type":"Feature","geometry":{"type":"Point","coordinates":[77.5567,11.4222]},"properties":{"district":"Erode","taluk":"Bhavani (Tk)","village":"Kavindapadi","name":"Kavindapadi - 6","area_type":"Urban","shop_code":"09CP142PN","search_string":"  bhavani (tk) erode "},"bbox":[77.5567,11.4222,77.5567,11.4222]},{"type":"Feature","geometry":{"type":"Point","coordinates":[77.5364,11.4224]},"properties":{"district":"Erode","taluk":"Bhavani (Tk)","village":"Pavandagoundanur","name":"Pavandagoundanur","area_type":"Rural","shop_code":"09CP065PN","search_string":"  bhavani (tk) erode "},"bbox":[77.5364,11.4224,77.5364,11.4224]},{"type":"Feature","geometry":{"type":"Point","coordinates":[77.5579,11.424]},"properties":{"district":"Erode","taluk":"Bhavani (Tk)","village":"Kavindapadi","name":"Kavindapadi-4","area_type":"Urban","shop_code":"09CP070P2","search_string":"  bhavani (tk) erode "},"bbox":[77.5579,11.424,77.5579,11.424]},{"type":"Feature","geometry":{"type":"Point","coordinates":[77.5601,11.4263]},"properties":{"district":"Erode","taluk":"Bhavani (Tk)","village":"Kavindapadi","name":"Kavindapadi-5","area_type":"Urban","shop_code":"09CP143PN","search_string":"  bhavani (tk) erode "},"bbox":[77.5601,11.4263,77.5601,11.4263]},{"type":"Feature","geometry":{"type":"Point","coordinates":[77.5679,11.4275]},"properties":{"district":"Erode","taluk":"Bhavani (Tk)","village":"Salangapalayam","name":"Salangapalayam","area_type":"Urban","shop_code":"09CP070P3","search_string":"  bhavani (tk) erode "},"bbox":[77.5679,11.4275,77.5679,11.4275]},{"type":"Feature","geometry":{"type":"Point","coordinates":[77.6315,11.4281]},"properties":{"district":"Erode","taluk":"Bhavani (Tk)","village":"Periyapuliyur","name":"Periyapuliyur","area_type":"Rural","shop_code":"09CP060PN","search_string":"  bhavani (tk) erode "},"bbox":[77.6315,11.4281,77.6315,11.4281]},{"type":"Feature","geometry":{"type":"Point","coordinates":[77.5721,11.4288]},"properties":{"district":"Erode","taluk":"Bhavani (Tk)","village":"Goundenpalayam","name":"Goundenpalayam","area_type":"Urban","shop_code":"09CP072PY","search_string":"  bhavani (tk) erode "},"bbox":[77.5721,11.4288,77.5721,11.4288]},{"type":"Feature","geometry":{"type":"Point","coordinates":[77.6104,11.4292]},"properties":{"district":"Erode","taluk":"Bhavani (Tk)","village":"Sevagoundanur","name":"Sevagoundanur","area_type":"Rural","shop_code":"09CP063PY","search_string":"  bhavani (tk) erode "},"bbox":[77.6104,11.4292,77.6104,11.4292]},{"type":"Feature","geometry":{"type":"Point","coordinates":[77.5905,11.4301]},"properties":{"district":"Erode","taluk":"Bhavani (Tk)","village":"Alathur","name":"Alathur","area_type":"Rural","shop_code":"09CP061P1","search_string":"  bhavani (tk) erode "},"bbox":[77.5905,11.4301,77.5905,11.4301]},{"type":"Feature","geometry":{"type":"Point","coordinates":[77.5869,11.4301]},"properties":{"district":"Erode","taluk":"Bhavani (Tk)","village":"Maranaikanur","name":"Maranaikanur","area_type":"Rural","shop_code":"09CP072P1","search_string":"  bhavani (tk) erode "},"bbox":[77.5869,11.4301,77.5869,11.4301]},{"type":"Feature","geometry":{"type":"Point","coordinates":[77.5259,11.4305]},"properties":{"district":"Erode","taluk":"Bhavani (Tk)","village":"Pattaiyakalipalayam","name":"Pattaiyakalipalayam","area_type":"Rural","shop_code":"09CP067PN","search_string":"  bhavani (tk) erode "},"bbox":[77.5259,11.4305,77.5259,11.4305]},{"type":"Feature","geometry":{"type":"Point","coordinates":[77.6434,11.4307]},"properties":{"district":"Erode","taluk":"Bhavani (Tk)","village":"Poolapalayam","name":"Poolapalayam","area_type":"Rural","shop_code":"09CP061PY","search_string":"  bhavani (tk) erode "},"bbox":[77.6434,11.4307,77.6434,11.4307]},{"type":"Feature","geometry":{"type":"Point","coordinates":[77.5593,11.4335]},"properties":{"district":"Erode","taluk":"Bhavani (Tk)","village":"Kavindapadi","name":"Kavindapadi-2","area_type":"Urban","shop_code":"09CP070PY","search_string":"  bhavani (tk) erode "},"bbox":[77.5593,11.4335,77.5593,11.4335]},{"type":"Feature","geometry":{"type":"Point","coordinates":[77.5594,11.4335]},"properties":{"district":"Erode","taluk":"Bhavani (Tk)","village":"Kavindapadi","name":"Kavindapadi-3","area_type":"Urban","shop_code":"09CP070P1","search_string":"  bhavani (tk) erode "},"bbox":[77.5594,11.4335,77.5594,11.4335]},{"type":"Feature","geometry":{"type":"Point","coordinates":[77.534,11.4353]},"properties":{"district":"Erode","taluk":"Bhavani (Tk)","village":"Panankattur","name":"Panankattur","area_type":"Rural","shop_code":"09CP066PN","search_string":"  bhavani (tk) erode "},"bbox":[77.534,11.4353,77.534,11.4353]},{"type":"Feature","geometry":{"type":"Point","coordinates":[77.5702,11.436]},"properties":{"district":"Erode","taluk":"Bhavani (Tk)","village":"Senthampalayam","name":"Senthampalayam","area_type":"Urban","shop_code":"09CP071PN","search_string":"  bhavani (tk) erode "},"bbox":[77.5702,11.436,77.5702,11.436]},{"type":"Feature","geometry":{"type":"Point","coordinates":[77.5191,11.4369]},"properties":{"district":"Erode","taluk":"Bhavani (Tk)","village":"Suriyampalayam","name":"Suriyampalayam","area_type":"Rural","shop_code":"09CP068P1","search_string":"  bhavani (tk) erode "},"bbox":[77.5191,11.4369,77.5191,11.4369]},{"type":"Feature","geometry":{"type":"Point","coordinates":[77.562,11.438]},"properties":{"district":"Erode","taluk":"Bhavani (Tk)","village":"Kavindapadi","name":"Kavindapadi Shop - 7","area_type":"Rural","shop_code":"09CP150PN","search_string":"  bhavani (tk) erode "},"bbox":[77.562,11.438,77.562,11.438]},{"type":"Feature","geometry":{"type":"Point","coordinates":[77.6836,11.4381]},"properties":{"district":"Erode","taluk":"Bhavani (Tk)","village":"Bhavani Town","name":"Bhavani Town-8","area_type":"Urban","shop_code":"09CC006PN","search_string":"  bhavani (tk) erode "},"bbox":[77.6836,11.4381,77.6836,11.4381]},{"type":"Feature","geometry":{"type":"Point","coordinates":[77.5393,11.4381]},"properties":{"district":"Erode","taluk":"Bhavani (Tk)","village":"Ayyampalayam","name":"Ayyampalayam","area_type":"Rural","shop_code":"09CP063P1","search_string":"  bhavani (tk) erode "},"bbox":[77.5393,11.4381,77.5393,11.4381]},{"type":"Feature","geometry":{"type":"Point","coordinates":[77.5518,11.4386]},"properties":{"district":"Erode","taluk":"Bhavani (Tk)","village":"Bommanpatty  Kavindapadi","name":"Bommanpatty - Kavindapadi","area_type":"Rural","shop_code":"09CP139PN","search_string":"  bhavani (tk) erode "},"bbox":[77.5518,11.4386,77.5518,11.4386]},{"type":"Feature","geometry":{"type":"Point","coordinates":[77.5105,11.4414]},"properties":{"district":"Erode","taluk":"Bhavani (Tk)","village":"Palapalayam","name":"Palappalayam","area_type":"Rural","shop_code":"09CP069PY","search_string":"  bhavani (tk) erode "},"bbox":[77.5105,11.4414,77.5105,11.4414]},{"type":"Feature","geometry":{"type":"Point","coordinates":[77.5665,11.4417]},"properties":{"district":"Erode","taluk":"Bhavani (Tk)","village":"Kavindapadi","name":"Kavindapadi-1","area_type":"Urban","shop_code":"09CP069P1","search_string":"  bhavani (tk) erode "},"bbox":[77.5665,11.4417,77.5665,11.4417]},{"type":"Feature","geometry":{"type":"Point","coordinates":[77.6821,11.4419]},"properties":{"district":"Erode","taluk":"Bhavani (Tk)","village":"Bhavani Town","name":"Bhavani Town-11","area_type":"Urban","shop_code":"09CC010PN","search_string":"  bhavani (tk) erode "},"bbox":[77.6821,11.4419,77.6821,11.4419]},{"type":"Feature","geometry":{"type":"Point","coordinates":[77.5451,11.4426]},"properties":{"district":"Erode","taluk":"Bhavani (Tk)","village":"Ayyampalayam Colony","name":"Ayyampalayam Colony","area_type":"Rural","shop_code":"09CP064PN","search_string":"  bhavani (tk) erode "},"bbox":[77.5451,11.4426,77.5451,11.4426]},{"type":"Feature","geometry":{"type":"Point","coordinates":[77.6821,11.4429]},"properties":{"district":"Erode","taluk":"Bhavani (Tk)","village":"Bhavani Town","name":"Bhavani Town-10","area_type":"Urban","shop_code":"09CC009PN","search_string":"  bhavani (tk) erode "},"bbox":[77.6821,11.4429,77.6821,11.4429]},{"type":"Feature","geometry":{"type":"Point","coordinates":[77.6802,11.443]},"properties":{"district":"Erode","taluk":"Bhavani (Tk)","village":"Bhavani Town","name":"Bhavani Town-3","area_type":"Urban","shop_code":"09CC008PY","search_string":"  bhavani (tk) erode "},"bbox":[77.6802,11.443,77.6802,11.443]},{"type":"Feature","geometry":{"type":"Point","coordinates":[77.5665,11.4437]},"properties":{"district":"Erode","taluk":"Bhavani (Tk)","village":"P Mettupalayam","name":"P.Mettupalayam 3","area_type":"Urban","shop_code":"09DP124PN","search_string":"  bhavani (tk) erode "},"bbox":[77.5665,11.4437,77.5665,11.4437]},{"type":"Feature","geometry":{"type":"Point","coordinates":[77.6789,11.4439]},"properties":{"district":"Erode","taluk":"Bhavani (Tk)","village":"Bhavani Town","name":"Bhavani Town-4","area_type":"Urban","shop_code":"09CC008P1","search_string":"  bhavani (tk) erode "},"bbox":[77.6789,11.4439,77.6789,11.4439]},{"type":"Feature","geometry":{"type":"Point","coordinates":[77.6845,11.4441]},"properties":{"district":"Erode","taluk":"Bhavani (Tk)","village":"Bhavani Town","name":"Bhavani Town-7","area_type":"Urban","shop_code":"09CC005PN","search_string":"  bhavani (tk) erode "},"bbox":[77.6845,11.4441,77.6845,11.4441]},{"type":"Feature","geometry":{"type":"Point","coordinates":[77.6846,11.4443]},"properties":{"district":"Erode","taluk":"Bhavani (Tk)","village":"Bhavani Town","name":"Bhavani Town-14","area_type":"Urban","shop_code":"09CC007PY","search_string":"  bhavani (tk) erode "},"bbox":[77.6846,11.4443,77.6846,11.4443]},{"type":"Feature","geometry":{"type":"Point","coordinates":[77.6859,11.4472]},"properties":{"district":"Erode","taluk":"Bhavani (Tk)","village":"Devapuram","name":"Devapuram","area_type":"Urban","shop_code":"09CP033PN","search_string":"  bhavani (tk) erode "},"bbox":[77.6859,11.4472,77.6859,11.4472]},{"type":"Feature","geometry":{"type":"Point","coordinates":[77.6813,11.4474]},"properties":{"district":"Erode","taluk":"Bhavani (Tk)","village":"Bhavani","name":"Bapcms Bhavani","area_type":"Urban","shop_code":"09CP144PN","search_string":"  bhavani (tk) erode "},"bbox":[77.6813,11.4474,77.6813,11.4474]},{"type":"Feature","geometry":{"type":"Point","coordinates":[77.556,11.4476]},"properties":{"district":"Erode","taluk":"Bhavani (Tk)","village":"Nalligoundanur","name":"Nalligoundanur","area_type":"Rural","shop_code":"09CP138PN","search_string":"  bhavani (tk) erode "},"bbox":[77.556,11.4476,77.556,11.4476]},{"type":"Feature","geometry":{"type":"Point","coordinates":[77.6825,11.4481]},"properties":{"district":"Erode","taluk":"Bhavani (Tk)","village":"Bhavani Town","name":"Bhavani Town-1","area_type":"Urban","shop_code":"09CC007P1","search_string":"  bhavani (tk) erode "},"bbox":[77.6825,11.4481,77.6825,11.4481]},{"type":"Feature","geometry":{"type":"Point","coordinates":[77.5681,11.4487]},"properties":{"district":"Erode","taluk":"Bhavani (Tk)","village":"P Mettupalayam","name":"P.Mettupalayam 1","area_type":"Urban","shop_code":"09CP147PN","search_string":"  bhavani (tk) erode "},"bbox":[77.5681,11.4487,77.5681,11.4487]},{"type":"Feature","geometry":{"type":"Point","coordinates":[77.5679,11.4503]},"properties":{"district":"Erode","taluk":"Bhavani (Tk)","village":"P Mettupalayam","name":"P.Mettupalayam 2","area_type":"Urban","shop_code":"09CP148PN","search_string":"  bhavani (tk) erode "},"bbox":[77.5679,11.4503,77.5679,11.4503]},{"type":"Feature","geometry":{"type":"Point","coordinates":[77.6843,11.4508]},"properties":{"district":"Erode","taluk":"Bhavani (Tk)","village":"Bhavani Town","name":"Bhavani Town-3","area_type":"Urban","shop_code":"09CP036PN","search_string":"  bhavani (tk) erode "},"bbox":[77.6843,11.4508,77.6843,11.4508]},{"type":"Feature","geometry":{"type":"Point","coordinates":[77.683,11.4513]},"properties":{"district":"Erode","taluk":"Bhavani (Tk)","village":"Bhavani Town","name":"Bhavani Town-2","area_type":"Urban","shop_code":"09CP035PN","search_string":"  bhavani (tk) erode "},"bbox":[77.683,11.4513,77.683,11.4513]},{"type":"Feature","geometry":{"type":"Point","coordinates":[77.6847,11.4531]},"properties":{"district":"Erode","taluk":"Bhavani (Tk)","village":"Bhavani Town","name":"Bhavani Town-1","area_type":"Urban","shop_code":"09CP034PN","search_string":"  bhavani (tk) erode "},"bbox":[77.6847,11.4531,77.6847,11.4531]},{"type":"Feature","geometry":{"type":"Point","coordinates":[77.6879,11.4544]},"properties":{"district":"Erode","taluk":"Bhavani (Tk)","village":"Bhavani Town","name":"Bhavani Town-4","area_type":"Urban","shop_code":"09CP037PN","search_string":"  bhavani (tk) erode "},"bbox":[77.6879,11.4544,77.6879,11.4544]},{"type":"Feature","geometry":{"type":"Point","coordinates":[77.6269,11.4547]},"properties":{"district":"Erode","taluk":"Bhavani (Tk)","village":"Kunduchettipalayam","name":"Kunduchettipalayam","area_type":"Rural","shop_code":"09CP146P1","search_string":"  bhavani (tk) erode "},"bbox":[77.6269,11.4547,77.6269,11.4547]},{"type":"Feature","geometry":{"type":"Point","coordinates":[77.6145,11.4551]},"properties":{"district":"Erode","taluk":"Bhavani (Tk)","village":"Vairamangalam","name":"Vairamangalam","area_type":"Rural","shop_code":"09CP059PY","search_string":"  bhavani (tk) erode "},"bbox":[77.6145,11.4551,77.6145,11.4551]},{"type":"Feature","geometry":{"type":"Point","coordinates":[77.5958,11.4551]},"properties":{"district":"Erode","taluk":"Bhavani (Tk)","village":"Goundenpudur","name":"Goundenpudur","area_type":"Rural","shop_code":"09CP058PN","search_string":"  bhavani (tk) erode "},"bbox":[77.5958,11.4551,77.5958,11.4551]},{"type":"Feature","geometry":{"type":"Point","coordinates":[77.6899,11.4584]},"properties":{"district":"Erode","taluk":"Bhavani (Tk)","village":"Natarajapuram","name":"Natarajapuram","area_type":"Rural","shop_code":"09CP145P1","search_string":"  bhavani (tk) erode "},"bbox":[77.6899,11.4584,77.6899,11.4584]},{"type":"Feature","geometry":{"type":"Point","coordinates":[77.5882,11.4586]},"properties":{"district":"Erode","taluk":"Bhavani (Tk)","village":"Kuttipalayam","name":"Kuttipalayam","area_type":"Rural","shop_code":"09DZ048PN","search_string":"  bhavani (tk) erode "},"bbox":[77.5882,11.4586,77.5882,11.4586]},{"type":"Feature","geometry":{"type":"Point","coordinates":[77.5118,11.4598]},"properties":{"district":"Erode","taluk":"Bhavani (Tk)","village":"Odathurai","name":"Odathurai","area_type":"Rural","shop_code":"09CP068PY","search_string":"  bhavani (tk) erode "},"bbox":[77.5118,11.4598,77.5118,11.4598]},{"type":"Feature","geometry":{"type":"Point","coordinates":[77.563,11.4612]},"properties":{"district":"Erode","taluk":"Bhavani (Tk)","village":"M Goundenpalayam","name":"M.Goundenpalayam","area_type":"Urban","shop_code":"09DP007PN","search_string":"  bhavani (tk) erode "},"bbox":[77.563,11.4612,77.563,11.4612]},{"type":"Feature","geometry":{"type":"Point","coordinates":[77.6628,11.4613]},"properties":{"district":"Erode","taluk":"Bhavani (Tk)","village":"Thippichettipalayam","name":"Thippichettipalayam","area_type":"Rural","shop_code":"09CP042PY","search_string":"  bhavani (tk) erode "},"bbox":[77.6628,11.4613,77.6628,11.4613]},{"type":"Feature","geometry":{"type":"Point","coordinates":[77.6764,11.4617]},"properties":{"district":"Erode","taluk":"Bhavani (Tk)","village":"Kadayampatti","name":"Kadayampatti","area_type":"Rural","shop_code":"09CP054PN","search_string":"  bhavani (tk) erode "},"bbox":[77.6764,11.4617,77.6764,11.4617]},{"type":"Feature","geometry":{"type":"Point","coordinates":[77.6929,11.4622]},"properties":{"district":"Erode","taluk":"Bhavani (Tk)","village":"Kuruppanaickanpalayam","name":"Rotary Colony","area_type":"Rural","shop_code":"09CP149PN","search_string":"  bhavani (tk) erode "},"bbox":[77.6929,11.4622,77.6929,11.4622]},{"type":"Feature","geometry":{"type":"Point","coordinates":[77.6182,11.4623]},"properties":{"district":"Erode","taluk":"Bhavani (Tk)","village":"Dhalavaipettai","name":"Dhalavaipettai","area_type":"Rural","shop_code":"09CP045PN","search_string":"  bhavani (tk) erode "},"bbox":[77.6182,11.4623,77.6182,11.4623]},{"type":"Feature","geometry":{"type":"Point","coordinates":[77.5744,11.4629]},"properties":{"district":"Erode","taluk":"Bhavani (Tk)","village":"Seraiyampalayam","name":"Seriampalayam","area_type":"Rural","shop_code":"09DP048P1","search_string":"  bhavani (tk) erode "},"bbox":[77.5744,11.4629,77.5744,11.4629]},{"type":"Feature","geometry":{"type":"Point","coordinates":[77.643,11.463]},"properties":{"district":"Erode","taluk":"Bhavani (Tk)","village":"Chinnapuliyur","name":"Chinnapuliyur","area_type":"Rural","shop_code":"09CP059P1","search_string":"  bhavani (tk) erode "},"bbox":[77.643,11.463,77.643,11.463]},{"type":"Feature","geometry":{"type":"Point","coordinates":[77.6,11.4632]},"properties":{"district":"Erode","taluk":"Bhavani (Tk)","village":"Orichery","name":"Orichery","area_type":"Rural","shop_code":"09CP048PN","search_string":"  bhavani (tk) erode "},"bbox":[77.6,11.4632,77.6,11.4632]},{"type":"Feature","geometry":{"type":"Point","coordinates":[77.6938,11.4647]},"properties":{"district":"Erode","taluk":"Bhavani (Tk)","village":"Kuruppanaickanpalayam","name":"Kuruppanaickanpalayam","area_type":"Rural","shop_code":"09CP051PY","search_string":"  bhavani (tk) erode "},"bbox":[77.6938,11.4647,77.6938,11.4647]},{"type":"Feature","geometry":{"type":"Point","coordinates":[77.564,11.4647]},"properties":{"district":"Erode","taluk":"Bhavani (Tk)","village":"Perunthalaiyur","name":"Perunthalaiyur","area_type":"Rural","shop_code":"09DP048PY","search_string":"  bhavani (tk) erode "},"bbox":[77.564,11.4647,77.564,11.4647]},{"type":"Feature","geometry":{"type":"Point","coordinates":[77.6053,11.4652]},"properties":{"district":"Erode","taluk":"Bhavani (Tk)","village":"Orichery","name":"Orichery-2","area_type":"Rural","shop_code":"09CP145PY","search_string":"  bhavani (tk) erode "},"bbox":[77.6053,11.4652,77.6053,11.4652]},{"type":"Feature","geometry":{"type":"Point","coordinates":[77.6287,11.4659]},"properties":{"district":"Erode","taluk":"Bhavani (Tk)","village":"Periyamolapalayam","name":"Periyamolapalayam","area_type":"Rural","shop_code":"09CP146P2","search_string":"  bhavani (tk) erode "},"bbox":[77.6287,11.4659,77.6287,11.4659]},{"type":"Feature","geometry":{"type":"Point","coordinates":[77.6439,11.4679]},"properties":{"district":"Erode","taluk":"Bhavani (Tk)","village":"Jambai","name":"Jambai-1","area_type":"Urban","shop_code":"09CP042P1","search_string":"  bhavani (tk) erode "},"bbox":[77.6439,11.4679,77.6439,11.4679]},{"type":"Feature","geometry":{"type":"Point","coordinates":[77.6423,11.4689]},"properties":{"district":"Erode","taluk":"Bhavani (Tk)","village":"Jambai","name":"Jambai-2","area_type":"Urban","shop_code":"09CP044PN","search_string":"  bhavani (tk) erode "},"bbox":[77.6423,11.4689,77.6423,11.4689]},{"type":"Feature","geometry":{"type":"Point","coordinates":[77.5317,11.4702]},"properties":{"district":"Erode","taluk":"Bhavani (Tk)","village":"Ponnachiputhur","name":"Ponnachipudur","area_type":"Urban","shop_code":"09CR014PN","search_string":"  bhavani (tk) erode "},"bbox":[77.5317,11.4702,77.5317,11.4702]},{"type":"Feature","geometry":{"type":"Point","coordinates":[77.5771,11.4708]},"properties":{"district":"Erode","taluk":"Bhavani (Tk)","village":"Appakkudal","name":"Appakkudal","area_type":"Rural","shop_code":"09CP131PN","search_string":"  bhavani (tk) erode "},"bbox":[77.5771,11.4708,77.5771,11.4708]},{"type":"Feature","geometry":{"type":"Point","coordinates":[77.6045,11.4713]},"properties":{"district":"Erode","taluk":"Bhavani (Tk)","village":"Malliyur","name":"Malliyur","area_type":"Rural","shop_code":"09CP049PY","search_string":"  bhavani (tk) erode "},"bbox":[77.6045,11.4713,77.6045,11.4713]},{"type":"Feature","geometry":{"type":"Point","coordinates":[77.6688,11.4756]},"properties":{"district":"Erode","taluk":"Bhavani (Tk)","village":"Thottipalayam","name":"Thottipalayam","area_type":"Rural","shop_code":"09CP053PY","search_string":"  bhavani (tk) erode "},"bbox":[77.6688,11.4756,77.6688,11.4756]},{"type":"Feature","geometry":{"type":"Point","coordinates":[77.5783,11.477]},"properties":{"district":"Erode","taluk":"Bhavani (Tk)","village":"Appakkudal Nallroad","name":"Appakkudal Nallroad","area_type":"Urban","shop_code":"09CP046PN","search_string":"  bhavani (tk) erode "},"bbox":[77.5783,11.477,77.5783,11.477]},{"type":"Feature","geometry":{"type":"Point","coordinates":[77.5721,11.4784]},"properties":{"district":"Erode","taluk":"Bhavani (Tk)","village":"Sakthi Nagar","name":"Sakthi Nagar","area_type":"Rural","shop_code":"09CP038PN","search_string":"  bhavani (tk) erode "},"bbox":[77.5721,11.4784,77.5721,11.4784]},{"type":"Feature","geometry":{"type":"Point","coordinates":[77.697,11.4813]},"properties":{"district":"Erode","taluk":"Bhavani (Tk)","village":"Urachikottai","name":"Urachikottai","area_type":"Rural","shop_code":"09CP050PN","search_string":"  bhavani (tk) erode "},"bbox":[77.697,11.4813,77.697,11.4813]},{"type":"Feature","geometry":{"type":"Point","coordinates":[77.5782,11.4836]},"properties":{"district":"Erode","taluk":"Bhavani (Tk)","village":"A Pudupalayam","name":"A.Pudupalayam","area_type":"Rural","shop_code":"09CP047PN","search_string":"  bhavani (tk) erode "},"bbox":[77.5782,11.4836,77.5782,11.4836]},{"type":"Feature","geometry":{"type":"Point","coordinates":[77.6188,11.4869]},"properties":{"district":"Erode","taluk":"Bhavani (Tk)","village":"Punnam","name":"Punnam-1","area_type":"Rural","shop_code":"09CP055PY","search_string":"  bhavani (tk) erode "},"bbox":[77.6188,11.4869,77.6188,11.4869]},{"type":"Feature","geometry":{"type":"Point","coordinates":[77.6626,11.4869]},"properties":{"district":"Erode","taluk":"Bhavani (Tk)","village":"Selambagoundanpalayam","name":"Selambagoundanpalayam","area_type":"Rural","shop_code":"09CP053P1","search_string":"  bhavani (tk) erode "},"bbox":[77.6626,11.4869,77.6626,11.4869]},{"type":"Feature","geometry":{"type":"Point","coordinates":[77.6521,11.4884]},"properties":{"district":"Erode","taluk":"Bhavani (Tk)","village":"Chinniyampalayam","name":"Chinniyampalayam","area_type":"Rural","shop_code":"09CP043PN","search_string":"  bhavani (tk) erode "},"bbox":[77.6521,11.4884,77.6521,11.4884]},{"type":"Feature","geometry":{"type":"Point","coordinates":[77.5946,11.4906]},"properties":{"district":"Erode","taluk":"Bhavani (Tk)","village":"Nallanaickanur","name":"Kakachikaradu","area_type":"Rural","shop_code":"09CP057PN","search_string":"  bhavani (tk) erode "},"bbox":[77.5946,11.4906,77.5946,11.4906]},{"type":"Feature","geometry":{"type":"Point","coordinates":[77.5788,11.4938]},"properties":{"district":"Erode","taluk":"Bhavani (Tk)","village":"A Karattupalayam","name":"A.Karattupalayam","area_type":"Rural","shop_code":"09CP132PN","search_string":"  bhavani (tk) erode "},"bbox":[77.5788,11.4938,77.5788,11.4938]},{"type":"Feature","geometry":{"type":"Point","coordinates":[77.7088,11.494]},"properties":{"district":"Erode","taluk":"Bhavani (Tk)","village":"Varathanallur","name":"Varathanallur","area_type":"Rural","shop_code":"09CP052PY","search_string":"  bhavani (tk) erode "},"bbox":[77.7088,11.494,77.7088,11.494]},{"type":"Feature","geometry":{"type":"Point","coordinates":[77.6353,11.5007]},"properties":{"district":"Erode","taluk":"Bhavani (Tk)","village":"Muthugoundanur","name":"Muthugoundanur","area_type":"Rural","shop_code":"09CP055P1","search_string":"  bhavani (tk) erode "},"bbox":[77.6353,11.5007,77.6353,11.5007]},{"type":"Feature","geometry":{"type":"Point","coordinates":[77.6127,11.5037]},"properties":{"district":"Erode","taluk":"Bhavani (Tk)","village":"Punnam","name":"Punnam-2","area_type":"Rural","shop_code":"09CP056PN","search_string":"  bhavani (tk) erode "},"bbox":[77.6127,11.5037,77.6127,11.5037]},{"type":"Feature","geometry":{"type":"Point","coordinates":[77.6841,11.5043]},"properties":{"district":"Erode","taluk":"Bhavani (Tk)","village":"Thalakulam","name":"Thalakulam","area_type":"Rural","shop_code":"09CP051P1","search_string":"  bhavani (tk) erode "},"bbox":[77.6841,11.5043,77.6841,11.5043]},{"type":"Feature","geometry":{"type":"Point","coordinates":[77.7008,11.5132]},"properties":{"district":"Erode","taluk":"Bhavani (Tk)","village":"Coolikaranpalayam","name":"Coolikaranpalayam","area_type":"Rural","shop_code":"09CP146PY","search_string":"  bhavani (tk) erode "},"bbox":[77.7008,11.5132,77.7008,11.5132]},{"type":"Feature","geometry":{"type":"Point","coordinates":[77.7254,11.5138]},"properties":{"district":"Erode","taluk":"Bhavani (Tk)","village":"Sanniyasipatti","name":"Sanniyasipatti","area_type":"Rural","shop_code":"09CP052P1","search_string":"  bhavani (tk) erode "},"bbox":[77.7254,11.5138,77.7254,11.5138]},{"type":"Feature","geometry":{"type":"Point","coordinates":[77.6801,11.5171]},"properties":{"district":"Erode","taluk":"Bhavani (Tk)","village":"Kattur","name":"Kattur","area_type":"Rural","shop_code":"09CD004PN","search_string":"  bhavani (tk) erode "},"bbox":[77.6801,11.5171,77.6801,11.5171]},{"type":"Feature","geometry":{"type":"Point","coordinates":[77.6539,11.5182]},"properties":{"district":"Erode","taluk":"Bhavani (Tk)","village":"Kannadipalayam","name":"Kannadipalayam","area_type":"Rural","shop_code":"09CD001PN","search_string":"  bhavani (tk) erode "},"bbox":[77.6539,11.5182,77.6539,11.5182]},{"type":"Feature","geometry":{"type":"Point","coordinates":[77.7042,11.5224]},"properties":{"district":"Erode","taluk":"Bhavani (Tk)","village":"Kuppichipalayam","name":"Kuttaimuniappankovil","area_type":"Rural","shop_code":"09CP123PN","search_string":"  bhavani (tk) erode "},"bbox":[77.7042,11.5224,77.7042,11.5224]},{"type":"Feature","geometry":{"type":"Point","coordinates":[77.6791,11.5245]},"properties":{"district":"Erode","taluk":"Bhavani (Tk)","village":"Mylambadi","name":"Mylambadi","area_type":"Rural","shop_code":"09CD003PN","search_string":"  bhavani (tk) erode "},"bbox":[77.6791,11.5245,77.6791,11.5245]},{"type":"Feature","geometry":{"type":"Point","coordinates":[77.6193,11.5245]},"properties":{"district":"Erode","taluk":"Bhavani (Tk)","village":"Bhavani","name":"PICHANUR","area_type":"Rural","shop_code":"09CP125PN","search_string":"  bhavani (tk) erode "},"bbox":[77.6193,11.5245,77.6193,11.5245]},{"type":"Feature","geometry":{"type":"Point","coordinates":[77.7245,11.5252]},"properties":{"district":"Erode","taluk":"Bhavani (Tk)","village":"Koothampatty","name":"Koothampatty","area_type":"Rural","shop_code":"09CP122PN","search_string":"  bhavani (tk) erode "},"bbox":[77.7245,11.5252,77.7245,11.5252]},{"type":"Feature","geometry":{"type":"Point","coordinates":[77.6299,11.526]},"properties":{"district":"Erode","taluk":"Bhavani (Tk)","village":"Paruvachi","name":"Paruvachi","area_type":"Rural","shop_code":"09CP049P1","search_string":"  bhavani (tk) erode "},"bbox":[77.6299,11.526,77.6299,11.526]},{"type":"Feature","geometry":{"type":"Point","coordinates":[77.7073,11.5315]},"properties":{"district":"Erode","taluk":"Bhavani (Tk)","village":"Kuppichipalayam","name":"Kuppichipalayam","area_type":"Rural","shop_code":"09CP121PN","search_string":"  bhavani (tk) erode "},"bbox":[77.7073,11.5315,77.7073,11.5315]},{"type":"Feature","geometry":{"type":"Point","coordinates":[77.6638,11.5359]},"properties":{"district":"Erode","taluk":"Bhavani (Tk)","village":"Sanarpalayam","name":"Sanarpalayam","area_type":"Rural","shop_code":"09CD002PN","search_string":"  bhavani (tk) erode "},"bbox":[77.6638,11.5359,77.6638,11.5359]},{"type":"Feature","geometry":{"type":"Point","coordinates":[77.6374,11.5382]},"properties":{"district":"Erode","taluk":"Bhavani (Tk)","village":"Ammanpalayam","name":"Ammanpalayam","area_type":"Rural","shop_code":"09CP141PN","search_string":"  bhavani (tk) erode "},"bbox":[77.6374,11.5382,77.6374,11.5382]},{"type":"Feature","geometry":{"type":"Point","coordinates":[77.7241,11.5421]},"properties":{"district":"Erode","taluk":"Bhavani (Tk)","village":"Kesarimangalam","name":"Kesarimangalam","area_type":"Rural","shop_code":"09CP127PN","search_string":"  bhavani (tk) erode "},"bbox":[77.7241,11.5421,77.7241,11.5421]},{"type":"Feature","geometry":{"type":"Point","coordinates":[77.6919,11.5444]},"properties":{"district":"Erode","taluk":"Bhavani (Tk)","village":"Kalpavi","name":"Kalpavi","area_type":"Rural","shop_code":"09CP128PN","search_string":"  bhavani (tk) erode "},"bbox":[77.6919,11.5444,77.6919,11.5444]},{"type":"Feature","geometry":{"type":"Point","coordinates":[77.6584,11.548]},"properties":{"district":"Erode","taluk":"Bhavani (Tk)","village":"Koonackapalayam","name":"Koonackapalayam","area_type":"Rural","shop_code":"09CP106PY","search_string":"  bhavani (tk) erode "},"bbox":[77.6584,11.548,77.6584,11.548]},{"type":"Feature","geometry":{"type":"Point","coordinates":[77.7185,11.5491]},"properties":{"district":"Erode","taluk":"Bhavani (Tk)","village":"Chithar","name":"Chithar","area_type":"Urban","shop_code":"09CP124PN","search_string":"  bhavani (tk) erode "},"bbox":[77.7185,11.5491,77.7185,11.5491]},{"type":"Feature","geometry":{"type":"Point","coordinates":[77.6344,11.5554]},"properties":{"district":"Erode","taluk":"Bhavani (Tk)","village":"Thandampalayam","name":"Thandampalayam","area_type":"Rural","shop_code":"09CP095PN","search_string":"  bhavani (tk) erode "},"bbox":[77.6344,11.5554,77.6344,11.5554]},{"type":"Feature","geometry":{"type":"Point","coordinates":[77.6937,11.5592]},"properties":{"district":"Erode","taluk":"Bhavani (Tk)","village":"Kattur","name":"Kattur","area_type":"Rural","shop_code":"09CP113PN","search_string":"  bhavani (tk) erode "},"bbox":[77.6937,11.5592,77.6937,11.5592]},{"type":"Feature","geometry":{"type":"Point","coordinates":[77.658,11.5593]},"properties":{"district":"Erode","taluk":"Bhavani (Tk)","village":"Olagadam","name":"Olagadam-3","area_type":"Urban","shop_code":"09CP104P1","search_string":"  bhavani (tk) erode "},"bbox":[77.658,11.5593,77.658,11.5593]},{"type":"Feature","geometry":{"type":"Point","coordinates":[77.7078,11.5595]},"properties":{"district":"Erode","taluk":"Bhavani (Tk)","village":"Chinnakurumbapalayam","name":"Chinnakurumbapalayam","area_type":"Rural","shop_code":"09CP112PN","search_string":"  bhavani (tk) erode "},"bbox":[77.7078,11.5595,77.7078,11.5595]},{"type":"Feature","geometry":{"type":"Point","coordinates":[77.7313,11.5612]},"properties":{"district":"Erode","taluk":"Bhavani (Tk)","village":"Kadappanallur","name":"Kadappanallur","area_type":"Rural","shop_code":"09CP107P2","search_string":"  bhavani (tk) erode "},"bbox":[77.7313,11.5612,77.7313,11.5612]},{"type":"Feature","geometry":{"type":"Point","coordinates":[77.6422,11.5664]},"properties":{"district":"Erode","taluk":"Bhavani (Tk)","village":"Olagadam","name":"Olagadam-2","area_type":"Urban","shop_code":"09CP093P1","search_string":"  bhavani (tk) erode "},"bbox":[77.6422,11.5664,77.6422,11.5664]},{"type":"Feature","geometry":{"type":"Point","coordinates":[77.6422,11.5666]},"properties":{"district":"Erode","taluk":"Bhavani (Tk)","village":"Olagadam","name":"Olagadam-1","area_type":"Urban","shop_code":"09CP076P1","search_string":"  bhavani (tk) erode "},"bbox":[77.6422,11.5666,77.6422,11.5666]},{"type":"Feature","geometry":{"type":"Point","coordinates":[77.7116,11.5688]},"properties":{"district":"Erode","taluk":"Bhavani (Tk)","village":"Manickampalayam","name":"Manickampalayam","area_type":"Rural","shop_code":"09CP110PN","search_string":"  bhavani (tk) erode "},"bbox":[77.7116,11.5688,77.7116,11.5688]},{"type":"Feature","geometry":{"type":"Point","coordinates":[77.6971,11.5699]},"properties":{"district":"Erode","taluk":"Bhavani (Tk)","village":"Kurichi","name":"Kurichi-2","area_type":"Rural","shop_code":"09CP108P1","search_string":"  bhavani (tk) erode "},"bbox":[77.6971,11.5699,77.6971,11.5699]},{"type":"Feature","geometry":{"type":"Point","coordinates":[77.6961,11.5715]},"properties":{"district":"Erode","taluk":"Bhavani (Tk)","village":"Kurichi","name":"Kurichi","area_type":"Rural","shop_code":"09CP108PY","search_string":"  bhavani (tk) erode "},"bbox":[77.6961,11.5715,77.6961,11.5715]},{"type":"Feature","geometry":{"type":"Point","coordinates":[77.6719,11.5725]},"properties":{"district":"Erode","taluk":"Bhavani (Tk)","village":"Kolandapalayam","name":"Kolandapalayam","area_type":"Rural","shop_code":"09CP104PY","search_string":"  bhavani (tk) erode "},"bbox":[77.6719,11.5725,77.6719,11.5725]},{"type":"Feature","geometry":{"type":"Point","coordinates":[77.7266,11.573]},"properties":{"district":"Erode","taluk":"Bhavani (Tk)","village":"Kuthiraikalmedu","name":"Kuthiraikalmedu","area_type":"Rural","shop_code":"09CE001PN","search_string":"  bhavani (tk) erode "},"bbox":[77.7266,11.573,77.7266,11.573]},{"type":"Feature","geometry":{"type":"Point","coordinates":[77.662,11.5814]},"properties":{"district":"Erode","taluk":"Bhavani (Tk)","village":"Nagireddipalayam","name":"Nagireddipalayam","area_type":"Rural","shop_code":"09CP093PY","search_string":"  bhavani (tk) erode "},"bbox":[77.662,11.5814,77.662,11.5814]},{"type":"Feature","geometry":{"type":"Point","coordinates":[77.724,11.5841]},"properties":{"district":"Erode","taluk":"Bhavani (Tk)","village":"Anandampalayam","name":"Anandampalayam","area_type":"Rural","shop_code":"09CP107PY","search_string":"  bhavani (tk) erode "},"bbox":[77.724,11.5841,77.724,11.5841]},{"type":"Feature","geometry":{"type":"Point","coordinates":[77.7182,11.5853]},"properties":{"district":"Erode","taluk":"Bhavani (Tk)","village":"Singampettai","name":"Singampettai-2","area_type":"Rural","shop_code":"09CP106P1","search_string":"  bhavani (tk) erode "},"bbox":[77.7182,11.5853,77.7182,11.5853]},{"type":"Feature","geometry":{"type":"Point","coordinates":[77.693,11.5887]},"properties":{"district":"Erode","taluk":"Bhavani (Tk)","village":"Koochikallur","name":"Koochikallur","area_type":"Rural","shop_code":"09CP109P1","search_string":"  bhavani (tk) erode "},"bbox":[77.693,11.5887,77.693,11.5887]},{"type":"Feature","geometry":{"type":"Point","coordinates":[77.7313,11.598]},"properties":{"district":"Erode","taluk":"Bhavani (Tk)","village":"Singampettai","name":"Singampettai-1","area_type":"Rural","shop_code":"09CP107P1","search_string":"  bhavani (tk) erode "},"bbox":[77.7313,11.598,77.7313,11.598]},{"type":"Feature","geometry":{"type":"Point","coordinates":[77.6996,11.6039]},"properties":{"district":"Erode","taluk":"Bhavani (Tk)","village":"Selligoundanur","name":"Selligoundanur","area_type":"Rural","shop_code":"09CP109PY","search_string":"  bhavani (tk) erode "},"bbox":[77.6996,11.6039,77.6996,11.6039]},{"type":"Feature","geometry":{"type":"Point","coordinates":[77.6184,11.2903]},"properties":{"district":"Erode","taluk":"Erode (Tk)","village":"Pudhur","name":"Pichandampalayam","area_type":"Rural","shop_code":"09AP092PY","search_string":"  erode (tk) erode "},"bbox":[77.6184,11.2903,77.6184,11.2903]},{"type":"Feature","geometry":{"type":"Point","coordinates":[77.6889,11.2923]},"properties":{"district":"Erode","taluk":"Erode (Tk)","village":"Kasipalayam","name":"Muthampalayam","area_type":"Urban","shop_code":"09AP036PN","search_string":"  erode (tk) erode "},"bbox":[77.6889,11.2923,77.6889,11.2923]},{"type":"Feature","geometry":{"type":"Point","coordinates":[77.7019,11.2935]},"properties":{"district":"Erode","taluk":"Erode (Tk)","village":"Kasipalayam","name":"Annai Sathya Nagar","area_type":"Urban","shop_code":"09AP035P1","search_string":"  erode (tk) erode "},"bbox":[77.7019,11.2935,77.7019,11.2935]},{"type":"Feature","geometry":{"type":"Point","coordinates":[77.6959,11.294]},"properties":{"district":"Erode","taluk":"Erode (Tk)","village":"Kasipalayam","name":"Senapathipalayam","area_type":"Urban","shop_code":"09AP160PN","search_string":"  erode (tk) erode "},"bbox":[77.6959,11.294,77.6959,11.294]},{"type":"Feature","geometry":{"type":"Point","coordinates":[77.6569,11.297]},"properties":{"district":"Erode","taluk":"Erode (Tk)","village":"Pudhur","name":"Veppampalayam","area_type":"Rural","shop_code":"09AP091PN","search_string":"  erode (tk) erode "},"bbox":[77.6569,11.297,77.6569,11.297]},{"type":"Feature","geometry":{"type":"Point","coordinates":[77.6247,11.2979]},"properties":{"district":"Erode","taluk":"Erode (Tk)","village":"Thottani","name":"Thottani","area_type":"Rural","shop_code":"09AP029PN","search_string":"  erode (tk) erode "},"bbox":[77.6247,11.2979,77.6247,11.2979]},{"type":"Feature","geometry":{"type":"Point","coordinates":[77.7128,11.2979]},"properties":{"district":"Erode","taluk":"Erode (Tk)","village":"Kasipalayam","name":"Periasadayampalayam","area_type":"Urban","shop_code":"09AP035P2","search_string":"  erode (tk) erode "},"bbox":[77.7128,11.2979,77.7128,11.2979]},{"type":"Feature","geometry":{"type":"Point","coordinates":[77.7214,11.3035]},"properties":{"district":"Erode","taluk":"Erode (Tk)","village":"Kasipalayam","name":"Thiruvalluvar Nagar","area_type":"Urban","shop_code":"09AB029PN","search_string":"  erode (tk) erode "},"bbox":[77.7214,11.3035,77.7214,11.3035]},{"type":"Feature","geometry":{"type":"Point","coordinates":[77.6444,11.305]},"properties":{"district":"Erode","taluk":"Erode (Tk)","village":"Kathirampatti","name":"Kathirampatti","area_type":"Rural","shop_code":"09AP030PN","search_string":"  erode (tk) erode "},"bbox":[77.6444,11.305,77.6444,11.305]},{"type":"Feature","geometry":{"type":"Point","coordinates":[77.7221,11.3078]},"properties":{"district":"Erode","taluk":"Erode (Tk)","village":"Kasipalayam","name":"Apachi Nagar","area_type":"Urban","shop_code":"09AB027PN","search_string":"  erode (tk) erode "},"bbox":[77.7221,11.3078,77.7221,11.3078]},{"type":"Feature","geometry":{"type":"Point","coordinates":[77.6229,11.3104]},"properties":{"district":"Erode","taluk":"Erode (Tk)","village":"Coorapalayam","name":"Coorapalayam","area_type":"Rural","shop_code":"09AP031PY","search_string":"  erode (tk) erode "},"bbox":[77.6229,11.3104,77.6229,11.3104]},{"type":"Feature","geometry":{"type":"Point","coordinates":[77.705,11.3105]},"properties":{"district":"Erode","taluk":"Erode (Tk)","village":"Kasipalayam","name":"Rangampalayam","area_type":"Urban","shop_code":"09AP035PY","search_string":"  erode (tk) erode "},"bbox":[77.705,11.3105,77.705,11.3105]},{"type":"Feature","geometry":{"type":"Point","coordinates":[77.705,11.3105]},"properties":{"district":"Erode","taluk":"Erode (Tk)","village":"Kasipalayam","name":"K.K.Nagar Kasipalayam","area_type":"Urban","shop_code":"09AP212PN","search_string":"  erode (tk) erode "},"bbox":[77.705,11.3105,77.705,11.3105]},{"type":"Feature","geometry":{"type":"Point","coordinates":[77.6876,11.3117]},"properties":{"district":"Erode","taluk":"Erode (Tk)","village":"Thindal","name":"Balaji Garden","area_type":"Urban","shop_code":"09AP175PN","search_string":"  erode (tk) erode "},"bbox":[77.6876,11.3117,77.6876,11.3117]},{"type":"Feature","geometry":{"type":"Point","coordinates":[77.6534,11.3122]},"properties":{"district":"Erode","taluk":"Erode (Tk)","village":"Nanjanapuram","name":"Nanjanapuram","area_type":"Rural","shop_code":"09AP028PN","search_string":"  erode (tk) erode "},"bbox":[77.6534,11.3122,77.6534,11.3122]},{"type":"Feature","geometry":{"type":"Point","coordinates":[77.6959,11.3123]},"properties":{"district":"Erode","taluk":"Erode (Tk)","village":"Kasipalayam","name":"Muthampalayam H.Unit Phase I","area_type":"Urban","shop_code":"09AP137PN","search_string":"  erode (tk) erode "},"bbox":[77.6959,11.3123,77.6959,11.3123]},{"type":"Feature","geometry":{"type":"Point","coordinates":[77.7211,11.3143]},"properties":{"district":"Erode","taluk":"Erode (Tk)","village":"Kasipalayam","name":"Bharathi Nagar Moolapalayam","area_type":"Urban","shop_code":"09AB026PN","search_string":"  erode (tk) erode "},"bbox":[77.7211,11.3143,77.7211,11.3143]},{"type":"Feature","geometry":{"type":"Point","coordinates":[77.7114,11.3147]},"properties":{"district":"Erode","taluk":"Erode (Tk)","village":"Kasipalayam","name":"Kasipalayam ITI","area_type":"Urban","shop_code":"09AP032PN","search_string":"  erode (tk) erode "},"bbox":[77.7114,11.3147,77.7114,11.3147]},{"type":"Feature","geometry":{"type":"Point","coordinates":[77.728,11.3153]},"properties":{"district":"Erode","taluk":"Erode (Tk)","village":"Kasipalayam","name":"Vinayakar Kovil Street Moolapalayam","area_type":"Urban","shop_code":"09AB030PN","search_string":"  erode (tk) erode "},"bbox":[77.728,11.3153,77.728,11.3153]},{"type":"Feature","geometry":{"type":"Point","coordinates":[77.7141,11.3155]},"properties":{"district":"Erode","taluk":"Erode (Tk)","village":"Kasipalayam","name":"Sasthiri Nagar","area_type":"Urban","shop_code":"09AP167PN","search_string":"  erode (tk) erode "},"bbox":[77.7141,11.3155,77.7141,11.3155]},{"type":"Feature","geometry":{"type":"Point","coordinates":[77.6729,11.3162]},"properties":{"district":"Erode","taluk":"Erode (Tk)","village":"Thindal","name":"Melthindal Vidhya Nagar","area_type":"Urban","shop_code":"09AP038PN","search_string":"  erode (tk) erode "},"bbox":[77.6729,11.3162,77.6729,11.3162]},{"type":"Feature","geometry":{"type":"Point","coordinates":[77.7093,11.3178]},"properties":{"district":"Erode","taluk":"Erode (Tk)","village":"Kasipalayam","name":"Towpanchayat library building","area_type":"Urban","shop_code":"09AP149PN","search_string":"  erode (tk) erode "},"bbox":[77.7093,11.3178,77.7093,11.3178]},{"type":"Feature","geometry":{"type":"Point","coordinates":[77.6774,11.3188]},"properties":{"district":"Erode","taluk":"Erode (Tk)","village":"Villarasampatti","name":"Keel Thindal","area_type":"Urban","shop_code":"09AP182PN","search_string":"  erode (tk) erode "},"bbox":[77.6774,11.3188,77.6774,11.3188]},{"type":"Feature","geometry":{"type":"Point","coordinates":[77.7196,11.319]},"properties":{"district":"Erode","taluk":"Erode (Tk)","village":"Kasipalayam","name":"Sasthiri Nagar 2","area_type":"Urban","shop_code":"09AP163PN","search_string":"  erode (tk) erode "},"bbox":[77.7196,11.319,77.7196,11.319]},{"type":"Feature","geometry":{"type":"Point","coordinates":[77.6683,11.3207]},"properties":{"district":"Erode","taluk":"Erode (Tk)","village":"Thindal","name":"Thindal Pudhu Colony","area_type":"Urban","shop_code":"09AP150PN","search_string":"  erode (tk) erode "},"bbox":[77.6683,11.3207,77.6683,11.3207]},{"type":"Feature","geometry":{"type":"Point","coordinates":[77.7025,11.3211]},"properties":{"district":"Erode","taluk":"Erode (Tk)","village":"periyasemur M","name":"Ram Nagar Manikampalayam","area_type":"Urban","shop_code":"09AP146PN","search_string":"  erode (tk) erode "},"bbox":[77.7025,11.3211,77.7025,11.3211]},{"type":"Feature","geometry":{"type":"Point","coordinates":[77.7242,11.3214]},"properties":{"district":"Erode","taluk":"Erode (Tk)","village":"Kasipalayam","name":"Nadarmedu","area_type":"Urban","shop_code":"09AB024PN","search_string":"  erode (tk) erode "},"bbox":[77.7242,11.3214,77.7242,11.3214]},{"type":"Feature","geometry":{"type":"Point","coordinates":[77.704,11.3215]},"properties":{"district":"Erode","taluk":"Erode (Tk)","village":"Surampatti","name":"Surampativalasu","area_type":"Urban","shop_code":"09AB021PN","search_string":"  erode (tk) erode "},"bbox":[77.704,11.3215,77.704,11.3215]},{"type":"Feature","geometry":{"type":"Point","coordinates":[77.682,11.3218]},"properties":{"district":"Erode","taluk":"Erode (Tk)","village":"Thindal","name":"Sakthi Nagar Thindal","area_type":"Urban","shop_code":"09AP136PN","search_string":"  erode (tk) erode "},"bbox":[77.682,11.3218,77.682,11.3218]},{"type":"Feature","geometry":{"type":"Point","coordinates":[77.6491,11.322]},"properties":{"district":"Erode","taluk":"Erode (Tk)","village":"Rayapalayam","name":"Rayapalayam","area_type":"Rural","shop_code":"09AP027PN","search_string":"  erode (tk) erode "},"bbox":[77.6491,11.322,77.6491,11.322]},{"type":"Feature","geometry":{"type":"Point","coordinates":[77.7258,11.3224]},"properties":{"district":"Erode","taluk":"Erode (Tk)","village":"Kasipalayam","name":"Nadarmedu","area_type":"Urban","shop_code":"09AB025PN","search_string":"  erode (tk) erode "},"bbox":[77.7258,11.3224,77.7258,11.3224]},{"type":"Feature","geometry":{"type":"Point","coordinates":[77.7412,11.3247]},"properties":{"district":"Erode","taluk":"Erode (Tk)","village":"Kasipalayam","name":"Molagoundampalayam","area_type":"Urban","shop_code":"09AP154PN","search_string":"  erode (tk) erode "},"bbox":[77.7412,11.3247,77.7412,11.3247]},{"type":"Feature","geometry":{"type":"Point","coordinates":[77.7056,11.3248]},"properties":{"district":"Erode","taluk":"Erode (Tk)","village":"Surampatti","name":"Surampativalasu","area_type":"Urban","shop_code":"09AP168PN","search_string":"  erode (tk) erode "},"bbox":[77.7056,11.3248,77.7056,11.3248]},{"type":"Feature","geometry":{"type":"Point","coordinates":[77.7313,11.3251]},"properties":{"district":"Erode","taluk":"Erode (Tk)","village":"Kasipalayam","name":"Kollampalayam","area_type":"Urban","shop_code":"09AB022PN","search_string":"  erode (tk) erode "},"bbox":[77.7313,11.3251,77.7313,11.3251]},{"type":"Feature","geometry":{"type":"Point","coordinates":[77.7244,11.3251]},"properties":{"district":"Erode","taluk":"Erode (Tk)","village":"Erode","name":"Railwaycolony","area_type":"Urban","shop_code":"09AB001PN","search_string":"  erode (tk) erode "},"bbox":[77.7244,11.3251,77.7244,11.3251]},{"type":"Feature","geometry":{"type":"Point","coordinates":[77.717,11.3252]},"properties":{"district":"Erode","taluk":"Erode (Tk)","village":"Erode","name":"Diesel Shed","area_type":"Urban","shop_code":"09AB005PN","search_string":"  erode (tk) erode "},"bbox":[77.717,11.3252,77.717,11.3252]},{"type":"Feature","geometry":{"type":"Point","coordinates":[77.7382,11.3254]},"properties":{"district":"Erode","taluk":"Erode (Tk)","village":"Kasipalayam","name":"H.U.Kollampalayam","area_type":"Urban","shop_code":"09AB023PN","search_string":"  erode (tk) erode "},"bbox":[77.7382,11.3254,77.7382,11.3254]},{"type":"Feature","geometry":{"type":"Point","coordinates":[77.6982,11.326]},"properties":{"district":"Erode","taluk":"Erode (Tk)","village":"Surampatti","name":"Palayapalayam","area_type":"Urban","shop_code":"09AB018PN","search_string":"  erode (tk) erode "},"bbox":[77.6982,11.326,77.6982,11.326]},{"type":"Feature","geometry":{"type":"Point","coordinates":[77.7329,11.3263]},"properties":{"district":"Erode","taluk":"Erode (Tk)","village":"Kasipalayam","name":"Vandikaran Thottam","area_type":"Urban","shop_code":"09AB028PN","search_string":"  erode (tk) erode "},"bbox":[77.7329,11.3263,77.7329,11.3263]},{"type":"Feature","geometry":{"type":"Point","coordinates":[77.7482,11.3266]},"properties":{"district":"Erode","taluk":"Erode (Tk)","village":"Kasipalayam","name":"Vendipalayam","area_type":"Urban","shop_code":"09AP034PN","search_string":"  erode (tk) erode "},"bbox":[77.7482,11.3266,77.7482,11.3266]},{"type":"Feature","geometry":{"type":"Point","coordinates":[77.725,11.3268]},"properties":{"district":"Erode","taluk":"Erode (Tk)","village":"Kasipalayam","name":"Sasthiri Nagar","area_type":"Urban","shop_code":"09AB004PN","search_string":"  erode (tk) erode "},"bbox":[77.725,11.3268,77.725,11.3268]},{"type":"Feature","geometry":{"type":"Point","coordinates":[77.7138,11.3268]},"properties":{"district":"Erode","taluk":"Erode (Tk)","village":"Surampatti","name":"V.O.C.Street Surampatti","area_type":"Urban","shop_code":"09AB017PN","search_string":"  erode (tk) erode "},"bbox":[77.7138,11.3268,77.7138,11.3268]},{"type":"Feature","geometry":{"type":"Point","coordinates":[77.7024,11.327]},"properties":{"district":"Erode","taluk":"Erode (Tk)","village":"Surampatti","name":"Sangunagar Street","area_type":"Urban","shop_code":"09AB019PN","search_string":"  erode (tk) erode "},"bbox":[77.7024,11.327,77.7024,11.327]},{"type":"Feature","geometry":{"type":"Point","coordinates":[77.7246,11.3273]},"properties":{"district":"Erode","taluk":"Erode (Tk)","village":"Erode","name":"EVN Road","area_type":"Urban","shop_code":"09AH001PN","search_string":"  erode (tk) erode "},"bbox":[77.7246,11.3273,77.7246,11.3273]},{"type":"Feature","geometry":{"type":"Point","coordinates":[77.7138,11.3274]},"properties":{"district":"Erode","taluk":"Erode (Tk)","village":"Surampatti","name":"V.O.C.Street Surampatti","area_type":"Urban","shop_code":"09AB016PN","search_string":"  erode (tk) erode "},"bbox":[77.7138,11.3274,77.7138,11.3274]},{"type":"Feature","geometry":{"type":"Point","coordinates":[77.7186,11.3276]},"properties":{"district":"Erode","taluk":"Erode (Tk)","village":"Erode","name":"E.M.M.Street","area_type":"Urban","shop_code":"09AB002PN","search_string":"  erode (tk) erode "},"bbox":[77.7186,11.3276,77.7186,11.3276]},{"type":"Feature","geometry":{"type":"Point","coordinates":[77.7087,11.3277]},"properties":{"district":"Erode","taluk":"Erode (Tk)","village":"Surampatti","name":"Thiruvikka Road, Surampatti","area_type":"Urban","shop_code":"09AB015PN","search_string":"  erode (tk) erode "},"bbox":[77.7087,11.3277,77.7087,11.3277]},{"type":"Feature","geometry":{"type":"Point","coordinates":[77.7221,11.3285]},"properties":{"district":"Erode","taluk":"Erode (Tk)","village":"Erode","name":"Manal Medu","area_type":"Urban","shop_code":"09AA008PN","search_string":"  erode (tk) erode "},"bbox":[77.7221,11.3285,77.7221,11.3285]},{"type":"Feature","geometry":{"type":"Point","coordinates":[77.7073,11.329]},"properties":{"district":"Erode","taluk":"Erode (Tk)","village":"Surampatti","name":"Teachers colony","area_type":"Urban","shop_code":"09AB020PN","search_string":"  erode (tk) erode "},"bbox":[77.7073,11.329,77.7073,11.329]},{"type":"Feature","geometry":{"type":"Point","coordinates":[77.7191,11.3294]},"properties":{"district":"Erode","taluk":"Erode (Tk)","village":"Erode","name":"Santhan Karukku","area_type":"Urban","shop_code":"09AH004PN","search_string":"  erode (tk) erode "},"bbox":[77.7191,11.3294,77.7191,11.3294]},{"type":"Feature","geometry":{"type":"Point","coordinates":[77.714,11.3301]},"properties":{"district":"Erode","taluk":"Erode (Tk)","village":"Surampatti","name":"Jaganathapuram Colony","area_type":"Urban","shop_code":"09AH005PN","search_string":"  erode (tk) erode "},"bbox":[77.714,11.3301,77.714,11.3301]},{"type":"Feature","geometry":{"type":"Point","coordinates":[77.714,11.3302]},"properties":{"district":"Erode","taluk":"Erode (Tk)","village":"Surampatti","name":"Jaganathapuram Colony","area_type":"Urban","shop_code":"09AH007PN","search_string":"  erode (tk) erode "},"bbox":[77.714,11.3302,77.714,11.3302]},{"type":"Feature","geometry":{"type":"Point","coordinates":[77.7136,11.3302]},"properties":{"district":"Erode","taluk":"Erode (Tk)","village":"Surampatti","name":"Jaganathapuram Colony","area_type":"Urban","shop_code":"09AH006PN","search_string":"  erode (tk) erode "},"bbox":[77.7136,11.3302,77.7136,11.3302]},{"type":"Feature","geometry":{"type":"Point","coordinates":[77.714,11.3303]},"properties":{"district":"Erode","taluk":"Erode (Tk)","village":"Surampatti","name":"Jaganathapuram Colony","area_type":"Urban","shop_code":"09AH008PN","search_string":"  erode (tk) erode "},"bbox":[77.714,11.3303,77.714,11.3303]},{"type":"Feature","geometry":{"type":"Point","coordinates":[77.7145,11.3308]},"properties":{"district":"Erode","taluk":"Erode (Tk)","village":"Erode","name":"Jaganathapuram Colony","area_type":"Urban","shop_code":"09AI008PN","search_string":"  erode (tk) erode "},"bbox":[77.7145,11.3308,77.7145,11.3308]},{"type":"Feature","geometry":{"type":"Point","coordinates":[77.6854,11.3317]},"properties":{"district":"Erode","taluk":"Erode (Tk)","village":"Villarasampatti","name":"Veerappampalayam-2","area_type":"Urban","shop_code":"09AP181PN","search_string":"  erode (tk) erode "},"bbox":[77.6854,11.3317,77.6854,11.3317]},{"type":"Feature","geometry":{"type":"Point","coordinates":[77.6855,11.3321]},"properties":{"district":"Erode","taluk":"Erode (Tk)","village":"Veerappan Chathiram M","name":"Veerapampalayam","area_type":"Urban","shop_code":"09AP041PN","search_string":"  erode (tk) erode "},"bbox":[77.6855,11.3321,77.6855,11.3321]},{"type":"Feature","geometry":{"type":"Point","coordinates":[77.7154,11.3323]},"properties":{"district":"Erode","taluk":"Erode (Tk)","village":"Erode","name":"NGGO Colony 1","area_type":"Urban","shop_code":"09AI007PN","search_string":"  erode (tk) erode "},"bbox":[77.7154,11.3323,77.7154,11.3323]},{"type":"Feature","geometry":{"type":"Point","coordinates":[77.7298,11.3329]},"properties":{"district":"Erode","taluk":"Erode (Tk)","village":"Erode","name":"Pattakara Street","area_type":"Urban","shop_code":"09AA003PN","search_string":"  erode (tk) erode "},"bbox":[77.7298,11.3329,77.7298,11.3329]},{"type":"Feature","geometry":{"type":"Point","coordinates":[77.7306,11.3333]},"properties":{"district":"Erode","taluk":"Erode (Tk)","village":"Erode","name":"Jeevanantham Road","area_type":"Urban","shop_code":"09AA002PN","search_string":"  erode (tk) erode "},"bbox":[77.7306,11.3333,77.7306,11.3333]},{"type":"Feature","geometry":{"type":"Point","coordinates":[77.7206,11.3336]},"properties":{"district":"Erode","taluk":"Erode (Tk)","village":"Erode","name":"Karupanagounder Street","area_type":"Urban","shop_code":"09AB008PN","search_string":"  erode (tk) erode "},"bbox":[77.7206,11.3336,77.7206,11.3336]},{"type":"Feature","geometry":{"type":"Point","coordinates":[77.7305,11.3338]},"properties":{"district":"Erode","taluk":"Erode (Tk)","village":"Erode","name":"Balusubarayalu Street","area_type":"Urban","shop_code":"09AA007PN","search_string":"  erode (tk) erode "},"bbox":[77.7305,11.3338,77.7305,11.3338]},{"type":"Feature","geometry":{"type":"Point","coordinates":[77.7413,11.3339]},"properties":{"district":"Erode","taluk":"Erode (Tk)","village":"Kasipalayam","name":"Gandhipuram","area_type":"Urban","shop_code":"09AP033PN","search_string":"  erode (tk) erode "},"bbox":[77.7413,11.3339,77.7413,11.3339]},{"type":"Feature","geometry":{"type":"Point","coordinates":[77.7342,11.3339]},"properties":{"district":"Erode","taluk":"Erode (Tk)","village":"Erode","name":"Nethaji Road","area_type":"Urban","shop_code":"09AB003PN","search_string":"  erode (tk) erode "},"bbox":[77.7342,11.3339,77.7342,11.3339]},{"type":"Feature","geometry":{"type":"Point","coordinates":[77.7214,11.3348]},"properties":{"district":"Erode","taluk":"Erode (Tk)","village":"Erode","name":"Karupanagounder Street","area_type":"Urban","shop_code":"09AB009PN","search_string":"  erode (tk) erode "},"bbox":[77.7214,11.3348,77.7214,11.3348]},{"type":"Feature","geometry":{"type":"Point","coordinates":[77.7215,11.3349]},"properties":{"district":"Erode","taluk":"Erode (Tk)","village":"Erode","name":"Rajakadu 2nd Street","area_type":"Urban","shop_code":"09AB007PN","search_string":"  erode (tk) erode "},"bbox":[77.7215,11.3349,77.7215,11.3349]},{"type":"Feature","geometry":{"type":"Point","coordinates":[77.7348,11.335]},"properties":{"district":"Erode","taluk":"Erode (Tk)","village":"Erode","name":"Nethaji Road","area_type":"Urban","shop_code":"09AG004PN","search_string":"  erode (tk) erode "},"bbox":[77.7348,11.335,77.7348,11.335]},{"type":"Feature","geometry":{"type":"Point","coordinates":[77.7014,11.3354]},"properties":{"district":"Erode","taluk":"Erode (Tk)","village":"Veerappan Chathiram M","name":"Kumalankuttai","area_type":"Urban","shop_code":"09AP039PN","search_string":"  erode (tk) erode "},"bbox":[77.7014,11.3354,77.7014,11.3354]},{"type":"Feature","geometry":{"type":"Point","coordinates":[77.6964,11.3363]},"properties":{"district":"Erode","taluk":"Erode (Tk)","village":"Veerappan Chathiram M","name":"Ganapathinagar 6Th Street","area_type":"Urban","shop_code":"09AP159PN","search_string":"  erode (tk) erode "},"bbox":[77.6964,11.3363,77.6964,11.3363]},{"type":"Feature","geometry":{"type":"Point","coordinates":[77.721,11.3368]},"properties":{"district":"Erode","taluk":"Erode (Tk)","village":"Erode","name":"Power House Road","area_type":"Urban","shop_code":"09AI006PN","search_string":"  erode (tk) erode "},"bbox":[77.721,11.3368,77.721,11.3368]},{"type":"Feature","geometry":{"type":"Point","coordinates":[77.7322,11.337]},"properties":{"district":"Erode","taluk":"Erode (Tk)","village":"Erode","name":"Kambar Street","area_type":"Urban","shop_code":"09AG001PN","search_string":"  erode (tk) erode "},"bbox":[77.7322,11.337,77.7322,11.337]},{"type":"Feature","geometry":{"type":"Point","coordinates":[77.7321,11.3371]},"properties":{"district":"Erode","taluk":"Erode (Tk)","village":"Erode","name":"Kambar Street","area_type":"Urban","shop_code":"09AG002PN","search_string":"  erode (tk) erode "},"bbox":[77.7321,11.3371,77.7321,11.3371]},{"type":"Feature","geometry":{"type":"Point","coordinates":[77.7322,11.3372]},"properties":{"district":"Erode","taluk":"Erode (Tk)","village":"Erode","name":"Kambar Street","area_type":"Urban","shop_code":"09AG003PN","search_string":"  erode (tk) erode "},"bbox":[77.7322,11.3372,77.7322,11.3372]},{"type":"Feature","geometry":{"type":"Point","coordinates":[77.6751,11.3375]},"properties":{"district":"Erode","taluk":"Erode (Tk)","village":"Villarasampatti","name":"Villarasampatti 4 Road","area_type":"Urban","shop_code":"09AP037PN","search_string":"  erode (tk) erode "},"bbox":[77.6751,11.3375,77.6751,11.3375]},{"type":"Feature","geometry":{"type":"Point","coordinates":[77.639,11.3397]},"properties":{"district":"Erode","taluk":"Erode (Tk)","village":"Nasiyanur","name":"Bhavani Main Road Nasiyanur","area_type":"Urban","shop_code":"09AP022PY","search_string":"  erode (tk) erode "},"bbox":[77.639,11.3397,77.639,11.3397]},{"type":"Feature","geometry":{"type":"Point","coordinates":[77.6388,11.3397]},"properties":{"district":"Erode","taluk":"Erode (Tk)","village":"Nasiyanur","name":"Nasiyanur Mahaliamman Kovil Building","area_type":"Urban","shop_code":"09AP201PN","search_string":"  erode (tk) erode "},"bbox":[77.6388,11.3397,77.6388,11.3397]},{"type":"Feature","geometry":{"type":"Point","coordinates":[77.6393,11.3399]},"properties":{"district":"Erode","taluk":"Erode (Tk)","village":"Nasiyanur","name":"Bhavani Main Road Nasiyanur","area_type":"Urban","shop_code":"09AP023PN","search_string":"  erode (tk) erode "},"bbox":[77.6393,11.3399,77.6393,11.3399]},{"type":"Feature","geometry":{"type":"Point","coordinates":[77.7117,11.3399]},