{"type":"FeatureCollection","features":[{"type":"Feature","geometry":{"type":"Point","coordinates":[78.856,11.5284]},"properties":{"district":"Kallakurichi","taluk":"Chinnasalem","village":"Koogaiyur","name":"Kugaiyur Scs1","area_type":"Rural","shop_code":"06IP134PN","search_string":"  chinnasalem kallakurichi "},"bbox":[78.856,11.5284,78.856,11.5284]},{"type":"Feature","geometry":{"type":"Point","coordinates":[78.8751,11.5401]},"properties":{"district":"Kallakurichi","taluk":"Chinnasalem","village":"Virabayankaram","name":"Verapayangaram Scs1","area_type":"Rural","shop_code":"06IP137PN","search_string":"  chinnasalem kallakurichi "},"bbox":[78.8751,11.5401,78.8751,11.5401]},{"type":"Feature","geometry":{"type":"Point","coordinates":[78.9145,11.5507]},"properties":{"district":"Kallakurichi","taluk":"Chinnasalem","village":"V Mamandur","name":"V.Mamanthur Scs1","area_type":"Rural","shop_code":"06IP143PN","search_string":"  chinnasalem kallakurichi "},"bbox":[78.9145,11.5507,78.9145,11.5507]},{"type":"Feature","geometry":{"type":"Point","coordinates":[78.8349,11.5538]},"properties":{"district":"Kallakurichi","taluk":"Chinnasalem","village":"Pakkampadi","name":"Pakkampadi Scs1","area_type":"Rural","shop_code":"06IP135PN","search_string":"  chinnasalem kallakurichi "},"bbox":[78.8349,11.5538,78.8349,11.5538]},{"type":"Feature","geometry":{"type":"Point","coordinates":[78.8546,11.5638]},"properties":{"district":"Kallakurichi","taluk":"Chinnasalem","village":"Kural","name":"Kural Scs1","area_type":"Rural","shop_code":"06IP131PN","search_string":"  chinnasalem kallakurichi "},"bbox":[78.8546,11.5638,78.8546,11.5638]},{"type":"Feature","geometry":{"type":"Point","coordinates":[78.8747,11.5713]},"properties":{"district":"Kallakurichi","taluk":"Chinnasalem","village":"Alambalam (Vridhachalam)","name":"V.Alambalam Scs1","area_type":"Rural","shop_code":"06IP132PN","search_string":"  chinnasalem kallakurichi "},"bbox":[78.8747,11.5713,78.8747,11.5713]},{"type":"Feature","geometry":{"type":"Point","coordinates":[78.8932,11.5766]},"properties":{"district":"Kallakurichi","taluk":"Chinnasalem","village":"V Krishnapuram","name":"V.Kirushnapuram Scs1","area_type":"Rural","shop_code":"06IP133PN","search_string":"  chinnasalem kallakurichi "},"bbox":[78.8932,11.5766,78.8932,11.5766]},{"type":"Feature","geometry":{"type":"Point","coordinates":[78.9148,11.579]},"properties":{"district":"Kallakurichi","taluk":"Chinnasalem","village":"NAINARPALAYAM","name":"Nainarpalayam Scs1","area_type":"Rural","shop_code":"06IP138PY","search_string":"  chinnasalem kallakurichi "},"bbox":[78.9148,11.579,78.9148,11.579]},{"type":"Feature","geometry":{"type":"Point","coordinates":[78.9179,11.5794]},"properties":{"district":"Kallakurichi","taluk":"Chinnasalem","village":"NAINARPALAYAM","name":"Nainarpalayam Scs2","area_type":"Rural","shop_code":"06IP138P1","search_string":"  chinnasalem kallakurichi "},"bbox":[78.9179,11.5794,78.9179,11.5794]},{"type":"Feature","geometry":{"type":"Point","coordinates":[78.9354,11.5799]},"properties":{"district":"Kallakurichi","taluk":"Chinnasalem","village":"Kilkuppam","name":"Kelkuppam Scs1","area_type":"Rural","shop_code":"06IP140PN","search_string":"  chinnasalem kallakurichi "},"bbox":[78.9354,11.5799,78.9354,11.5799]},{"type":"Feature","geometry":{"type":"Point","coordinates":[78.8646,11.5802]},"properties":{"district":"Kallakurichi","taluk":"Chinnasalem","village":"Thathathiripuram","name":"Thathathiripuram Scs1","area_type":"Rural","shop_code":"06IP124PN","search_string":"  chinnasalem kallakurichi "},"bbox":[78.8646,11.5802,78.8646,11.5802]},{"type":"Feature","geometry":{"type":"Point","coordinates":[78.9455,11.5805]},"properties":{"district":"Kallakurichi","taluk":"Chinnasalem","village":"Sembakurichi","name":"Sembakurichi Scs1","area_type":"Rural","shop_code":"06IP142PN","search_string":"  chinnasalem kallakurichi "},"bbox":[78.9455,11.5805,78.9455,11.5805]},{"type":"Feature","geometry":{"type":"Point","coordinates":[78.9367,11.5811]},"properties":{"district":"Kallakurichi","taluk":"Chinnasalem","village":"Anumanandal","name":"Anumanandal Scs1","area_type":"Rural","shop_code":"06IP144PN","search_string":"  chinnasalem kallakurichi "},"bbox":[78.9367,11.5811,78.9367,11.5811]},{"type":"Feature","geometry":{"type":"Point","coordinates":[78.8506,11.5842]},"properties":{"district":"Kallakurichi","taluk":"Chinnasalem","village":"Kalasamudram","name":"Kalasamuthiram Scs1","area_type":"Rural","shop_code":"06IP136PN","search_string":"  chinnasalem kallakurichi "},"bbox":[78.8506,11.5842,78.8506,11.5842]},{"type":"Feature","geometry":{"type":"Point","coordinates":[78.8842,11.5867]},"properties":{"district":"Kallakurichi","taluk":"Chinnasalem","village":"Pethasamudram","name":"Pethasamuthiram Scs1","area_type":"Rural","shop_code":"06IP123PN","search_string":"  chinnasalem kallakurichi "},"bbox":[78.8842,11.5867,78.8842,11.5867]},{"type":"Feature","geometry":{"type":"Point","coordinates":[78.9745,11.5942]},"properties":{"district":"Kallakurichi","taluk":"Chinnasalem","village":"KARUNKUZHI","name":"Karunkuzhi Scs1","area_type":"Rural","shop_code":"06IP150PN","search_string":"  chinnasalem kallakurichi "},"bbox":[78.9745,11.5942,78.9745,11.5942]},{"type":"Feature","geometry":{"type":"Point","coordinates":[78.9292,11.5956]},"properties":{"district":"Kallakurichi","taluk":"Chinnasalem","village":"BATHIMAPALAYAM","name":"Bathimapalayam","area_type":"Rural","shop_code":"06IP138P2","search_string":"  chinnasalem kallakurichi "},"bbox":[78.9292,11.5956,78.9292,11.5956]},{"type":"Feature","geometry":{"type":"Point","coordinates":[78.8095,11.5973]},"properties":{"district":"Kallakurichi","taluk":"Chinnasalem","village":"VE KOOTROAD","name":"Ve.Kootroad","area_type":"Rural","shop_code":"06IP170P1","search_string":"  chinnasalem kallakurichi "},"bbox":[78.8095,11.5973,78.8095,11.5973]},{"type":"Feature","geometry":{"type":"Point","coordinates":[78.8351,11.599]},"properties":{"district":"Kallakurichi","taluk":"Chinnasalem","village":"Thagamtheerthapuram","name":"Thagamterthapuram Scs1","area_type":"Rural","shop_code":"06IP147PN","search_string":"  chinnasalem kallakurichi "},"bbox":[78.8351,11.599,78.8351,11.599]},{"type":"Feature","geometry":{"type":"Point","coordinates":[78.9997,11.5993]},"properties":{"district":"Kallakurichi","taluk":"Chinnasalem","village":"ERIYUR","name":"Eriyur Scs1","area_type":"Rural","shop_code":"06IP152PN","search_string":"  chinnasalem kallakurichi "},"bbox":[78.9997,11.5993,78.9997,11.5993]},{"type":"Feature","geometry":{"type":"Point","coordinates":[78.9673,11.6003]},"properties":{"district":"Kallakurichi","taluk":"Chinnasalem","village":"AMMAGALATUR","name":"Ammagalatur Scs1","area_type":"Rural","shop_code":"06IP151PN","search_string":"  chinnasalem kallakurichi "},"bbox":[78.9673,11.6003,78.9673,11.6003]},{"type":"Feature","geometry":{"type":"Point","coordinates":[78.8833,11.6022]},"properties":{"district":"Kallakurichi","taluk":"Chinnasalem","village":"THOTTAPADI","name":"Thottapadi Scs1","area_type":"Rural","shop_code":"06IP122PY","search_string":"  chinnasalem kallakurichi "},"bbox":[78.8833,11.6022,78.8833,11.6022]},{"type":"Feature","geometry":{"type":"Point","coordinates":[78.8143,11.6039]},"properties":{"district":"Kallakurichi","taluk":"Chinnasalem","village":"RAYAPPANUR","name":"Rayappanur Scs1","area_type":"Rural","shop_code":"06IP170PY","search_string":"  chinnasalem kallakurichi "},"bbox":[78.8143,11.6039,78.8143,11.6039]},{"type":"Feature","geometry":{"type":"Point","coordinates":[78.8305,11.6046]},"properties":{"district":"Kallakurichi","taluk":"Chinnasalem","village":"Vasudevanur","name":"Vasudevanur Scs1","area_type":"Rural","shop_code":"06IP146PN","search_string":"  chinnasalem kallakurichi "},"bbox":[78.8305,11.6046,78.8305,11.6046]},{"type":"Feature","geometry":{"type":"Point","coordinates":[78.8699,11.606]},"properties":{"district":"Kallakurichi","taluk":"Chinnasalem","village":"MARIYAMMAN  KOIL","name":"Mariyamman Koil","area_type":"Rural","shop_code":"06IP122P1","search_string":"  chinnasalem kallakurichi "},"bbox":[78.8699,11.606,78.8699,11.606]},{"type":"Feature","geometry":{"type":"Point","coordinates":[78.9423,11.6071]},"properties":{"district":"Kallakurichi","taluk":"Chinnasalem","village":"THENSIRUVALUR","name":"Thensiruvalur Scs1","area_type":"Rural","shop_code":"06IP188PN","search_string":"  chinnasalem kallakurichi "},"bbox":[78.9423,11.6071,78.9423,11.6071]},{"type":"Feature","geometry":{"type":"Point","coordinates":[79.0085,11.6074]},"properties":{"district":"Kallakurichi","taluk":"Chinnasalem","village":"NALLASAVEPURAM","name":"Nallasavepuram Scs1","area_type":"Rural","shop_code":"06IP153PN","search_string":"  chinnasalem kallakurichi "},"bbox":[79.0085,11.6074,79.0085,11.6074]},{"type":"Feature","geometry":{"type":"Point","coordinates":[78.8462,11.6118]},"properties":{"district":"Kallakurichi","taluk":"Chinnasalem","village":"Poondi","name":"Poondi Scs1","area_type":"Rural","shop_code":"06IP145PN","search_string":"  chinnasalem kallakurichi "},"bbox":[78.8462,11.6118,78.8462,11.6118]},{"type":"Feature","geometry":{"type":"Point","coordinates":[78.7912,11.6121]},"properties":{"district":"Kallakurichi","taluk":"Chinnasalem","village":"SELLEYAMPALAYAM","name":"Selleyampalayam Scs1","area_type":"Rural","shop_code":"06IP171PN","search_string":"  chinnasalem kallakurichi "},"bbox":[78.7912,11.6121,78.7912,11.6121]},{"type":"Feature","geometry":{"type":"Point","coordinates":[78.8122,11.6167]},"properties":{"district":"Kallakurichi","taluk":"Chinnasalem","village":"MELNARIYAPPANUR","name":"Melnariyappanur Scs2","area_type":"Rural","shop_code":"06IP167P1","search_string":"  chinnasalem kallakurichi "},"bbox":[78.8122,11.6167,78.8122,11.6167]},{"type":"Feature","geometry":{"type":"Point","coordinates":[78.8438,11.6173]},"properties":{"district":"Kallakurichi","taluk":"Chinnasalem","village":"AMMAYAGARAM","name":"Ammayagaram Scs1","area_type":"Rural","shop_code":"06IP149PY","search_string":"  chinnasalem kallakurichi "},"bbox":[78.8438,11.6173,78.8438,11.6173]},{"type":"Feature","geometry":{"type":"Point","coordinates":[78.8083,11.6185]},"properties":{"district":"Kallakurichi","taluk":"Chinnasalem","village":"MELNARIYAPPANUR","name":"Melnariyappanur Scs1","area_type":"Rural","shop_code":"06IP167PY","search_string":"  chinnasalem kallakurichi "},"bbox":[78.8083,11.6185,78.8083,11.6185]},{"type":"Feature","geometry":{"type":"Point","coordinates":[78.8363,11.6196]},"properties":{"district":"Kallakurichi","taluk":"Chinnasalem","village":"THENPONPARAPPY","name":"Thenponparappy Scs1","area_type":"Rural","shop_code":"06IP169PN","search_string":"  chinnasalem kallakurichi "},"bbox":[78.8363,11.6196,78.8363,11.6196]},{"type":"Feature","geometry":{"type":"Point","coordinates":[78.8489,11.6258]},"properties":{"district":"Kallakurichi","taluk":"Chinnasalem","village":"SAMATHUVAPURAM","name":"Samathuvapuram","area_type":"Rural","shop_code":"06IP149P1","search_string":"  chinnasalem kallakurichi "},"bbox":[78.8489,11.6258,78.8489,11.6258]},{"type":"Feature","geometry":{"type":"Point","coordinates":[78.8679,11.6323]},"properties":{"district":"Kallakurichi","taluk":"Chinnasalem","village":"Karunthalakurichi","name":"Karunthalakurichi Scs1","area_type":"Rural","shop_code":"06IP141PN","search_string":"  chinnasalem kallakurichi "},"bbox":[78.8679,11.6323,78.8679,11.6323]},{"type":"Feature","geometry":{"type":"Point","coordinates":[78.8478,11.6335]},"properties":{"district":"Kallakurichi","taluk":"Chinnasalem","village":"MOOGEELPADI","name":"Moogeelpadi Scs1","area_type":"Rural","shop_code":"06IP148PN","search_string":"  chinnasalem kallakurichi "},"bbox":[78.8478,11.6335,78.8478,11.6335]},{"type":"Feature","geometry":{"type":"Point","coordinates":[78.8196,11.6347]},"properties":{"district":"Kallakurichi","taluk":"Chinnasalem","village":"Poosappadi","name":"Pusappadi Scs1","area_type":"Rural","shop_code":"06IP126PN","search_string":"  chinnasalem kallakurichi "},"bbox":[78.8196,11.6347,78.8196,11.6347]},{"type":"Feature","geometry":{"type":"Point","coordinates":[78.8817,11.635]},"properties":{"district":"Kallakurichi","taluk":"Chinnasalem","village":"Chinnasalem (TP)","name":"Chinnasalem Co-Op 4","area_type":"Urban","shop_code":"06IP010PN","search_string":"  chinnasalem kallakurichi "},"bbox":[78.8817,11.635,78.8817,11.635]},{"type":"Feature","geometry":{"type":"Point","coordinates":[78.8712,11.6351]},"properties":{"district":"Kallakurichi","taluk":"Chinnasalem","village":"Chinnasalem (TP)","name":"Chinnasalem Co-Op 8","area_type":"Urban","shop_code":"06IP012P1","search_string":"  chinnasalem kallakurichi "},"bbox":[78.8712,11.6351,78.8712,11.6351]},{"type":"Feature","geometry":{"type":"Point","coordinates":[78.886,11.6355]},"properties":{"district":"Kallakurichi","taluk":"Chinnasalem","village":"Chinnasalem (TP)","name":"Chinnasalem Co-Op 2","area_type":"Urban","shop_code":"06IP008PN","search_string":"  chinnasalem kallakurichi "},"bbox":[78.886,11.6355,78.886,11.6355]},{"type":"Feature","geometry":{"type":"Point","coordinates":[78.8859,11.6356]},"properties":{"district":"Kallakurichi","taluk":"Chinnasalem","village":"Chinnasalem (TP)","name":"Chinnasalem Co-Op 7","area_type":"Urban","shop_code":"06IP013PY","search_string":"  chinnasalem kallakurichi "},"bbox":[78.8859,11.6356,78.8859,11.6356]},{"type":"Feature","geometry":{"type":"Point","coordinates":[78.8785,11.6359]},"properties":{"district":"Kallakurichi","taluk":"Chinnasalem","village":"Chinnasalem (TP)","name":"Chinnasalem Co-Op 1","area_type":"Urban","shop_code":"06IP007PN","search_string":"  chinnasalem kallakurichi "},"bbox":[78.8785,11.6359,78.8785,11.6359]},{"type":"Feature","geometry":{"type":"Point","coordinates":[78.8837,11.6361]},"properties":{"district":"Kallakurichi","taluk":"Chinnasalem","village":"Chinnasalem (TP)","name":"Chinnasalem Co-Op 9 Attached With Refugees Camp","area_type":"Urban","shop_code":"06IP013P1","search_string":"  chinnasalem kallakurichi "},"bbox":[78.8837,11.6361,78.8837,11.6361]},{"type":"Feature","geometry":{"type":"Point","coordinates":[78.8771,11.6361]},"properties":{"district":"Kallakurichi","taluk":"Chinnasalem","village":"Chinnasalem (TP)","name":"Chinnasalem Co-Op 6","area_type":"Urban","shop_code":"06IP012PY","search_string":"  chinnasalem kallakurichi "},"bbox":[78.8771,11.6361,78.8771,11.6361]},{"type":"Feature","geometry":{"type":"Point","coordinates":[78.8775,11.6362]},"properties":{"district":"Kallakurichi","taluk":"Chinnasalem","village":"Chinnasalem (TP)","name":"Chinnasalem Co-Op 3","area_type":"Urban","shop_code":"06IP009PN","search_string":"  chinnasalem kallakurichi "},"bbox":[78.8775,11.6362,78.8775,11.6362]},{"type":"Feature","geometry":{"type":"Point","coordinates":[78.8733,11.6362]},"properties":{"district":"Kallakurichi","taluk":"Chinnasalem","village":"Chinnasalem (TP)","name":"Chinnasalem Co-Op 5","area_type":"Urban","shop_code":"06IP011PN","search_string":"  chinnasalem kallakurichi "},"bbox":[78.8733,11.6362,78.8733,11.6362]},{"type":"Feature","geometry":{"type":"Point","coordinates":[78.8252,11.639]},"properties":{"district":"Kallakurichi","taluk":"Chinnasalem","village":"Elavadi","name":"Elavadi Scs1","area_type":"Rural","shop_code":"06IP125PN","search_string":"  chinnasalem kallakurichi "},"bbox":[78.8252,11.639,78.8252,11.639]},{"type":"Feature","geometry":{"type":"Point","coordinates":[78.839,11.6581]},"properties":{"district":"Kallakurichi","taluk":"Chinnasalem","village":"Pandiyankuppam","name":"Pandiankuppam Scs1","area_type":"Rural","shop_code":"06IP129PN","search_string":"  chinnasalem kallakurichi "},"bbox":[78.839,11.6581,78.839,11.6581]},{"type":"Feature","geometry":{"type":"Point","coordinates":[78.8347,11.6585]},"properties":{"district":"Kallakurichi","taluk":"Chinnasalem","village":"Timmapuram","name":"Thimmapuram Scs1","area_type":"Rural","shop_code":"06IP130PN","search_string":"  chinnasalem kallakurichi "},"bbox":[78.8347,11.6585,78.8347,11.6585]},{"type":"Feature","geometry":{"type":"Point","coordinates":[78.875,11.6606]},"properties":{"district":"Kallakurichi","taluk":"Chinnasalem","village":"V P AGARAM","name":"V.P.Agaram Pacb","area_type":"Rural","shop_code":"06IP189PN","search_string":"  chinnasalem kallakurichi "},"bbox":[78.875,11.6606,78.875,11.6606]},{"type":"Feature","geometry":{"type":"Point","coordinates":[78.8749,11.6622]},"properties":{"district":"Kallakurichi","taluk":"Chinnasalem","village":"V MARAVANATHAM","name":"V.Maravanatham Scs1","area_type":"Rural","shop_code":"06IP190PN","search_string":"  chinnasalem kallakurichi "},"bbox":[78.8749,11.6622,78.8749,11.6622]},{"type":"Feature","geometry":{"type":"Point","coordinates":[78.8169,11.6679]},"properties":{"district":"Kallakurichi","taluk":"Chinnasalem","village":"Kallanatham","name":"Kallanatham Scs1","area_type":"Rural","shop_code":"06IP127PN","search_string":"  chinnasalem kallakurichi "},"bbox":[78.8169,11.6679,78.8169,11.6679]},{"type":"Feature","geometry":{"type":"Point","coordinates":[78.841,11.6775]},"properties":{"district":"Kallakurichi","taluk":"Chinnasalem","village":"NAGAKUPPAM","name":"Nagakuppam Scs1","area_type":"Rural","shop_code":"06IP191PN","search_string":"  chinnasalem kallakurichi "},"bbox":[78.841,11.6775,78.841,11.6775]},{"type":"Feature","geometry":{"type":"Point","coordinates":[78.8301,11.6787]},"properties":{"district":"Kallakurichi","taluk":"Chinnasalem","village":"Thagarai","name":"Thagarai Scs1","area_type":"Rural","shop_code":"06IP128PN","search_string":"  chinnasalem kallakurichi "},"bbox":[78.8301,11.6787,78.8301,11.6787]},{"type":"Feature","geometry":{"type":"Point","coordinates":[78.8929,11.6876]},"properties":{"district":"Kallakurichi","taluk":"Chinnasalem","village":"THOTTIAM","name":"Thottiam Scs1","area_type":"Rural","shop_code":"06IP121PY","search_string":"  chinnasalem kallakurichi "},"bbox":[78.8929,11.6876,78.8929,11.6876]},{"type":"Feature","geometry":{"type":"Point","coordinates":[78.8775,11.6961]},"properties":{"district":"Kallakurichi","taluk":"Chinnasalem","village":"THENCHETEYADAL","name":"Thencheteyadal Scs1","area_type":"Rural","shop_code":"06IP183PN","search_string":"  chinnasalem kallakurichi "},"bbox":[78.8775,11.6961,78.8775,11.6961]},{"type":"Feature","geometry":{"type":"Point","coordinates":[78.8731,11.7019]},"properties":{"district":"Kallakurichi","taluk":"Chinnasalem","village":"PAITHANTHURAI","name":"Paithanthurai Scs1","area_type":"Rural","shop_code":"06IP182PN","search_string":"  chinnasalem kallakurichi "},"bbox":[78.8731,11.7019,78.8731,11.7019]},{"type":"Feature","geometry":{"type":"Point","coordinates":[78.9009,11.7067]},"properties":{"district":"Kallakurichi","taluk":"Chinnasalem","village":"THOTIAM ANNANAGAR","name":"Thotiam Annanagar","area_type":"Rural","shop_code":"06IP121P1","search_string":"  chinnasalem kallakurichi "},"bbox":[78.9009,11.7067,78.9009,11.7067]},{"type":"Feature","geometry":{"type":"Point","coordinates":[78.8798,11.7174]},"properties":{"district":"Kallakurichi","taluk":"Chinnasalem","village":"ELEYATHUR","name":"Eleyathur Scs1","area_type":"Rural","shop_code":"06IP179PN","search_string":"  chinnasalem kallakurichi "},"bbox":[78.8798,11.7174,78.8798,11.7174]},{"type":"Feature","geometry":{"type":"Point","coordinates":[78.8694,11.7231]},"properties":{"district":"Kallakurichi","taluk":"Chinnasalem","village":"THENKEYANATHAM","name":"Thenkeyanatham Scs1","area_type":"Rural","shop_code":"06IP178PN","search_string":"  chinnasalem kallakurichi "},"bbox":[78.8694,11.7231,78.8694,11.7231]},{"type":"Feature","geometry":{"type":"Point","coordinates":[78.8652,11.7298]},"properties":{"district":"Kallakurichi","taluk":"Chinnasalem","village":"PATHARAMPALLAM","name":"Patharampallam Scs1","area_type":"Rural","shop_code":"06IP181PN","search_string":"  chinnasalem kallakurichi "},"bbox":[78.8652,11.7298,78.8652,11.7298]},{"type":"Feature","geometry":{"type":"Point","coordinates":[78.8776,11.735]},"properties":{"district":"Kallakurichi","taluk":"Chinnasalem","village":"KADATHUR","name":"Kadathur Scs1","area_type":"Rural","shop_code":"06IP180PN","search_string":"  chinnasalem kallakurichi "},"bbox":[78.8776,11.735,78.8776,11.735]},{"type":"Feature","geometry":{"type":"Point","coordinates":[78.8925,11.7628]},"properties":{"district":"Kallakurichi","taluk":"Chinnasalem","village":"EARVAIPATTINAM","name":"Earvaipattinam Scs1","area_type":"Rural","shop_code":"06IP192PN","search_string":"  chinnasalem kallakurichi "},"bbox":[78.8925,11.7628,78.8925,11.7628]},{"type":"Feature","geometry":{"type":"Point","coordinates":[78.8676,11.764]},"properties":{"district":"Kallakurichi","taluk":"Chinnasalem","village":"VADAKKANANDAL","name":"Akkarayapalayam Scs2","area_type":"Urban","shop_code":"06IP023PN","search_string":"  chinnasalem kallakurichi "},"bbox":[78.8676,11.764,78.8676,11.764]},{"type":"Feature","geometry":{"type":"Point","coordinates":[78.8095,11.7645]},"properties":{"district":"Kallakurichi","taluk":"Chinnasalem","village":"KOTTAKARAI","name":"Kottakarai Scs1","area_type":"Rural","shop_code":"06IP066P1","search_string":"  chinnasalem kallakurichi "},"bbox":[78.8095,11.7645,78.8095,11.7645]},{"type":"Feature","geometry":{"type":"Point","coordinates":[78.8674,11.7676]},"properties":{"district":"Kallakurichi","taluk":"Chinnasalem","village":"VADAKKANANDAL","name":"Akkarayapalayam Scs1","area_type":"Urban","shop_code":"06IP022PN","search_string":"  chinnasalem kallakurichi "},"bbox":[78.8674,11.7676,78.8674,11.7676]},{"type":"Feature","geometry":{"type":"Point","coordinates":[78.8675,11.7722]},"properties":{"district":"Kallakurichi","taluk":"Chinnasalem","village":"VADAKKANANDAL","name":"Kachirayapalayam Scs1","area_type":"Urban","shop_code":"06IP018PN","search_string":"  chinnasalem kallakurichi "},"bbox":[78.8675,11.7722,78.8675,11.7722]},{"type":"Feature","geometry":{"type":"Point","coordinates":[78.8673,11.7723]},"properties":{"district":"Kallakurichi","taluk":"Chinnasalem","village":"VADAKKANANDAL","name":"Kachirayapalayam Scs2","area_type":"Urban","shop_code":"06IP019PN","search_string":"  chinnasalem kallakurichi "},"bbox":[78.8673,11.7723,78.8673,11.7723]},{"type":"Feature","geometry":{"type":"Point","coordinates":[78.8644,11.7759]},"properties":{"district":"Kallakurichi","taluk":"Chinnasalem","village":"VADAKKANANDAL","name":"Vadakkanandal Colany","area_type":"Urban","shop_code":"06IP016P1","search_string":"  chinnasalem kallakurichi "},"bbox":[78.8644,11.7759,78.8644,11.7759]},{"type":"Feature","geometry":{"type":"Point","coordinates":[78.8584,11.7762]},"properties":{"district":"Kallakurichi","taluk":"Chinnasalem","village":"VADAKKANANDAL","name":"Vadakkanandal Scs1","area_type":"Urban","shop_code":"06IP016PY","search_string":"  chinnasalem kallakurichi "},"bbox":[78.8584,11.7762,78.8584,11.7762]},{"type":"Feature","geometry":{"type":"Point","coordinates":[78.8624,11.7779]},"properties":{"district":"Kallakurichi","taluk":"Chinnasalem","village":"VADAKKANANDAL","name":"Vadakkanandal Scs2","area_type":"Urban","shop_code":"06IP017PN","search_string":"  chinnasalem kallakurichi "},"bbox":[78.8624,11.7779,78.8624,11.7779]},{"type":"Feature","geometry":{"type":"Point","coordinates":[78.8892,11.7783]},"properties":{"district":"Kallakurichi","taluk":"Chinnasalem","village":"VADAKKANANDAL","name":"Venkattampattai Scs1","area_type":"Urban","shop_code":"06IP021PN","search_string":"  chinnasalem kallakurichi "},"bbox":[78.8892,11.7783,78.8892,11.7783]},{"type":"Feature","geometry":{"type":"Point","coordinates":[78.8636,11.7904]},"properties":{"district":"Kallakurichi","taluk":"Chinnasalem","village":"VADAKKANANDAL","name":"Ammappattai Scs1","area_type":"Urban","shop_code":"06IP020PN","search_string":"  chinnasalem kallakurichi "},"bbox":[78.8636,11.7904,78.8636,11.7904]},{"type":"Feature","geometry":{"type":"Point","coordinates":[78.8855,11.7928]},"properties":{"district":"Kallakurichi","taluk":"Chinnasalem","village":"MADAVACHERRY","name":"Madavacherry Scs1","area_type":"Rural","shop_code":"06IP072PY","search_string":"  chinnasalem kallakurichi "},"bbox":[78.8855,11.7928,78.8855,11.7928]},{"type":"Feature","geometry":{"type":"Point","coordinates":[78.8602,11.7935]},"properties":{"district":"Kallakurichi","taluk":"Chinnasalem","village":"MATHUR","name":"Mathur Scs1","area_type":"Rural","shop_code":"06IP184PN","search_string":"  chinnasalem kallakurichi "},"bbox":[78.8602,11.7935,78.8602,11.7935]},{"type":"Feature","geometry":{"type":"Point","coordinates":[78.8632,11.7943]},"properties":{"district":"Kallakurichi","taluk":"Chinnasalem","village":"MATHUR","name":"Mathur Scs2","area_type":"Rural","shop_code":"06IP185PY","search_string":"  chinnasalem kallakurichi "},"bbox":[78.8632,11.7943,78.8632,11.7943]},{"type":"Feature","geometry":{"type":"Point","coordinates":[78.8166,11.7983]},"properties":{"district":"Kallakurichi","taluk":"Chinnasalem","village":"PARIKAM","name":"Parikam Scs1","area_type":"Rural","shop_code":"06IP066PY","search_string":"  chinnasalem kallakurichi "},"bbox":[78.8166,11.7983,78.8166,11.7983]},{"type":"Feature","geometry":{"type":"Point","coordinates":[78.8771,11.7986]},"properties":{"district":"Kallakurichi","taluk":"Chinnasalem","village":"PALRAMPATTU","name":"Palrampattu Scs1","area_type":"Rural","shop_code":"06IP071PY","search_string":"  chinnasalem kallakurichi "},"bbox":[78.8771,11.7986,78.8771,11.7986]},{"type":"Feature","geometry":{"type":"Point","coordinates":[78.8688,11.8036]},"properties":{"district":"Kallakurichi","taluk":"Chinnasalem","village":"INDHIRA  NAGAR","name":"Indhira Nagar","area_type":"Rural","shop_code":"06IP071P1","search_string":"  chinnasalem kallakurichi "},"bbox":[78.8688,11.8036,78.8688,11.8036]},{"type":"Feature","geometry":{"type":"Point","coordinates":[78.8272,11.805]},"properties":{"district":"Kallakurichi","taluk":"Chinnasalem","village":"EDUTHAVAINATHAM","name":"Eduthavainatham Scs2","area_type":"Rural","shop_code":"06IP065PY","search_string":"  chinnasalem kallakurichi "},"bbox":[78.8272,11.805,78.8272,11.805]},{"type":"Feature","geometry":{"type":"Point","coordinates":[78.825,11.8064]},"properties":{"district":"Kallakurichi","taluk":"Chinnasalem","village":"EDUTHAVAINATHAM","name":"Eduthavainatham Scs1","area_type":"Rural","shop_code":"06IP064PY","search_string":"  chinnasalem kallakurichi "},"bbox":[78.825,11.8064,78.825,11.8064]},{"type":"Feature","geometry":{"type":"Point","coordinates":[78.8915,11.8066]},"properties":{"district":"Kallakurichi","taluk":"Chinnasalem","village":"MADAVACHERRY","name":"Madavacherry Scs2","area_type":"Rural","shop_code":"06IP072P1","search_string":"  chinnasalem kallakurichi "},"bbox":[78.8915,11.8066,78.8915,11.8066]},{"type":"Feature","geometry":{"type":"Point","coordinates":[78.8258,11.8188]},"properties":{"district":"Kallakurichi","taluk":"Chinnasalem","village":"VADAKU KADU","name":"Vadaku Kadu","area_type":"Rural","shop_code":"06IP064P1","search_string":"  chinnasalem kallakurichi "},"bbox":[78.8258,11.8188,78.8258,11.8188]},{"type":"Feature","geometry":{"type":"Point","coordinates":[78.894,11.822]},"properties":{"district":"Kallakurichi","taluk":"Chinnasalem","village":"Thavadippattu","name":"Thavadipattu Scs1","area_type":"Rural","shop_code":"06IP070PN","search_string":"  chinnasalem kallakurichi "},"bbox":[78.894,11.822,78.894,11.822]},{"type":"Feature","geometry":{"type":"Point","coordinates":[78.8476,11.8275]},"properties":{"district":"Kallakurichi","taluk":"Chinnasalem","village":"Manmalai","name":"Manmalai Scs1","area_type":"Rural","shop_code":"06IP067PN","search_string":"  chinnasalem kallakurichi "},"bbox":[78.8476,11.8275,78.8476,11.8275]},{"type":"Feature","geometry":{"type":"Point","coordinates":[78.8776,11.8281]},"properties":{"district":"Kallakurichi","taluk":"Chinnasalem","village":"KARADICHITUR","name":"Karadichitur Colony","area_type":"Rural","shop_code":"06IP068P1","search_string":"  chinnasalem kallakurichi "},"bbox":[78.8776,11.8281,78.8776,11.8281]},{"type":"Feature","geometry":{"type":"Point","coordinates":[78.8755,11.8294]},"properties":{"district":"Kallakurichi","taluk":"Chinnasalem","village":"KARADICHITUR","name":"Karadichitur Scs1 Womens","area_type":"Rural","shop_code":"06IP069PN","search_string":"  chinnasalem kallakurichi "},"bbox":[78.8755,11.8294,78.8755,11.8294]},{"type":"Feature","geometry":{"type":"Point","coordinates":[78.8755,11.8297]},"properties":{"district":"Kallakurichi","taluk":"Chinnasalem","village":"KARADICHITUR","name":"Karadichitur Scs1","area_type":"Rural","shop_code":"06IP068PY","search_string":"  chinnasalem kallakurichi "},"bbox":[78.8755,11.8297,78.8755,11.8297]},{"type":"Feature","geometry":{"type":"Point","coordinates":[78.8306,11.8417]},"properties":{"district":"Kallakurichi","taluk":"Chinnasalem","village":"AMBATKAR NAGAR","name":"Ambatkar Nagar Scs1","area_type":"Rural","shop_code":"06IP065P1","search_string":"  chinnasalem kallakurichi "},"bbox":[78.8306,11.8417,78.8306,11.8417]},{"type":"Feature","geometry":{"type":"Point","coordinates":[78.8532,11.8445]},"properties":{"district":"Kallakurichi","taluk":"Chinnasalem","village":"SELLAMPATTU","name":"Sellampattu Scs2","area_type":"Rural","shop_code":"06IP074P1","search_string":"  chinnasalem kallakurichi "},"bbox":[78.8532,11.8445,78.8532,11.8445]},{"type":"Feature","geometry":{"type":"Point","coordinates":[78.8527,11.8473]},"properties":{"district":"Kallakurichi","taluk":"Chinnasalem","village":"SELLAMPATTU","name":"Sellampattu Scs1","area_type":"Rural","shop_code":"06IP074PY","search_string":"  chinnasalem kallakurichi "},"bbox":[78.8527,11.8473,78.8527,11.8473]},{"type":"Feature","geometry":{"type":"Point","coordinates":[79.0523,11.5884]},"properties":{"district":"Kallakurichi","taluk":"Kallakurichi (Tk)","village":"Asakalathur","name":"Asakalathur","area_type":"Rural","shop_code":"06CP111PY","search_string":"  kallakurichi (tk) kallakurichi "},"bbox":[79.0523,11.5884,79.0523,11.5884]},{"type":"Feature","geometry":{"type":"Point","coordinates":[79.0581,11.5902]},"properties":{"district":"Kallakurichi","taluk":"Kallakurichi (Tk)","village":"Asakalathur","name":"Asakalathur Colony","area_type":"Rural","shop_code":"06CP111P1","search_string":"  kallakurichi (tk) kallakurichi "},"bbox":[79.0581,11.5902,79.0581,11.5902]},{"type":"Feature","geometry":{"type":"Point","coordinates":[79.1823,11.5937]},"properties":{"district":"Kallakurichi","taluk":"Kallakurichi (Tk)","village":"Kachakudi","name":"Kachakudi  Scs1","area_type":"Rural","shop_code":"06CP100PN","search_string":"  kallakurichi (tk) kallakurichi "},"bbox":[79.1823,11.5937,79.1823,11.5937]},{"type":"Feature","geometry":{"type":"Point","coordinates":[79.0337,11.5991]},"properties":{"district":"Kallakurichi","taluk":"Kallakurichi (Tk)","village":"Magarur","name":"Magarur  Scs1","area_type":"Rural","shop_code":"06CP113PN","search_string":"  kallakurichi (tk) kallakurichi "},"bbox":[79.0337,11.5991,79.0337,11.5991]},{"type":"Feature","geometry":{"type":"Point","coordinates":[79.1698,11.602]},"properties":{"district":"Kallakurichi","taluk":"Kallakurichi (Tk)","village":"Eranji","name":"Eranji  Scs1","area_type":"Rural","shop_code":"06CP099PN","search_string":"  kallakurichi (tk) kallakurichi "},"bbox":[79.1698,11.602,79.1698,11.602]},{"type":"Feature","geometry":{"type":"Point","coordinates":[79.1422,11.6026]},"properties":{"district":"Kallakurichi","taluk":"Kallakurichi (Tk)","village":"Kuthakudi","name":"Kuthakudi","area_type":"Rural","shop_code":"06CP098PY","search_string":"  kallakurichi (tk) kallakurichi "},"bbox":[79.1422,11.6026,79.1422,11.6026]},{"type":"Feature","geometry":{"type":"Point","coordinates":[79.1356,11.6057]},"properties":{"district":"Kallakurichi","taluk":"Kallakurichi (Tk)","village":"Kuthakudi","name":"Kuthakudi West","area_type":"Rural","shop_code":"06CP098P2","search_string":"  kallakurichi (tk) kallakurichi "},"bbox":[79.1356,11.6057,79.1356,11.6057]},{"type":"Feature","geometry":{"type":"Point","coordinates":[79.0187,11.6129]},"properties":{"district":"Kallakurichi","taluk":"Kallakurichi (Tk)","village":"Keznariyappanur","name":"Kelnariyappanur Scs1","area_type":"Rural","shop_code":"06CP063PN","search_string":"  kallakurichi (tk) kallakurichi "},"bbox":[79.0187,11.6129,79.0187,11.6129]},{"type":"Feature","geometry":{"type":"Point","coordinates":[78.9951,11.6144]},"properties":{"district":"Kallakurichi","taluk":"Kallakurichi (Tk)","village":"Perumangalam","name":"Perumangalam Scs1","area_type":"Rural","shop_code":"06CP060PN","search_string":"  kallakurichi (tk) kallakurichi "},"bbox":[78.9951,11.6144,78.9951,11.6144]},{"type":"Feature","geometry":{"type":"Point","coordinates":[79.1235,11.6177]},"properties":{"district":"Kallakurichi","taluk":"Kallakurichi (Tk)","village":"Muhamadiyar Pettai","name":"Muhamadiyar Pettai","area_type":"Rural","shop_code":"06CP098P1","search_string":"  kallakurichi (tk) kallakurichi "},"bbox":[79.1235,11.6177,79.1235,11.6177]},{"type":"Feature","geometry":{"type":"Point","coordinates":[78.8981,11.6187]},"properties":{"district":"Kallakurichi","taluk":"Kallakurichi (Tk)","village":"Kamaraj Nagar","name":"Kamaraj  Nagar","area_type":"Rural","shop_code":"06CP165P1","search_string":"  kallakurichi (tk) kallakurichi "},"bbox":[78.8981,11.6187,78.8981,11.6187]},{"type":"Feature","geometry":{"type":"Point","coordinates":[78.9696,11.6198]},"properties":{"district":"Kallakurichi","taluk":"Kallakurichi (Tk)","village":"Ulakiyanallur","name":"Ulageyanallur Scs1","area_type":"Rural","shop_code":"06CP155PN","search_string":"  kallakurichi (tk) kallakurichi "},"bbox":[78.9696,11.6198,78.9696,11.6198]},{"type":"Feature","geometry":{"type":"Point","coordinates":[79.0576,11.6206]},"properties":{"district":"Kallakurichi","taluk":"Kallakurichi (Tk)","village":"Eiyanur","name":"Eyanur  Scs1","area_type":"Rural","shop_code":"06CP110PN","search_string":"  kallakurichi (tk) kallakurichi "},"bbox":[79.0576,11.6206,79.0576,11.6206]},{"type":"Feature","geometry":{"type":"Point","coordinates":[78.9453,11.6208]},"properties":{"district":"Kallakurichi","taluk":"Kallakurichi (Tk)","village":"Nattarmangalam","name":"Nattarmangalam Scs1","area_type":"Rural","shop_code":"06CP164PN","search_string":"  kallakurichi (tk) kallakurichi "},"bbox":[78.9453,11.6208,78.9453,11.6208]},{"type":"Feature","geometry":{"type":"Point","coordinates":[78.9332,11.6209]},"properties":{"district":"Kallakurichi","taluk":"Kallakurichi (Tk)","village":"Esanthai","name":"Esanthai Scs1","area_type":"Rural","shop_code":"06CP163PN","search_string":"  kallakurichi (tk) kallakurichi "},"bbox":[78.9332,11.6209,78.9332,11.6209]},{"type":"Feature","geometry":{"type":"Point","coordinates":[79.0382,11.6263]},"properties":{"district":"Kallakurichi","taluk":"Kallakurichi (Tk)","village":"S Oogaiyur","name":"S.Oogaiyur","area_type":"Rural","shop_code":"06CP112PY","search_string":"  kallakurichi (tk) kallakurichi "},"bbox":[79.0382,11.6263,79.0382,11.6263]},{"type":"Feature","geometry":{"type":"Point","coordinates":[78.9893,11.6299]},"properties":{"district":"Kallakurichi","taluk":"Kallakurichi (Tk)","village":"Pukkiravari","name":"Pukkiravari Scs1","area_type":"Rural","shop_code":"06CP057PY","search_string":"  kallakurichi (tk) kallakurichi "},"bbox":[78.9893,11.6299,78.9893,11.6299]},{"type":"Feature","geometry":{"type":"Point","coordinates":[79.1675,11.63]},"properties":{"district":"Kallakurichi","taluk":"Kallakurichi (Tk)","village":"Gurupeedapuram","name":"Kurupedapuram Scs1","area_type":"Rural","shop_code":"06CP101PN","search_string":"  kallakurichi (tk) kallakurichi "},"bbox":[79.1675,11.63,79.1675,11.63]},{"type":"Feature","geometry":{"type":"Point","coordinates":[79.1058,11.6319]},"properties":{"district":"Kallakurichi","taluk":"Kallakurichi (Tk)","village":"Pudhuuchimedu","name":"Pudhuuchimedu","area_type":"Rural","shop_code":"06CP120PY","search_string":"  kallakurichi (tk) kallakurichi "},"bbox":[79.1058,11.6319,79.1058,11.6319]},{"type":"Feature","geometry":{"type":"Point","coordinates":[78.9429,11.633]},"properties":{"district":"Kallakurichi","taluk":"Kallakurichi (Tk)","village":"Siruvathur","name":"Siruvathur Scs1","area_type":"Rural","shop_code":"06CP044PY","search_string":"  kallakurichi (tk) kallakurichi "},"bbox":[78.9429,11.633,78.9429,11.633]},{"type":"Feature","geometry":{"type":"Point","coordinates":[78.9701,11.6346]},"properties":{"district":"Kallakurichi","taluk":"Kallakurichi (Tk)","village":"Varathappanur","name":"Varathappanur Scs1","area_type":"Rural","shop_code":"06CP058PN","search_string":"  kallakurichi (tk) kallakurichi "},"bbox":[78.9701,11.6346,78.9701,11.6346]},{"type":"Feature","geometry":{"type":"Point","coordinates":[78.9554,11.6351]},"properties":{"district":"Kallakurichi","taluk":"Kallakurichi (Tk)","village":"Siruvathur","name":"Siruvathur Scs2","area_type":"Rural","shop_code":"06CP044P1","search_string":"  kallakurichi (tk) kallakurichi "},"bbox":[78.9554,11.6351,78.9554,11.6351]},{"type":"Feature","geometry":{"type":"Point","coordinates":[78.9892,11.6355]},"properties":{"district":"Kallakurichi","taluk":"Kallakurichi (Tk)","village":"Pukkiravari","name":"Puthur Scs1","area_type":"Rural","shop_code":"06CP057P1","search_string":"  kallakurichi (tk) kallakurichi "},"bbox":[78.9892,11.6355,78.9892,11.6355]},{"type":"Feature","geometry":{"type":"Point","coordinates":[79.0133,11.6364]},"properties":{"district":"Kallakurichi","taluk":"Kallakurichi (Tk)","village":"Udayarpalayam","name":"Udayarpalayam","area_type":"Rural","shop_code":"06CP112P1","search_string":"  kallakurichi (tk) kallakurichi "},"bbox":[79.0133,11.6364,79.0133,11.6364]},{"type":"Feature","geometry":{"type":"Point","coordinates":[79.162,11.6365]},"properties":{"district":"Kallakurichi","taluk":"Kallakurichi (Tk)","village":"Sethathur","name":"Sethatur  Scs1","area_type":"Rural","shop_code":"06CP094PN","search_string":"  kallakurichi (tk) kallakurichi "},"bbox":[79.162,11.6365,79.162,11.6365]},{"type":"Feature","geometry":{"type":"Point","coordinates":[78.9119,11.6379]},"properties":{"district":"Kallakurichi","taluk":"Kallakurichi (Tk)","village":"Rayarpalayam","name":"Rayarpalayam  Scs1","area_type":"Rural","shop_code":"06CP165PY","search_string":"  kallakurichi (tk) kallakurichi "},"bbox":[78.9119,11.6379,78.9119,11.6379]},{"type":"Feature","geometry":{"type":"Point","coordinates":[78.9208,11.6393]},"properties":{"district":"Kallakurichi","taluk":"Kallakurichi (Tk)","village":"Pethanur","name":"Pathanur  Scs1","area_type":"Rural","shop_code":"06CP162PN","search_string":"  kallakurichi (tk) kallakurichi "},"bbox":[78.9208,11.6393,78.9208,11.6393]},{"type":"Feature","geometry":{"type":"Point","coordinates":[79.1137,11.6395]},"properties":{"district":"Kallakurichi","taluk":"Kallakurichi (Tk)","village":"Udayanachi","name":"Udayanachi","area_type":"Rural","shop_code":"06CP119PY","search_string":"  kallakurichi (tk) kallakurichi "},"bbox":[79.1137,11.6395,79.1137,11.6395]},{"type":"Feature","geometry":{"type":"Point","coordinates":[79.1218,11.6406]},"properties":{"district":"Kallakurichi","taluk":"Kallakurichi (Tk)","village":"U Puthur","name":"U.Puthur","area_type":"Rural","shop_code":"06CP119P1","search_string":"  kallakurichi (tk) kallakurichi "},"bbox":[79.1218,11.6406,79.1218,11.6406]},{"type":"Feature","geometry":{"type":"Point","coordinates":[79.0771,11.6417]},"properties":{"district":"Kallakurichi","taluk":"Kallakurichi (Tk)","village":"Varanjaram","name":"Varangjaram  Scs1","area_type":"Rural","shop_code":"06CP114PN","search_string":"  kallakurichi (tk) kallakurichi "},"bbox":[79.0771,11.6417,79.0771,11.6417]},{"type":"Feature","geometry":{"type":"Point","coordinates":[79.0981,11.6424]},"properties":{"district":"Kallakurichi","taluk":"Kallakurichi (Tk)","village":"Kongarapalayam","name":"Kongarapalayam Patti","area_type":"Rural","shop_code":"06CP115P1","search_string":"  kallakurichi (tk) kallakurichi "},"bbox":[79.0981,11.6424,79.0981,11.6424]},{"type":"Feature","geometry":{"type":"Point","coordinates":[78.9883,11.6441]},"properties":{"district":"Kallakurichi","taluk":"Kallakurichi (Tk)","village":"Vanavaretty","name":"Vanavarety New Colony","area_type":"Rural","shop_code":"06CP059P1","search_string":"  kallakurichi (tk) kallakurichi "},"bbox":[78.9883,11.6441,78.9883,11.6441]},{"type":"Feature","geometry":{"type":"Point","coordinates":[79.1003,11.6451]},"properties":{"district":"Kallakurichi","taluk":"Kallakurichi (Tk)","village":"Pazayauchimedu","name":"Pazayauchimedu","area_type":"Rural","shop_code":"06CP120P1","search_string":"  kallakurichi (tk) kallakurichi "},"bbox":[79.1003,11.6451,79.1003,11.6451]},{"type":"Feature","geometry":{"type":"Point","coordinates":[78.9165,11.6478]},"properties":{"district":"Kallakurichi","taluk":"Kallakurichi (Tk)","village":"Kaniyamur","name":"Kaniyamur","area_type":"Rural","shop_code":"06CP161PY","search_string":"  kallakurichi (tk) kallakurichi "},"bbox":[78.9165,11.6478,78.9165,11.6478]},{"type":"Feature","geometry":{"type":"Point","coordinates":[79.0231,11.6483]},"properties":{"district":"Kallakurichi","taluk":"Kallakurichi (Tk)","village":"Chathanur","name":"Chathanur  Scs1","area_type":"Rural","shop_code":"06CP107PN","search_string":"  kallakurichi (tk) kallakurichi "},"bbox":[79.0231,11.6483,79.0231,11.6483]},{"type":"Feature","geometry":{"type":"Point","coordinates":[79.0696,11.6499]},"properties":{"district":"Kallakurichi","taluk":"Kallakurichi (Tk)","village":"Vellakurichi","name":"Vellakurichi  Scs1","area_type":"Rural","shop_code":"06CP109PN","search_string":"  kallakurichi (tk) kallakurichi "},"bbox":[79.0696,11.6499,79.0696,11.6499]},{"type":"Feature","geometry":{"type":"Point","coordinates":[78.9891,11.6522]},"properties":{"district":"Kallakurichi","taluk":"Kallakurichi (Tk)","village":"Vanavaretty","name":"Vanavaratty Scs1","area_type":"Rural","shop_code":"06CP059PY","search_string":"  kallakurichi (tk) kallakurichi "},"bbox":[78.9891,11.6522,78.9891,11.6522]},{"type":"Feature","geometry":{"type":"Point","coordinates":[78.9785,11.6546]},"properties":{"district":"Kallakurichi","taluk":"Kallakurichi (Tk)","village":"Thenthorasalur","name":"Thenthorasalur Scs1","area_type":"Rural","shop_code":"06CP062PN","search_string":"  kallakurichi (tk) kallakurichi "},"bbox":[78.9785,11.6546,78.9785,11.6546]},{"type":"Feature","geometry":{"type":"Point","coordinates":[78.9381,11.6552]},"properties":{"district":"Kallakurichi","taluk":"Kallakurichi (Tk)","village":"Melur","name":"Melur Scs1","area_type":"Rural","shop_code":"06CP041PN","search_string":"  kallakurichi (tk) kallakurichi "},"bbox":[78.9381,11.6552,78.9381,11.6552]},{"type":"Feature","geometry":{"type":"Point","coordinates":[79.0992,11.6557]},"properties":{"district":"Kallakurichi","taluk":"Kallakurichi (Tk)","village":"Kongarapalayam","name":"Kongarapalayam","area_type":"Rural","shop_code":"06CP115PY","search_string":"  kallakurichi (tk) kallakurichi "},"bbox":[79.0992,11.6557,79.0992,11.6557]},{"type":"Feature","geometry":{"type":"Point","coordinates":[78.9478,11.6559]},"properties":{"district":"Kallakurichi","taluk":"Kallakurichi (Tk)","village":"Eravar","name":"Eravar Scs1","area_type":"Rural","shop_code":"06CP047PN","search_string":"  kallakurichi (tk) kallakurichi "},"bbox":[78.9478,11.6559,78.9478,11.6559]},{"type":"Feature","geometry":{"type":"Point","coordinates":[79.1502,11.656]},"properties":{"district":"Kallakurichi","taluk":"Kallakurichi (Tk)","village":"Ninnaiyur","name":"Ninnayur  Scs1","area_type":"Rural","shop_code":"06CP092PN","search_string":"  kallakurichi (tk) kallakurichi "},"bbox":[79.1502,11.656,79.1502,11.656]},{"type":"Feature","geometry":{"type":"Point","coordinates":[79.0832,11.6575]},"properties":{"district":"Kallakurichi","taluk":"Kallakurichi (Tk)","village":"Kandachimangalam","name":"Kandachimangalam  Scs1","area_type":"Rural","shop_code":"06CP117PN","search_string":"  kallakurichi (tk) kallakurichi "},"bbox":[79.0832,11.6575,79.0832,11.6575]},{"type":"Feature","geometry":{"type":"Point","coordinates":[78.9358,11.6583]},"properties":{"district":"Kallakurichi","taluk":"Kallakurichi (Tk)","village":"Kezhapoondi","name":"Kezpoondi","area_type":"Rural","shop_code":"06CP043PN","search_string":"  kallakurichi (tk) kallakurichi "},"bbox":[78.9358,11.6583,78.9358,11.6583]},{"type":"Feature","geometry":{"type":"Point","coordinates":[79.1188,11.6585]},"properties":{"district":"Kallakurichi","taluk":"Kallakurichi (Tk)","village":"Somanathapuram","name":"Somanathapuram","area_type":"Rural","shop_code":"06CP097P1","search_string":"  kallakurichi (tk) kallakurichi "},"bbox":[79.1188,11.6585,79.1188,11.6585]},{"type":"Feature","geometry":{"type":"Point","coordinates":[78.8998,11.6586]},"properties":{"district":"Kallakurichi","taluk":"Kallakurichi (Tk)","village":"Kaniyamur","name":"Kaniyamur Kaikatti","area_type":"Rural","shop_code":"06CP161P1","search_string":"  kallakurichi (tk) kallakurichi "},"bbox":[78.8998,11.6586,78.8998,11.6586]},{"type":"Feature","geometry":{"type":"Point","coordinates":[78.9204,11.6591]},"properties":{"district":"Kallakurichi","taluk":"Kallakurichi (Tk)","village":"Veenaitherthapuram","name":"Vennaitherthapuram Scs1","area_type":"Rural","shop_code":"06CP046PN","search_string":"  kallakurichi (tk) kallakurichi "},"bbox":[78.9204,11.6591,78.9204,11.6591]},{"type":"Feature","geometry":{"type":"Point","coordinates":[79.1647,11.6604]},"properties":{"district":"Kallakurichi","taluk":"Kallakurichi (Tk)","village":"Kottaiyur","name":"Kottaiyur Scs1","area_type":"Rural","shop_code":"06CP093PN","search_string":"  kallakurichi (tk) kallakurichi "},"bbox":[79.1647,11.6604,79.1647,11.6604]},{"type":"Feature","geometry":{"type":"Point","coordinates":[79.0757,11.6618]},"properties":{"district":"Kallakurichi","taluk":"Kallakurichi (Tk)","village":"Nagalur","name":"Nagalure Scs1","area_type":"Rural","shop_code":"06CP116PN","search_string":"  kallakurichi (tk) kallakurichi "},"bbox":[79.0757,11.6618,79.0757,11.6618]},{"type":"Feature","geometry":{"type":"Point","coordinates":[78.9646,11.6622]},"properties":{"district":"Kallakurichi","taluk":"Kallakurichi (Tk)","village":"Latchiyam","name":"Latchiyam Scs1","area_type":"Rural","shop_code":"06CP051PN","search_string":"  kallakurichi (tk) kallakurichi "},"bbox":[78.9646,11.6622,78.9646,11.6622]},{"type":"Feature","geometry":{"type":"Point","coordinates":[78.9706,11.6679]},"properties":{"district":"Kallakurichi","taluk":"Kallakurichi (Tk)","village":"Kattanandal","name":"Kattanandal Scs1","area_type":"Rural","shop_code":"06CP052PN","search_string":"  kallakurichi (tk) kallakurichi "},"bbox":[78.9706,11.6679,78.9706,11.6679]},{"type":"Feature","geometry":{"type":"Point","coordinates":[79.0398,11.6682]},"properties":{"district":"Kallakurichi","taluk":"Kallakurichi (Tk)","village":"Porasakurichi","name":"Porasakurichi  Scs1","area_type":"Rural","shop_code":"06CP108PN","search_string":"  kallakurichi (tk) kallakurichi "},"bbox":[79.0398,11.6682,79.0398,11.6682]},{"type":"Feature","geometry":{"type":"Point","coordinates":[79.0323,11.6689]},"properties":{"district":"Kallakurichi","taluk":"Kallakurichi (Tk)","village":"Kanagur","name":"Kanagur  Scs1","area_type":"Rural","shop_code":"06CP106PN","search_string":"  kallakurichi (tk) kallakurichi "},"bbox":[79.0323,11.6689,79.0323,11.6689]},{"type":"Feature","geometry":{"type":"Point","coordinates":[79.0824,11.6703]},"properties":{"district":"Kallakurichi","taluk":"Kallakurichi (Tk)","village":"Vadapoondi","name":"Vadapoondi  Scs1","area_type":"Rural","shop_code":"06CP118PN","search_string":"  kallakurichi (tk) kallakurichi "},"bbox":[79.0824,11.6703,79.0824,11.6703]},{"type":"Feature","geometry":{"type":"Point","coordinates":[79.1194,11.6733]},"properties":{"district":"Kallakurichi","taluk":"Kallakurichi (Tk)","village":"Kudiyanallur","name":"Kudiyanallur","area_type":"Rural","shop_code":"06CP097PY","search_string":"  kallakurichi (tk) kallakurichi "},"bbox":[79.1194,11.6733,79.1194,11.6733]},{"type":"Feature","geometry":{"type":"Point","coordinates":[79.0985,11.6769]},"properties":{"district":"Kallakurichi","taluk":"Kallakurichi (Tk)","village":"Vengaivadi","name":"Vengaivadi Scs1","area_type":"Rural","shop_code":"06CP089PN","search_string":"  kallakurichi (tk) kallakurichi "},"bbox":[79.0985,11.6769,79.0985,11.6769]},{"type":"Feature","geometry":{"type":"Point","coordinates":[78.9016,11.6805]},"properties":{"district":"Kallakurichi","taluk":"Kallakurichi (Tk)","village":"Bankaram","name":"Bankaram","area_type":"Rural","shop_code":"06CP159PN","search_string":"  kallakurichi (tk) kallakurichi "},"bbox":[78.9016,11.6805,78.9016,11.6805]},{"type":"Feature","geometry":{"type":"Point","coordinates":[78.8985,11.681]},"properties":{"district":"Kallakurichi","taluk":"Kallakurichi (Tk)","village":"Namachivayapuram","name":"Namachivayapuram","area_type":"Rural","shop_code":"06CP166PY","search_string":"  kallakurichi (tk) kallakurichi "},"bbox":[78.8985,11.681,78.8985,11.681]},{"type":"Feature","geometry":{"type":"Point","coordinates":[78.9236,11.6825]},"properties":{"district":"Kallakurichi","taluk":"Kallakurichi (Tk)","village":"Indili","name":"Indili Colony","area_type":"Rural","shop_code":"06CP042P1","search_string":"  kallakurichi (tk) kallakurichi "},"bbox":[78.9236,11.6825,78.9236,11.6825]},{"type":"Feature","geometry":{"type":"Point","coordinates":[79.1539,11.6825]},"properties":{"district":"Kallakurichi","taluk":"Kallakurichi (Tk)","village":"Sirunagalur","name":"Sirunagalur  Scs1","area_type":"Rural","shop_code":"06CP096PN","search_string":"  kallakurichi (tk) kallakurichi "},"bbox":[79.1539,11.6825,79.1539,11.6825]},{"type":"Feature","geometry":{"type":"Point","coordinates":[79.0156,11.6869]},"properties":{"district":"Kallakurichi","taluk":"Kallakurichi (Tk)","village":"Malaikotalam","name":"Malaikotalam Colony","area_type":"Rural","shop_code":"06CP050P1","search_string":"  kallakurichi (tk) kallakurichi "},"bbox":[79.0156,11.6869,79.0156,11.6869]},{"type":"Feature","geometry":{"type":"Point","coordinates":[79.0476,11.6874]},"properties":{"district":"Kallakurichi","taluk":"Kallakurichi (Tk)","village":"Virugavur","name":"Verugavur  Scs1","area_type":"Rural","shop_code":"06CP104PN","search_string":"  kallakurichi (tk) kallakurichi "},"bbox":[79.0476,11.6874,79.0476,11.6874]},{"type":"Feature","geometry":{"type":"Point","coordinates":[78.9271,11.6875]},"properties":{"district":"Kallakurichi","taluk":"Kallakurichi (Tk)","village":"Indili","name":"Indili","area_type":"Rural","shop_code":"06CP042PY","search_string":"  kallakurichi (tk) kallakurichi "},"bbox":[78.9271,11.6875,78.9271,11.6875]},{"type":"Feature","geometry":{"type":"Point","coordinates":[79.0143,11.6893]},"properties":{"district":"Kallakurichi","taluk":"Kallakurichi (Tk)","village":"Malaikotalam","name":"Malaikotalam Scs1","area_type":"Rural","shop_code":"06CP050PY","search_string":"  kallakurichi (tk) kallakurichi "},"bbox":[79.0143,11.6893,79.0143,11.6893]},{"type":"Feature","geometry":{"type":"Point","coordinates":[79.148,11.6902]},"properties":{"district":"Kallakurichi","taluk":"Kallakurichi (Tk)","village":"Poraiyur","name":"Poraiyur Scs1","area_type":"Rural","shop_code":"06CP095PN","search_string":"  kallakurichi (tk) kallakurichi "},"bbox":[79.148,11.6902,79.148,11.6902]},{"type":"Feature","geometry":{"type":"Point","coordinates":[78.9527,11.6922]},"properties":{"district":"Kallakurichi","taluk":"Kallakurichi (Tk)","village":"Porpadakurichi","name":"Kaattukottai","area_type":"Rural","shop_code":"06CP056P1","search_string":"  kallakurichi (tk) kallakurichi "},"bbox":[78.9527,11.6922,78.9527,11.6922]},{"type":"Feature","geometry":{"type":"Point","coordinates":[79.0807,11.6923]},"properties":{"district":"Kallakurichi","taluk":"Kallakurichi (Tk)","village":"Sithalur","name":"Sithalur Scs1","area_type":"Rural","shop_code":"06CP090PN","search_string":"  kallakurichi (tk) kallakurichi "},"bbox":[79.0807,11.6923,79.0807,11.6923]},{"type":"Feature","geometry":{"type":"Point","coordinates":[78.9546,11.693]},"properties":{"district":"Kallakurichi","taluk":"Kallakurichi (Tk)","village":"Porpadakurichi","name":"Porpadakurichi Scs1","area_type":"Rural","shop_code":"06CP056PY","search_string":"  kallakurichi (tk) kallakurichi "},"bbox":[78.9546,11.693,78.9546,11.693]},{"type":"Feature","geometry":{"type":"Point","coordinates":[78.9835,11.6964]},"properties":{"district":"Kallakurichi","taluk":"Kallakurichi (Tk)","village":"Vilambar","name":"Vilambar Scs1","area_type":"Rural","shop_code":"06CP054PY","search_string":"  kallakurichi (tk) kallakurichi "},"bbox":[78.9835,11.6964,78.9835,11.6964]},{"type":"Feature","geometry":{"type":"Point","coordinates":[78.9863,11.6966]},"properties":{"district":"Kallakurichi","taluk":"Kallakurichi (Tk)","village":"Vilambar","name":"Vilambar Scs2","area_type":"Rural","shop_code":"06CP054P1","search_string":"  kallakurichi (tk) kallakurichi "},"bbox":[78.9863,11.6966,78.9863,11.6966]},{"type":"Feature","geometry":{"type":"Point","coordinates":[78.9621,11.6987]},"properties":{"district":"Kallakurichi","taluk":"Kallakurichi (Tk)","village":"Thachur","name":"Thachur  Scs1","area_type":"Rural","shop_code":"06CP053PN","search_string":"  kallakurichi (tk) kallakurichi "},"bbox":[78.9621,11.6987,78.9621,11.6987]},{"type":"Feature","geometry":{"type":"Point","coordinates":[79.0364,11.6992]},"properties":{"district":"Kallakurichi","taluk":"Kallakurichi (Tk)","village":"K Mudianur","name":"Ka.Mudianur Scs1","area_type":"Rural","shop_code":"06CP102PN","search_string":"  kallakurichi (tk) kallakurichi "},"bbox":[79.0364,11.6992,79.0364,11.6992]},{"type":"Feature","geometry":{"type":"Point","coordinates":[79.1035,11.7027]},"properties":{"district":"Kallakurichi","taluk":"Kallakurichi (Tk)","village":"Siruval","name":"Siruval Scs1","area_type":"Rural","shop_code":"06CP088PN","search_string":"  kallakurichi (tk) kallakurichi "},"bbox":[79.1035,11.7027,79.1035,11.7027]},{"type":"Feature","geometry":{"type":"Point","coordinates":[79.1014,11.7035]},"properties":{"district":"Kallakurichi","taluk":"Kallakurichi (Tk)","village":"Thiyakai","name":"Thiyakai Scs1","area_type":"Rural","shop_code":"06CP087PN","search_string":"  kallakurichi (tk) kallakurichi "},"bbox":[79.1014,11.7035,79.1014,11.7035]},{"type":"Feature","geometry":{"type":"Point","coordinates":[79.03,11.7038]},"properties":{"district":"Kallakurichi","taluk":"Kallakurichi (Tk)","village":"Kurur","name":"Kurur  Scs1","area_type":"Rural","shop_code":"06CP105PN","search_string":"  kallakurichi (tk) kallakurichi "},"bbox":[79.03,11.7038,79.03,11.7038]},{"type":"Feature","geometry":{"type":"Point","coordinates":[78.9228,11.7039]},"properties":{"district":"Kallakurichi","taluk":"Kallakurichi (Tk)","village":"Ulakangkathan","name":"Ulakankathan","area_type":"Rural","shop_code":"06CP160PY","search_string":"  kallakurichi (tk) kallakurichi "},"bbox":[78.9228,11.7039,78.9228,11.7039]},{"type":"Feature","geometry":{"type":"Point","coordinates":[79.0727,11.7076]},"properties":{"district":"Kallakurichi","taluk":"Kallakurichi (Tk)","village":"Panaiangal","name":"Panaiyangal  Scs1","area_type":"Rural","shop_code":"06CP091PN","search_string":"  kallakurichi (tk) kallakurichi "},"bbox":[79.0727,11.7076,79.0727,11.7076]},{"type":"Feature","geometry":{"type":"Point","coordinates":[79.0125,11.7161]},"properties":{"district":"Kallakurichi","taluk":"Kallakurichi (Tk)","village":"Niraimathi","name":"Niraimathi Scs1","area_type":"Rural","shop_code":"06CP031PY","search_string":"  kallakurichi (tk) kallakurichi "},"bbox":[79.0125,11.7161,79.0125,11.7161]},{"type":"Feature","geometry":{"type":"Point","coordinates":[78.996,11.7163]},"properties":{"district":"Kallakurichi","taluk":"Kallakurichi (Tk)","village":"Niraimathi","name":"Niraimathi Kudikadu Scs1","area_type":"Rural","shop_code":"06CP031P1","search_string":"  kallakurichi (tk) kallakurichi "},"bbox":[78.996,11.7163,78.996,11.7163]},{"type":"Feature","geometry":{"type":"Point","coordinates":[79.0449,11.7164]},"properties":{"district":"Kallakurichi","taluk":"Kallakurichi (Tk)","village":"Madam","name":"Madam  Scs1","area_type":"Rural","shop_code":"06CP103PN","search_string":"  kallakurichi (tk) kallakurichi "},"bbox":[79.0449,11.7164,79.0449,11.7164]},{"type":"Feature","geometry":{"type":"Point","coordinates":[79.0811,11.7167]},"properties":{"district":"Kallakurichi","taluk":"Kallakurichi (Tk)","village":"Villakur","name":"Villakur","area_type":"Rural","shop_code":"06CP081PY","search_string":"  kallakurichi (tk) kallakurichi "},"bbox":[79.0811,11.7167,79.0811,11.7167]},{"type":"Feature","geometry":{"type":"Point","coordinates":[78.9786,11.7172]},"properties":{"district":"Kallakurichi","taluk":"Kallakurichi (Tk)","village":"Thenkiranur","name":"Thenkeerunur Scs2","area_type":"Rural","shop_code":"06CP048P1","search_string":"  kallakurichi (tk) kallakurichi "},"bbox":[78.9786,11.7172,78.9786,11.7172]},{"type":"Feature","geometry":{"type":"Point","coordinates":[78.997,11.7173]},"properties":{"district":"Kallakurichi","taluk":"Kallakurichi (Tk)","village":"Neelamangalam","name":"Neelamangalam Scs1","area_type":"Rural","shop_code":"06CP034PY","search_string":"  kallakurichi (tk) kallakurichi "},"bbox":[78.997,11.7173,78.997,11.7173]},{"type":"Feature","geometry":{"type":"Point","coordinates":[78.9763,11.7187]},"properties":{"district":"Kallakurichi","taluk":"Kallakurichi (Tk)","village":"Thenkiranur","name":"Thenkeerunur Scs1","area_type":"Rural","shop_code":"06CP048PY","search_string":"  kallakurichi (tk) kallakurichi "},"bbox":[78.9763,11.7187,78.9763,11.7187]},{"type":"Feature","geometry":{"type":"Point","coordinates":[79.0994,11.7225]},"properties":{"district":"Kallakurichi","taluk":"Kallakurichi (Tk)","village":"Chinnamampattu","name":"Chinnamampattu Scs1","area_type":"Rural","shop_code":"06CP076PN","search_string":"  kallakurichi (tk) kallakurichi "},"bbox":[79.0994,11.7225,79.0994,11.7225]},{"type":"Feature","geometry":{"type":"Point","coordinates":[78.9584,11.7236]},"properties":{"district":"Kallakurichi","taluk":"Kallakurichi (Tk)","village":"Emmaper","name":"Emmaper","area_type":"Urban","shop_code":"06CP005PN","search_string":"  kallakurichi (tk) kallakurichi "},"bbox":[78.9584,11.7236,78.9584,11.7236]},{"type":"Feature","geometry":{"type":"Point","coordinates":[79.004,11.724]},"properties":{"district":"Kallakurichi","taluk":"Kallakurichi (Tk)","village":"Neelamangalam","name":"Neelamangalam Colony Scs1","area_type":"Rural","shop_code":"06CP034P1","search_string":"  kallakurichi (tk) kallakurichi "},"bbox":[79.004,11.724,79.004,11.724]},{"type":"Feature","geometry":{"type":"Point","coordinates":[78.9296,11.7241]},"properties":{"district":"Kallakurichi","taluk":"Kallakurichi (Tk)","village":"Karanur","name":"Karanur","area_type":"Rural","shop_code":"06CP175PN","search_string":"  kallakurichi (tk) kallakurichi "},"bbox":[78.9296,11.7241,78.9296,11.7241]},{"type":"Feature","geometry":{"type":"Point","coordinates":[79.1293,11.7248]},"properties":{"district":"Kallakurichi","taluk":"Kallakurichi (Tk)","village":"Vazavanthankuppam","name":"Vazavanthankuppam","area_type":"Rural","shop_code":"06CP084P1","search_string":"  kallakurichi (tk) kallakurichi "},"bbox":[79.1293,11.7248,79.1293,11.7248]},{"type":"Feature","geometry":{"type":"Point","coordinates":[78.9156,11.7283]},"properties":{"district":"Kallakurichi","taluk":"Kallakurichi (Tk)","village":"Kuthiraichandal","name":"Kuthiraichandal","area_type":"Rural","shop_code":"06CP172PY","search_string":"  kallakurichi (tk) kallakurichi "},"bbox":[78.9156,11.7283,78.9156,11.7283]},{"type":"Feature","geometry":{"type":"Point","coordinates":[78.9625,11.7285]},"properties":{"district":"Kallakurichi","taluk":"Kallakurichi (Tk)","village":"Anna Nagar","name":"Anna Nagar","area_type":"Urban","shop_code":"06CP188PN","search_string":"  kallakurichi (tk) kallakurichi "},"bbox":[78.9625,11.7285,78.9625,11.7285]},{"type":"Feature","geometry":{"type":"Point","coordinates":[78.9546,11.7285]},"properties":{"district":"Kallakurichi","taluk":"Kallakurichi (Tk)","village":"Kareyappanagar","name":"Kareyappa Nagar","area_type":"Urban","shop_code":"06CP006PN","search_string":"  kallakurichi (tk) kallakurichi "},"bbox":[78.9546,11.7285,78.9546,11.7285]},{"type":"Feature","geometry":{"type":"Point","coordinates":[79.0767,11.7288]},"properties":{"district":"Kallakurichi","taluk":"Kallakurichi (Tk)","village":"Pukkulam","name":"Pukkulam Scs1","area_type":"Urban","shop_code":"06CP028PN","search_string":"  kallakurichi (tk) kallakurichi "},"bbox":[79.0767,11.7288,79.0767,11.7288]},{"type":"Feature","geometry":{"type":"Point","coordinates":[79.0935,11.7331]},"properties":{"district":"Kallakurichi","taluk":"Kallakurichi (Tk)","village":"Periyamambattu","name":"Periyamambattu Scs1","area_type":"Urban","shop_code":"06CP026PN","search_string":"  kallakurichi (tk) kallakurichi "},"bbox":[79.0935,11.7331,79.0935,11.7331]},{"type":"Feature","geometry":{"type":"Point","coordinates":[79.0657,11.7341]},"properties":{"district":"Kallakurichi","taluk":"Kallakurichi (Tk)","village":"Peridivimangalam","name":"Peridivimangalam Colony","area_type":"Rural","shop_code":"06CP079P1","search_string":"  kallakurichi (tk) kallakurichi "},"bbox":[79.0657,11.7341,79.0657,11.7341]},{"type":"Feature","geometry":{"type":"Point","coordinates":[78.9667,11.7352]},"properties":{"district":"Kallakurichi","taluk":"Kallakurichi (Tk)","village":"Kallakurichi","name":"Kallakurchi Scs-3","area_type":"Urban","shop_code":"06CB003PN","search_string":"  kallakurichi (tk) kallakurichi "},"bbox":[78.9667,11.7352,78.9667,11.7352]},{"type":"Feature","geometry":{"type":"Point","coordinates":[78.9613,11.7354]},"properties":{"district":"Kallakurichi","taluk":"Kallakurichi (Tk)","village":"Kallakurichi","name":"Kallakurchi Scs-1","area_type":"Urban","shop_code":"06CB001PN","search_string":"  kallakurichi (tk) kallakurichi "},"bbox":[78.9613,11.7354,78.9613,11.7354]},{"type":"Feature","geometry":{"type":"Point","coordinates":[78.9613,11.7354]},"properties":{"district":"Kallakurichi","taluk":"Kallakurichi (Tk)","village":"Kallakurichi","name":"Kallakurichi Saravanabava -6","area_type":"Urban","shop_code":"06CB006PN","search_string":"  kallakurichi (tk) kallakurichi "},"bbox":[78.9613,11.7354,78.9613,11.7354]},{"type":"Feature","geometry":{"type":"Point","coordinates":[78.9561,11.7356]},"properties":{"district":"Kallakurichi","taluk":"Kallakurichi (Tk)","village":"Kallakurichi","name":"Kallakurchi Scs-5","area_type":"Urban","shop_code":"06CB005PN","search_string":"  kallakurichi (tk) kallakurichi "},"bbox":[78.9561,11.7356,78.9561,11.7356]},{"type":"Feature","geometry":{"type":"Point","coordinates":[78.9187,11.7356]},"properties":{"district":"Kallakurichi","taluk":"Kallakurichi (Tk)","village":"Kuthiraichandal","name":"Kuthiraichandal Colony","area_type":"Rural","shop_code":"06CP172P1","search_string":"  kallakurichi (tk) kallakurichi "},"bbox":[78.9187,11.7356,78.9187,11.7356]},{"type":"Feature","geometry":{"type":"Point","coordinates":[78.9046,11.7359]},"properties":{"district":"Kallakurichi","taluk":"Kallakurichi (Tk)","village":"Nallathur","name":"Nallathur","area_type":"Rural","shop_code":"06CP176PN","search_string":"  kallakurichi (tk) kallakurichi "},"bbox":[78.9046,11.7359,78.9046,11.7359]},{"type":"Feature","geometry":{"type":"Point","coordinates":[79.0518,11.7366]},"properties":{"district":"Kallakurichi","taluk":"Kallakurichi (Tk)","village":"Peridivimangalam","name":"Peridivimangalam","area_type":"Rural","shop_code":"06CP079PY","search_string":"  kallakurichi (tk) kallakurichi "},"bbox":[79.0518,11.7366,79.0518,11.7366]},{"type":"Feature","geometry":{"type":"Point","coordinates":[78.9576,11.7372]},"properties":{"district":"Kallakurichi","taluk":"Kallakurichi (Tk)","village":"Kallakurichi","name":"Kallakurichi  Cms-3","area_type":"Urban","shop_code":"06CC003P1","search_string":"  kallakurichi (tk) kallakurichi "},"bbox":[78.9576,11.7372,78.9576,11.7372]},{"type":"Feature","geometry":{"type":"Point","coordinates":[79.125,11.7378]},"properties":{"district":"Kallakurichi","taluk":"Kallakurichi (Tk)","village":"Thimmalai","name":"Thimmalai","area_type":"Rural","shop_code":"06CP084PY","search_string":"  kallakurichi (tk) kallakurichi "},"bbox":[79.125,11.7378,79.125,11.7378]},{"type":"Feature","geometry":{"type":"Point","coordinates":[79.125,11.7389]},"properties":{"district":"Kallakurichi","taluk":"Kallakurichi (Tk)","village":"Melvizi","name":"Melvezi  Scs1","area_type":"Rural","shop_code":"06CP085PN","search_string":"  kallakurichi (tk) kallakurichi "},"bbox":[79.125,11.7389,79.125,11.7389]},{"type":"Feature","geometry":{"type":"Point","coordinates":[79.0812,11.7396]},"properties":{"district":"Kallakurichi","taluk":"Kallakurichi (Tk)","village":"Thiyagadurugam","name":"Thiyagadurugam Scs2","area_type":"Urban","shop_code":"06CP025PN","search_string":"  kallakurichi (tk) kallakurichi "},"bbox":[79.0812,11.7396,79.0812,11.7396]},{"type":"Feature","geometry":{"type":"Point","coordinates":[78.9607,11.7397]},"properties":{"district":"Kallakurichi","taluk":"Kallakurichi (Tk)","village":"Kallakurichi","name":"Kallakurichi  Cab-1","area_type":"Urban","shop_code":"06CP001PN","search_string":"  kallakurichi (tk) kallakurichi "},"bbox":[78.9607,11.7397,78.9607,11.7397]},{"type":"Feature","geometry":{"type":"Point","coordinates":[78.9606,11.7397]},"properties":{"district":"Kallakurichi","taluk":"Kallakurichi (Tk)","village":"Kallakurichi","name":"Kallakurichi  Cab-3","area_type":"Urban","shop_code":"06CP003PN","search_string":"  kallakurichi (tk) kallakurichi "},"bbox":[78.9606,11.7397,78.9606,11.7397]},{"type":"Feature","geometry":{"type":"Point","coordinates":[78.9531,11.7398]},"properties":{"district":"Kallakurichi","taluk":"Kallakurichi (Tk)","village":"Kallakurichi","name":"Kallakurichi Saravanabava -7","area_type":"Urban","shop_code":"06CB007PN","search_string":"  kallakurichi (tk) kallakurichi "},"bbox":[78.9531,11.7398,78.9531,11.7398]},{"type":"Feature","geometry":{"type":"Point","coordinates":[78.9631,11.74]},"properties":{"district":"Kallakurichi","taluk":"Kallakurichi (Tk)","village":"Kallakurichi","name":"Kallakurichi  Cms-2","area_type":"Urban","shop_code":"06CC001PN","search_string":"  kallakurichi (tk) kallakurichi "},"bbox":[78.9631,11.74,78.9631,11.74]},{"type":"Feature","geometry":{"type":"Point","coordinates":[78.9526,11.74]},"properties":{"district":"Kallakurichi","taluk":"Kallakurichi (Tk)","village":"Kallakurichi","name":"Kallakurchi Scs-2","area_type":"Urban","shop_code":"06CB002PN","search_string":"  kallakurichi (tk) kallakurichi "},"bbox":[78.9526,11.74,78.9526,11.74]},{"type":"Feature","geometry":{"type":"Point","coordinates":[78.9631,11.7401]},"properties":{"district":"Kallakurichi","taluk":"Kallakurichi (Tk)","village":"Kallakurichi","name":"Kallakurichi  Cms-3","area_type":"Urban","shop_code":"06CC003PY","search_string":"  kallakurichi (tk) kallakurichi "},"bbox":[78.9631,11.7401,78.9631,11.7401]},{"type":"Feature","geometry":{"type":"Point","coordinates":[78.9672,11.7401]},"properties":{"district":"Kallakurichi","taluk":"Kallakurichi (Tk)","village":"Kallakurichi","name":"Kallakurichi  Cab-4","area_type":"Urban","shop_code":"06CP004PN","search_string":"  kallakurichi (tk) kallakurichi "},"bbox":[78.9672,11.7401,78.9672,11.7401]},{"type":"Feature","geometry":{"type":"Point","coordinates":[78.9631,11.7403]},"properties":{"district":"Kallakurichi","taluk":"Kallakurichi (Tk)","village":"Kallakurichi","name":"Kallakurichi  Cms-2","area_type":"Urban","shop_code":"06CC002PN","search_string":"  kallakurichi (tk) kallakurichi "},"bbox":[78.9631,11.7403,78.9631,11.7403]},{"type":"Feature","geometry":{"type":"Point","coordinates":[78.9629,11.7404]},"properties":{"district":"Kallakurichi","taluk":"Kallakurichi (Tk)","village":"Sirumangalam","name":"Sirumangalam Scs1","area_type":"Rural","shop_code":"06CP061PN","search_string":"  kallakurichi (tk) kallakurichi "},"bbox":[78.9629,11.7404,78.9629,11.7404]},{"type":"Feature","geometry":{"type":"Point","coordinates":[78.9633,11.7406]},"properties":{"district":"Kallakurichi","taluk":"Kallakurichi (Tk)","village":"Kallakurichi","name":"Kallakurichi  Cms-4","area_type":"Urban","shop_code":"06CC004PN","search_string":"  kallakurichi (tk) kallakurichi "},"bbox":[78.9633,11.7406,78.9633,11.7406]},{"type":"Feature","geometry":{"type":"Point","coordinates":[78.9556,11.7412]},"properties":{"district":"Kallakurichi","taluk":"Kallakurichi (Tk)","village":"Kallakurichi","name":"Kallakurchi Scs-4","area_type":"Urban","shop_code":"06CB004PN","search_string":"  kallakurichi (tk) kallakurichi "},"bbox":[78.9556,11.7412,78.9556,11.7412]},{"type":"Feature","geometry":{"type":"Point","coordinates":[79.0629,11.7412]},"properties":{"district":"Kallakurichi","taluk":"Kallakurichi (Tk)","village":"Karimshathakka","name":"Karimshathakka Scs1","area_type":"Rural","shop_code":"06CP080PN","search_string":"  kallakurichi (tk) kallakurichi "},"bbox":[79.0629,11.7412,79.0629,11.7412]},{"type":"Feature","geometry":{"type":"Point","coordinates":[79.0765,11.7415]},"properties":{"district":"Kallakurichi","taluk":"Kallakurichi (Tk)","village":"Thiyagadurugam","name":"Thiyagadurgamscs1","area_type":"Urban","shop_code":"06CP024PY","search_string":"  kallakurichi (tk) kallakurichi "},"bbox":[79.0765,11.7415,79.0765,11.7415]},{"type":"Feature","geometry":{"type":"Point","coordinates":[78.9666,11.7424]},"properties":{"district":"Kallakurichi","taluk":"Kallakurichi (Tk)","village":"Kallakurichi","name":"Kallakurichi  Cab-2","area_type":"Urban","shop_code":"06CP002PN","search_string":"  kallakurichi (tk) kallakurichi "},"bbox":[78.9666,11.7424,78.9666,11.7424]},{"type":"Feature","geometry":{"type":"Point","coordinates":[79.0812,11.7436]},"properties":{"district":"Kallakurichi","taluk":"Kallakurichi (Tk)","village":"Periyamambattu","name":"Thiyagadhurugam 4","area_type":"Urban","shop_code":"34CP189PN","search_string":"  kallakurichi (tk) kallakurichi "},"bbox":[79.0812,11.7436,79.0812,11.7436]},{"type":"Feature","geometry":{"type":"Point","coordinates":[79.1321,11.7447]},"properties":{"district":"Kallakurichi","taluk":"Kallakurichi (Tk)","village":"Thennarikuppam","name":"Thennarekuppam Scs1","area_type":"Rural","shop_code":"06CP086PN","search_string":"  kallakurichi (tk) kallakurichi "},"bbox":[79.1321,11.7447,79.1321,11.7447]},{"type":"Feature","geometry":{"type":"Point","coordinates":[79.076,11.7451]},"properties":{"district":"Kallakurichi","taluk":"Kallakurichi (Tk)","village":"Thiyagadurugam","name":"Thiyagadurugam - 3","area_type":"Urban","shop_code":"06CP024P1","search_string":"  kallakurichi (tk) kallakurichi "},"bbox":[79.076,11.7451,79.076,11.7451]},{"type":"Feature","geometry":{"type":"Point","coordinates":[79.0299,11.7489]},"properties":{"district":"Kallakurichi","taluk":"Kallakurichi (Tk)","village":"Veerazolapuram","name":"Veerazolapuram Scs1","area_type":"Rural","shop_code":"06CP035PN","search_string":"  kallakurichi (tk) kallakurichi "},"bbox":[79.0299,11.7489,79.0299,11.7489]},{"type":"Feature","geometry":{"type":"Point","coordinates":[78.9498,11.7498]},"properties":{"district":"Kallakurichi","taluk":"Kallakurichi (Tk)","village":"Ka Mamanandal","name":"Ka.Mamanandal Scs1","area_type":"Rural","shop_code":"06CP029PY","search_string":"  kallakurichi (tk) kallakurichi "},"bbox":[78.9498,11.7498,78.9498,11.7498]},{"type":"Feature","geometry":{"type":"Point","coordinates":[79.0141,11.7501]},"properties":{"district":"Kallakurichi","taluk":"Kallakurichi (Tk)","village":"V Palayam","name":"V.Palayam Scs1","area_type":"Rural","shop_code":"06CP036PN","search_string":"  kallakurichi (tk) kallakurichi "},"bbox":[79.0141,11.7501,79.0141,11.7501]},{"type":"Feature","geometry":{"type":"Point","coordinates":[78.9789,11.751]},"properties":{"district":"Kallakurichi","taluk":"Kallakurichi (Tk)","village":"Siruvangur","name":"Siruvangur Scs2","area_type":"Rural","shop_code":"06CP037P1","search_string":"  kallakurichi (tk) kallakurichi "},"bbox":[78.9789,11.751,78.9789,11.751]},{"type":"Feature","geometry":{"type":"Point","coordinates":[78.9115,11.7512]},"properties":{"district":"Kallakurichi","taluk":"Kallakurichi (Tk)","village":"Mattikaikurichi","name":"Mattikaikurichi","area_type":"Rural","shop_code":"06CP177PN","search_string":"  kallakurichi (tk) kallakurichi "},"bbox":[78.9115,11.7512,78.9115,11.7512]},{"type":"Feature","geometry":{"type":"Point","coordinates":[79.0977,11.7513]},"properties":{"district":"Kallakurichi","taluk":"Kallakurichi (Tk)","village":"Udhayamambattu","name":"Udhayamambattu Scs1","area_type":"Urban","shop_code":"06CP027PN","search_string":"  kallakurichi (tk) kallakurichi "},"bbox":[79.0977,11.7513,79.0977,11.7513]},{"type":"Feature","geometry":{"type":"Point","coordinates":[78.9201,11.7523]},"properties":{"district":"Kallakurichi","taluk":"Kallakurichi (Tk)","village":"Sadaiampattu","name":"Sadaiampattu","area_type":"Rural","shop_code":"06CP173PN","search_string":"  kallakurichi (tk) kallakurichi "},"bbox":[78.9201,11.7523,78.9201,11.7523]},{"type":"Feature","geometry":{"type":"Point","coordinates":[78.9748,11.7532]},"properties":{"district":"Kallakurichi","taluk":"Kallakurichi (Tk)","village":"Siruvangur","name":"Siruvangur Scs1","area_type":"Rural","shop_code":"06CP037PY","search_string":"  kallakurichi (tk) kallakurichi "},"bbox":[78.9748,11.7532,78.9748,11.7532]},{"type":"Feature","geometry":{"type":"Point","coordinates":[78.996,11.7532]},"properties":{"district":"Kallakurichi","taluk":"Kallakurichi (Tk)","village":"Peruvangur","name":"Peruvangur Scs1","area_type":"Rural","shop_code":"06CP040PN","search_string":"  kallakurichi (tk) kallakurichi "},"bbox":[78.996,11.7532,78.996,11.7532]},{"type":"Feature","geometry":{"type":"Point","coordinates":[78.9552,11.7557]},"properties":{"district":"Kallakurichi","taluk":"Kallakurichi (Tk)","village":"Ka Mamanandal","name":"Ka.Mamanandal Scs2","area_type":"Rural","shop_code":"06CP029P1","search_string":"  kallakurichi (tk) kallakurichi "},"bbox":[78.9552,11.7557,78.9552,11.7557]},{"type":"Feature","geometry":{"type":"Point","coordinates":[78.9581,11.7569]},"properties":{"district":"Kallakurichi","taluk":"Kallakurichi (Tk)","village":"Siruvangur","name":"Siruvangur Scs3","area_type":"Rural","shop_code":"06CP039PN","search_string":"  kallakurichi (tk) kallakurichi "},"bbox":[78.9581,11.7569,78.9581,11.7569]},{"type":"Feature","geometry":{"type":"Point","coordinates":[79.0651,11.7602]},"properties":{"district":"Kallakurichi","taluk":"Kallakurichi (Tk)","village":"Vadathorasalur","name":"Vadathorasalur","area_type":"Rural","shop_code":"06CP077P1","search_string":"  kallakurichi (tk) kallakurichi "},"bbox":[79.0651,11.7602,79.0651,11.7602]},{"type":"Feature","geometry":{"type":"Point","coordinates":[79.0707,11.7615]},"properties":{"district":"Kallakurichi","taluk":"Kallakurichi (Tk)","village":"Vadathorasalur","name":"Ayyanarkoil Part Time","area_type":"Rural","shop_code":"06CP077P2","search_string":"  kallakurichi (tk) kallakurichi "},"bbox":[79.0707,11.7615,79.0707,11.7615]},{"type":"Feature","geometry":{"type":"Point","coordinates":[79.0704,11.7671]},"properties":{"district":"Kallakurichi","taluk":"Kallakurichi (Tk)","village":"Vadathorasalur","name":"Vadathorasalur","area_type":"Rural","shop_code":"06CP077PY","search_string":"  kallakurichi (tk) kallakurichi "},"bbox":[79.0704,11.7671,79.0704,11.7671]},{"type":"Feature","geometry":{"type":"Point","coordinates":[79.1115,11.7706]},"properties":{"district":"Kallakurichi","taluk":"Kallakurichi (Tk)","village":"Kunniyur","name":"Kunniyur Scs1","area_type":"Rural","shop_code":"06CP082PN","search_string":"  kallakurichi (tk) kallakurichi "},"bbox":[79.1115,11.7706,79.1115,11.7706]},{"type":"Feature","geometry":{"type":"Point","coordinates":[79.0856,11.7738]},"properties":{"district":"Kallakurichi","taluk":"Kallakurichi (Tk)","village":"Govindasamipuram","name":"Govindasamypuram Scs1","area_type":"Rural","shop_code":"06CP078PN","search_string":"  kallakurichi (tk) kallakurichi "},"bbox":[79.0856,11.7738,79.0856,11.7738]},{"type":"Feature","geometry":{"type":"Point","coordinates":[78.865,11.7762]},"properties":{"district":"Kallakurichi","taluk":"Kallakurichi (Tk)","village":"Madur","name":"Madur Scs1","area_type":"Rural","shop_code":"06CP033PN","search_string":"  kallakurichi (tk) kallakurichi "},"bbox":[78.865,11.7762,78.865,11.7762]},{"type":"Feature","geometry":{"type":"Point","coordinates":[79.106,11.7794]},"properties":{"district":"Kallakurichi","taluk":"Kallakurichi (Tk)","village":"Andiyur","name":"Andeyur Scs1","area_type":"Rural","shop_code":"06CP083PN","search_string":"  kallakurichi (tk) kallakurichi "},"bbox":[79.106,11.7794,79.106,11.7794]},{"type":"Feature","geometry":{"type":"Point","coordinates":[78.7078,11.7044]},"properties":{"district":"Kallakurichi","taluk":"Kalvarayan Hills(TK)","village":"EZHUTHUR","name":"Ezhuthur","area_type":"Rural","shop_code":"06IP157P2","search_string":"  kalvarayan hills(tk) kallakurichi "},"bbox":[78.7078,11.7044,78.7078,11.7044]},{"type":"Feature","geometry":{"type":"Point","coordinates":[78.7551,11.705]},"properties":{"district":"Kallakurichi","taluk":"Kalvarayan Hills(TK)","village":"MELPACHERY","name":"Melpachery","area_type":"Rural","shop_code":"06IP158P1","search_string":"  kalvarayan hills(tk) kallakurichi "},"bbox":[78.7551,11.705,78.7551,11.705]},{"type":"Feature","geometry":{"type":"Point","coordinates":[78.6575,11.7123]},"properties":{"district":"Kallakurichi","taluk":"Kalvarayan Hills(TK)","village":"VAARAM","name":"Vaaram","area_type":"Rural","shop_code":"06IP157P1","search_string":"  kalvarayan hills(tk) kallakurichi "},"bbox":[78.6575,11.7123,78.6575,11.7123]},{"type":"Feature","geometry":{"type":"Point","coordinates":[78.7037,11.7342]},"properties":{"district":"Kallakurichi","taluk":"Kalvarayan Hills(TK)","village":"THORADIPPATTU","name":"Thoradippattu","area_type":"Rural","shop_code":"06IP157PY","search_string":"  kalvarayan hills(tk) kallakurichi "},"bbox":[78.7037,11.7342,78.7037,11.7342]},{"type":"Feature","geometry":{"type":"Point","coordinates":[78.7421,11.7423]},"properties":{"district":"Kallakurichi","taluk":"Kalvarayan Hills(TK)","village":"MUNDIYUR","name":"Mundiyur","area_type":"Rural","shop_code":"06IP158PY","search_string":"  kalvarayan hills(tk) kallakurichi "},"bbox":[78.7421,11.7423,78.7421,11.7423]},{"type":"Feature","geometry":{"type":"Point","coordinates":[78.7963,11.7555]},"properties":{"district":"Kallakurichi","taluk":"Kalvarayan Hills(TK)","village":"POTTIYAM","name":"Pottiyam","area_type":"Rural","shop_code":"06IP159PN","search_string":"  kalvarayan hills(tk) kallakurichi "},"bbox":[78.7963,11.7555,78.7963,11.7555]},{"type":"Feature","geometry":{"type":"Point","coordinates":[78.7071,11.7641]},"properties":{"district":"Kallakurichi","taluk":"Kalvarayan Hills(TK)","village":"Kandikal","name":"Kottaputhoor","area_type":"Rural","shop_code":"06IP162PN","search_string":"  kalvarayan hills(tk) kallakurichi "},"bbox":[78.7071,11.7641,78.7071,11.7641]},{"type":"Feature","geometry":{"type":"Point","coordinates":[78.6618,11.7773]},"properties":{"district":"Kallakurichi","taluk":"Kalvarayan Hills(TK)","village":"ARAMBOONDI","name":"Aramboondi","area_type":"Rural","shop_code":"06IP156PY","search_string":"  kalvarayan hills(tk) kallakurichi "},"bbox":[78.6618,11.7773,78.6618,11.7773]},{"type":"Feature","geometry":{"type":"Point","coordinates":[78.7879,11.7793]},"properties":{"district":"Kallakurichi","taluk":"Kalvarayan Hills(TK)","village":"Malliyampadi","name":"Paranginatham","area_type":"Rural","shop_code":"06IP160PN","search_string":"  kalvarayan hills(tk) kallakurichi "},"bbox":[78.7879,11.7793,78.7879,11.7793]},{"type":"Feature","geometry":{"type":"Point","coordinates":[78.6677,11.787]},"properties":{"district":"Kallakurichi","taluk":"Kalvarayan Hills(TK)","village":"MELMOZHIPPATTU","name":"Melmozhippattu","area_type":"Rural","shop_code":"06IP156P1","search_string":"  kalvarayan hills(tk) kallakurichi "},"bbox":[78.6677,11.787,78.6677,11.787]},{"type":"Feature","geometry":{"type":"Point","coordinates":[78.7388,11.7906]},"properties":{"district":"Kallakurichi","taluk":"Kalvarayan Hills(TK)","village":"THAZHVAZHAPPADI","name":"Thazhvazhappadi","area_type":"Rural","shop_code":"06IP154P1","search_string":"  kalvarayan hills(tk) kallakurichi "},"bbox":[78.7388,11.7906,78.7388,11.7906]},{"type":"Feature","geometry":{"type":"Point","coordinates":[78.7098,11.8001]},"properties":{"district":"Kallakurichi","taluk":"Kalvarayan Hills(TK)","village":"VELLIMALAI","name":"Vellimalai","area_type":"Rural","shop_code":"06IP154PY","search_string":"  kalvarayan hills(tk) kallakurichi "},"bbox":[78.7098,11.8001,78.7098,11.8001]},{"type":"Feature","geometry":{"type":"Point","coordinates":[78.7095,11.8006]},"properties":{"district":"Kallakurichi","taluk":"Kalvarayan Hills(TK)","village":"ENNADU","name":"Ennadu","area_type":"Rural","shop_code":"06IP177PY","search_string":"  kalvarayan hills(tk) kallakurichi "},"bbox":[78.7095,11.8006,78.7095,11.8006]},{"type":"Feature","geometry":{"type":"Point","coordinates":[78.8278,11.8045]},"properties":{"district":"Kallakurichi","taluk":"Kalvarayan Hills(TK)","village":"MATTAPPARAI","name":"Mattapparai","area_type":"Rural","shop_code":"06IP173PY","search_string":"  kalvarayan hills(tk) kallakurichi "},"bbox":[78.8278,11.8045,78.8278,11.8045]},{"type":"Feature","geometry":{"type":"Point","coordinates":[78.8278,11.8052]},"properties":{"district":"Kallakurichi","taluk":"Kalvarayan Hills(TK)","village":"CHINNAKARUVELAMBADI","name":"Chinnakaruvelambadi","area_type":"Rural","shop_code":"06IP173P1","search_string":"  kalvarayan hills(tk) kallakurichi "},"bbox":[78.8278,11.8052,78.8278,11.8052]},{"type":"Feature","geometry":{"type":"Point","coordinates":[78.7155,11.8168]},"properties":{"district":"Kallakurichi","taluk":"Kalvarayan Hills(TK)","village":"KARIYALUR","name":"Kariyalur","area_type":"Rural","shop_code":"06IP155PY","search_string":"  kalvarayan hills(tk) kallakurichi "},"bbox":[78.7155,11.8168,78.7155,11.8168]},{"type":"Feature","geometry":{"type":"Point","coordinates":[78.6934,11.8174]},"properties":{"district":"Kallakurichi","taluk":"Kalvarayan Hills(TK)","village":"THAZHVELLAR","name":"Thazhvellar","area_type":"Rural","shop_code":"06IP155P1","search_string":"  kalvarayan hills(tk) kallakurichi "},"bbox":[78.6934,11.8174,78.6934,11.8174]},{"type":"Feature","geometry":{"type":"Point","coordinates":[78.74,11.8248]},"properties":{"district":"Kallakurichi","taluk":"Kalvarayan Hills(TK)","village":"Nochimedu","name":"Kodundurai","area_type":"Rural","shop_code":"06IP161PN","search_string":"  kalvarayan hills(tk) kallakurichi "},"bbox":[78.74,11.8248,78.74,11.8248]},{"type":"Feature","geometry":{"type":"Point","coordinates":[78.6681,11.8793]},"properties":{"district":"Kallakurichi","taluk":"Kalvarayan Hills(TK)","village":"MANIYARPALAYAM","name":"Maniyarpalayam","area_type":"Rural","shop_code":"06IP174PN","search_string":"  kalvarayan hills(tk) kallakurichi "},"bbox":[78.6681,11.8793,78.6681,11.8793]},{"type":"Feature","geometry":{"type":"Point","coordinates":[78.7363,11.8845]},"properties":{"district":"Kallakurichi","taluk":"Kalvarayan Hills(TK)","village":"VENGODU","name":"Vengodu","area_type":"Rural","shop_code":"06IP177P2","search_string":"  kalvarayan hills(tk) kallakurichi "},"bbox":[78.7363,11.8845,78.7363,11.8845]},{"type":"Feature","geometry":{"type":"Point","coordinates":[78.7873,11.8873]},"properties":{"district":"Kallakurichi","taluk":"Kalvarayan Hills(TK)","village":"Vellarikkadu","name":"Vellarikkadu","area_type":"Rural","shop_code":"06DP175PN","search_string":"  kalvarayan hills(tk) kallakurichi "},"bbox":[78.7873,11.8873,78.7873,11.8873]},{"type":"Feature","geometry":{"type":"Point","coordinates":[78.7954,11.9006]},"properties":{"district":"Kallakurichi","taluk":"Kalvarayan Hills(TK)","village":"Mottampatti","name":"Mottampatti","area_type":"Rural","shop_code":"06DP170PN","search_string":"  kalvarayan hills(tk) kallakurichi "},"bbox":[78.7954,11.9006,78.7954,11.9006]},{"type":"Feature","geometry":{"type":"Point","coordinates":[78.7151,11.9078]},"properties":{"district":"Kallakurichi","taluk":"Kalvarayan Hills(TK)","village":"MELNILAVUR","name":"Melnilavur","area_type":"Rural","shop_code":"06IP177P1","search_string":"  kalvarayan hills(tk) kallakurichi "},"bbox":[78.7151,11.9078,78.7151,11.9078]},{"type":"Feature","geometry":{"type":"Point","coordinates":[78.8239,11.937]},"properties":{"district":"Kallakurichi","taluk":"Kalvarayan Hills(TK)","village":"Perumboor","name":"Perumboor","area_type":"Rural","shop_code":"06DP166PN","search_string":"  kalvarayan hills(tk) kallakurichi "},"bbox":[78.8239,11.937,78.8239,11.937]},{"type":"Feature","geometry":{"type":"Point","coordinates":[78.7115,11.9376]},"properties":{"district":"Kallakurichi","taluk":"Kalvarayan Hills(TK)","village":"Kannoor","name":"Kannoor","area_type":"Rural","shop_code":"06DP169PY","search_string":"  kalvarayan hills(tk) kallakurichi "},"bbox":[78.7115,11.9376,78.7115,11.9376]},{"type":"Feature","geometry":{"type":"Point","coordinates":[78.7458,11.9485]},"properties":{"district":"Kallakurichi","taluk":"Kalvarayan Hills(TK)","village":"Kilakkadu","name":"Kilakkadu","area_type":"Rural","shop_code":"06DP163PN","search_string":"  kalvarayan hills(tk) kallakurichi "},"bbox":[78.7458,11.9485,78.7458,11.9485]},{"type":"Feature","geometry":{"type":"Point","coordinates":[78.8072,11.9564]},"properties":{"district":"Kallakurichi","taluk":"Kalvarayan Hills(TK)","village":"Vangikkuzhi","name":"Vangikkuzhi","area_type":"Rural","shop_code":"06DP165PN","search_string":"  kalvarayan hills(tk) kallakurichi "},"bbox":[78.8072,11.9564,78.8072,11.9564]},{"type":"Feature","geometry":{"type":"Point","coordinates":[78.7191,11.9612]},"properties":{"district":"Kallakurichi","taluk":"Kalvarayan Hills(TK)","village":"Koodaram","name":"Koodaram","area_type":"Rural","shop_code":"06DP169P1","search_string":"  kalvarayan hills(tk) kallakurichi "},"bbox":[78.7191,11.9612,78.7191,11.9612]},{"type":"Feature","geometry":{"type":"Point","coordinates":[78.7754,11.9752]},"properties":{"district":"Kallakurichi","taluk":"Kalvarayan Hills(TK)","village":"Thumbarampattu","name":"Thumbarampattu","area_type":"Rural","shop_code":"06DP168PY","search_string":"  kalvarayan hills(tk) kallakurichi "},"bbox":[78.7754,11.9752,78.7754,11.9752]},{"type":"Feature","geometry":{"type":"Point","coordinates":[78.7752,11.9754]},"properties":{"district":"Kallakurichi","taluk":"Kalvarayan Hills(TK)","village":"Serappattu","name":"Serappattu","area_type":"Rural","shop_code":"06DP164PY","search_string":"  kalvarayan hills(tk) kallakurichi "},"bbox":[78.7752,11.9754,78.7752,11.9754]},{"type":"Feature","geometry":{"type":"Point","coordinates":[78.8405,11.9778]},"properties":{"district":"Kallakurichi","taluk":"Kalvarayan Hills(TK)","village":"Moolakkadu","name":"Moolakkadu","area_type":"Rural","shop_code":"06DP167PY","search_string":"  kalvarayan hills(tk) kallakurichi "},"bbox":[78.8405,11.9778,78.8405,11.9778]},{"type":"Feature","geometry":{"type":"Point","coordinates":[78.7562,11.9788]},"properties":{"district":"Kallakurichi","taluk":"Kalvarayan Hills(TK)","village":"Perukkanchedi","name":"Perukkanchedi","area_type":"Rural","shop_code":"06DP164P1","search_string":"  kalvarayan hills(tk) kallakurichi "},"bbox":[78.7562,11.9788,78.7562,11.9788]},{"type":"Feature","geometry":{"type":"Point","coordinates":[78.8053,11.9927]},"properties":{"district":"Kallakurichi","taluk":"Kalvarayan Hills(TK)","village":"Kurumbalur","name":"Kurumbalur","area_type":"Rural","shop_code":"06DP168P1","search_string":"  kalvarayan hills(tk) kallakurichi "},"bbox":[78.8053,11.9927,78.8053,11.9927]},{"type":"Feature","geometry":{"type":"Point","coordinates":[78.8497,11.9974]},"properties":{"district":"Kallakurichi","taluk":"Kalvarayan Hills(TK)","village":"Anaimaduvu","name":"Anaimaduvu","area_type":"Rural","shop_code":"06DP167P1","search_string":"  kalvarayan hills(tk) kallakurichi "},"bbox":[78.8497,11.9974,78.8497,11.9974]},{"type":"Feature","geometry":{"type":"Point","coordinates":[79.002,11.756]},"properties":{"district":"Kallakurichi","taluk":"Sankarapuram (Tk)","village":"Thandalai","name":"Thandalai-2","area_type":"Rural","shop_code":"06DP087P1","search_string":"  sankarapuram (tk) kallakurichi "},"bbox":[79.002,11.756,79.002,11.756]},{"type":"Feature","geometry":{"type":"Point","coordinates":[78.9329,11.7584]},"properties":{"district":"Kallakurichi","taluk":"Sankarapuram (Tk)","village":"Somandarkudi","name":"Somandarkudi","area_type":"Rural","shop_code":"06DP082PN","search_string":"  sankarapuram (tk) kallakurichi "},"bbox":[78.9329,11.7584,78.9329,11.7584]},{"type":"Feature","geometry":{"type":"Point","coordinates":[79.0011,11.7637]},"properties":{"district":"Kallakurichi","taluk":"Sankarapuram (Tk)","village":"Thadalai","name":"Thadalai-1","area_type":"Rural","shop_code":"06DP087PY","search_string":"  sankarapuram (tk) kallakurichi "},"bbox":[79.0011,11.7637,79.0011,11.7637]},{"type":"Feature","geometry":{"type":"Point","coordinates":[78.947,11.7649]},"properties":{"district":"Kallakurichi","taluk":"Sankarapuram (Tk)","village":"Movannanjur","name":"Movannanjur","area_type":"Rural","shop_code":"06DP083PN","search_string":"  sankarapuram (tk) kallakurichi "},"bbox":[78.947,11.7649,78.947,11.7649]},{"type":"Feature","geometry":{"type":"Point","coordinates":[78.9387,11.7678]},"properties":{"district":"Kallakurichi","taluk":"Sankarapuram (Tk)","village":"Mogoor","name":"Mogoor","area_type":"Rural","shop_code":"06DP081PY","search_string":"  sankarapuram (tk) kallakurichi "},"bbox":[78.9387,11.7678,78.9387,11.7678]},{"type":"Feature","geometry":{"type":"Point","coordinates":[78.9348,11.7706]},"properties":{"district":"Kallakurichi","taluk":"Sankarapuram (Tk)","village":"Puthumogoor","name":"Puthumogoor","area_type":"Rural","shop_code":"06DP081P1","search_string":"  sankarapuram (tk) kallakurichi "},"bbox":[78.9348,11.7706,78.9348,11.7706]},{"type":"Feature","geometry":{"type":"Point","coordinates":[78.9244,11.7749]},"properties":{"district":"Kallakurichi","taluk":"Sankarapuram (Tk)","village":"K  Alambalam","name":"K.Alambalam","area_type":"Rural","shop_code":"06DP086PN","search_string":"  sankarapuram (tk) kallakurichi "},"bbox":[78.9244,11.7749,78.9244,11.7749]},{"type":"Feature","geometry":{"type":"Point","coordinates":[78.8903,11.7785]},"properties":{"district":"Kallakurichi","taluk":"Sankarapuram (Tk)","village":"Ammampalayam","name":"Ammampalayam","area_type":"Rural","shop_code":"06DP085P1","search_string":"  sankarapuram (tk) kallakurichi "},"bbox":[78.8903,11.7785,78.8903,11.7785]},{"type":"Feature","geometry":{"type":"Point","coordinates":[78.8997,11.7801]},"properties":{"district":"Kallakurichi","taluk":"Sankarapuram (Tk)","village":"Sembadakurichi","name":"Sembadakurichi","area_type":"Rural","shop_code":"06DP085PY","search_string":"  sankarapuram (tk) kallakurichi "},"bbox":[78.8997,11.7801,78.8997,11.7801]},{"type":"Feature","geometry":{"type":"Point","coordinates":[78.9479,11.7823]},"properties":{"district":"Kallakurichi","taluk":"Sankarapuram (Tk)","village":"Ariyaperumanoor","name":"Ariyaperumanoor","area_type":"Rural","shop_code":"06DP077PN","search_string":"  sankarapuram (tk) kallakurichi "},"bbox":[78.9479,11.7823,78.9479,11.7823]},{"type":"Feature","geometry":{"type":"Point","coordinates":[78.9677,11.7831]},"properties":{"district":"Kallakurichi","taluk":"Sankarapuram (Tk)","village":"R Madhakoil","name":"R.Madhakoil","area_type":"Rural","shop_code":"06DP078P1","search_string":"  sankarapuram (tk) kallakurichi "},"bbox":[78.9677,11.7831,78.9677,11.7831]},{"type":"Feature","geometry":{"type":"Point","coordinates":[78.9821,11.7838]},"properties":{"district":"Kallakurichi","taluk":"Sankarapuram (Tk)","village":"Vaniyanthal","name":"Vaniyanthal","area_type":"Rural","shop_code":"06DP079PN","search_string":"  sankarapuram (tk) kallakurichi "},"bbox":[78.9821,11.7838,78.9821,11.7838]},{"type":"Feature","geometry":{"type":"Point","coordinates":[78.9658,11.7852]},"properties":{"district":"Kallakurichi","taluk":"Sankarapuram (Tk)","village":"Ranganathapuram","name":"Ranganathapuram","area_type":"Rural","shop_code":"06DP078PY","search_string":"  sankarapuram (tk) kallakurichi "},"bbox":[78.9658,11.7852,78.9658,11.7852]},{"type":"Feature","geometry":{"type":"Point","coordinates":[78.9152,11.7874]},"properties":{"district":"Kallakurichi","taluk":"Sankarapuram (Tk)","village":"Ponparappattu","name":"Ponparappattu","area_type":"Rural","shop_code":"06DP084PN","search_string":"  sankarapuram (tk) kallakurichi "},"bbox":[78.9152,11.7874,78.9152,11.7874]},{"type":"Feature","geometry":{"type":"Point","coordinates":[78.9797,11.7882]},"properties":{"district":"Kallakurichi","taluk":"Sankarapuram (Tk)","village":"A  Madhakoil","name":"A.Madhakoil","area_type":"Rural","shop_code":"06DP080P2","search_string":"  sankarapuram (tk) kallakurichi "},"bbox":[78.9797,11.7882,78.9797,11.7882]},{"type":"Feature","geometry":{"type":"Point","coordinates":[78.9255,11.7886]},"properties":{"district":"Kallakurichi","taluk":"Sankarapuram (Tk)","village":"Puthanthur","name":"Puthanthur","area_type":"Rural","shop_code":"06DP076PN","search_string":"  sankarapuram (tk) kallakurichi "},"bbox":[78.9255,11.7886,78.9255,11.7886]},{"type":"Feature","geometry":{"type":"Point","coordinates":[78.981,11.791]},"properties":{"district":"Kallakurichi","taluk":"Sankarapuram (Tk)","village":"Agarakkottalam","name":"Agarakkottalam","area_type":"Rural","shop_code":"06DP080PY","search_string":"  sankarapuram (tk) kallakurichi "},"bbox":[78.981,11.791,78.981,11.791]},{"type":"Feature","geometry":{"type":"Point","coordinates":[78.9469,11.8024]},"properties":{"district":"Kallakurichi","taluk":"Sankarapuram (Tk)","village":"Alathoor","name":"Alathoor","area_type":"Rural","shop_code":"06DP072PY","search_string":"  sankarapuram (tk) kallakurichi "},"bbox":[78.9469,11.8024,78.9469,11.8024]},{"type":"Feature","geometry":{"type":"Point","coordinates":[78.9125,11.8052]},"properties":{"district":"Kallakurichi","taluk":"Sankarapuram (Tk)","village":"Thirukkanangoor","name":"Thirukkanangoor","area_type":"Rural","shop_code":"06DP075PN","search_string":"  sankarapuram (tk) kallakurichi "},"bbox":[78.9125,11.8052,78.9125,11.8052]},{"type":"Feature","geometry":{"type":"Point","coordinates":[79.0025,11.8062]},"properties":{"district":"Kallakurichi","taluk":"Sankarapuram (Tk)","village":"Anaikaraikottalam","name":"Anaikaraikottalam","area_type":"Rural","shop_code":"06DP080P1","search_string":"  sankarapuram (tk) kallakurichi "},"bbox":[79.0025,11.8062,79.0025,11.8062]},{"type":"Feature","geometry":{"type":"Point","coordinates":[78.9592,11.8161]},"properties":{"district":"Kallakurichi","taluk":"Sankarapuram (Tk)","village":"Pichanatham","name":"Pichanatham","area_type":"Rural","shop_code":"06DP073PN","search_string":"  sankarapuram (tk) kallakurichi "},"bbox":[78.9592,11.8161,78.9592,11.8161]},{"type":"Feature","geometry":{"type":"Point","coordinates":[78.9186,11.8197]},"properties":{"district":"Kallakurichi","taluk":"Sankarapuram (Tk)","village":"Azhakapuram","name":"Azhakapuram","area_type":"Rural","shop_code":"06DP072P1","search_string":"  sankarapuram (tk) kallakurichi "},"bbox":[78.9186,11.8197,78.9186,11.8197]},{"type":"Feature","geometry":{"type":"Point","coordinates":[78.9489,11.8262]},"properties":{"district":"Kallakurichi","taluk":"Sankarapuram (Tk)","village":"Roadparamanatham","name":"Roadparamanatham","area_type":"Rural","shop_code":"06DP074P1","search_string":"  sankarapuram (tk) kallakurichi "},"bbox":[78.9489,11.8262,78.9489,11.8262]},{"type":"Feature","geometry":{"type":"Point","coordinates":[78.9606,11.8285]},"properties":{"district":"Kallakurichi","taluk":"Sankarapuram (Tk)","village":"Paramanatham","name":"Paramanatham","area_type":"Rural","shop_code":"06DP074PY","search_string":"  sankarapuram (tk) kallakurichi "},"bbox":[78.9606,11.8285,78.9606,11.8285]},{"type":"Feature","geometry":{"type":"Point","coordinates":[78.9448,11.8297]},"properties":{"district":"Kallakurichi","taluk":"Sankarapuram (Tk)","village":"Moorarpalayam","name":"Moorarpalayam-2","area_type":"Rural","shop_code":"06DP060P1","search_string":"  sankarapuram (tk) kallakurichi "},"bbox":[78.9448,11.8297,78.9448,11.8297]},{"type":"Feature","geometry":{"type":"Point","coordinates":[78.9449,11.8299]},"properties":{"district":"Kallakurichi","taluk":"Sankarapuram (Tk)","village":"Moorarpalayam","name":"Moorarpalayam-1","area_type":"Rural","shop_code":"06DP060PY","search_string":"  sankarapuram (tk) kallakurichi "},"bbox":[78.9449,11.8299,78.9449,11.8299]},{"type":"Feature","geometry":{"type":"Point","coordinates":[78.9723,11.8351]},"properties":{"district":"Kallakurichi","taluk":"Sankarapuram (Tk)","village":"Kallerikuppam","name":"Kallerikuppam","area_type":"Rural","shop_code":"06DP062PN","search_string":"  sankarapuram (tk) kallakurichi "},"bbox":[78.9723,11.8351,78.9723,11.8351]},{"type":"Feature","geometry":{"type":"Point","coordinates":[78.8957,11.8395]},"properties":{"district":"Kallakurichi","taluk":"Sankarapuram (Tk)","village":"Seshasamuthiram","name":"Seshasamuthiram-1","area_type":"Rural","shop_code":"06DP070PY","search_string":"  sankarapuram (tk) kallakurichi "},"bbox":[78.8957,11.8395,78.8957,11.8395]},{"type":"Feature","geometry":{"type":"Point","coordinates":[78.8929,11.8397]},"properties":{"district":"Kallakurichi","taluk":"Sankarapuram (Tk)","village":"Seshasamuthiram","name":"Seshasamuthiram-2","area_type":"Rural","shop_code":"06DP070P1","search_string":"  sankarapuram (tk) kallakurichi "},"bbox":[78.8929,11.8397,78.8929,11.8397]},{"type":"Feature","geometry":{"type":"Point","coordinates":[78.9615,11.8404]},"properties":{"district":"Kallakurichi","taluk":"Sankarapuram (Tk)","village":"Kelappattu","name":"Kelappattu","area_type":"Rural","shop_code":"06DP067PN","search_string":"  sankarapuram (tk) kallakurichi "},"bbox":[78.9615,11.8404,78.9615,11.8404]},{"type":"Feature","geometry":{"type":"Point","coordinates":[78.9536,11.8423]},"properties":{"district":"Kallakurichi","taluk":"Sankarapuram (Tk)","village":"Melappattu","name":"Melappattu","area_type":"Rural","shop_code":"06DP065PN","search_string":"  sankarapuram (tk) kallakurichi "},"bbox":[78.9536,11.8423,78.9536,11.8423]},{"type":"Feature","geometry":{"type":"Point","coordinates":[78.9118,11.8438]},"properties":{"district":"Kallakurichi","taluk":"Sankarapuram (Tk)","village":"Nedumanur","name":"Nedumanoor-2","area_type":"Rural","shop_code":"06DP069P1","search_string":"  sankarapuram (tk) kallakurichi "},"bbox":[78.9118,11.8438,78.9118,11.8438]},{"type":"Feature","geometry":{"type":"Point","coordinates":[78.9014,11.8445]},"properties":{"district":"Kallakurichi","taluk":"Sankarapuram (Tk)","village":"Nedumanur","name":"Nedumanur-1","area_type":"Rural","shop_code":"06DP069PY","search_string":"  sankarapuram (tk) kallakurichi "},"bbox":[78.9014,11.8445,78.9014,11.8445]},{"type":"Feature","geometry":{"type":"Point","coordinates":[78.9182,11.8449]},"properties":{"district":"Kallakurichi","taluk":"Sankarapuram (Tk)","village":"Sozhampattu","name":"Sozhampattu","area_type":"Rural","shop_code":"06DP068PN","search_string":"  sankarapuram (tk) kallakurichi "},"bbox":[78.9182,11.8449,78.9182,11.8449]},{"type":"Feature","geometry":{"type":"Point","coordinates":[78.967,11.854]},"properties":{"district":"Kallakurichi","taluk":"Sankarapuram (Tk)","village":"Valayampattu","name":"Valayampattu","area_type":"Rural","shop_code":"06DP066PN","search_string":"  sankarapuram (tk) kallakurichi "},"bbox":[78.967,11.854,78.967,11.854]},{"type":"Feature","geometry":{"type":"Point","coordinates":[78.9545,11.8584]},"properties":{"district":"Kallakurichi","taluk":"Sankarapuram (Tk)","village":"Manjaputthur","name":"Manjaputthur","area_type":"Rural","shop_code":"06DP063PN","search_string":"  sankarapuram (tk) kallakurichi "},