{"type":"FeatureCollection","features":[{"type":"Feature","geometry":{"type":"Point","coordinates":[78.1621,10.7053]},"properties":{"district":"Karur","taluk":"Kadavur","village":"Devarmalai","name":"T.Ayyampalayam","area_type":"Rural","shop_code":"12EP088P1","search_string":"  kadavur karur "},"bbox":[78.1621,10.7053,78.1621,10.7053]},{"type":"Feature","geometry":{"type":"Point","coordinates":[78.2414,10.71]},"properties":{"district":"Karur","taluk":"Kadavur","village":"Adhanur","name":"Tharagampatty","area_type":"Rural","shop_code":"12EP070PN","search_string":"  kadavur karur "},"bbox":[78.2414,10.71,78.2414,10.71]},{"type":"Feature","geometry":{"type":"Point","coordinates":[78.3359,10.7123]},"properties":{"district":"Karur","taluk":"Kadavur","village":"Mathagiri","name":"Thondamanginam","area_type":"Rural","shop_code":"12EP056PN","search_string":"  kadavur karur "},"bbox":[78.3359,10.7123,78.3359,10.7123]},{"type":"Feature","geometry":{"type":"Point","coordinates":[78.1658,10.721]},"properties":{"district":"Karur","taluk":"Kadavur","village":"Devarmalai","name":"Seethapatty","area_type":"Rural","shop_code":"12EP088PY","search_string":"  kadavur karur "},"bbox":[78.1658,10.721,78.1658,10.721]},{"type":"Feature","geometry":{"type":"Point","coordinates":[78.3197,10.7218]},"properties":{"district":"Karur","taluk":"Kadavur","village":"Mathagiri","name":"Mathagiri","area_type":"Rural","shop_code":"12EP035PN","search_string":"  kadavur karur "},"bbox":[78.3197,10.7218,78.3197,10.7218]},{"type":"Feature","geometry":{"type":"Point","coordinates":[78.2057,10.7246]},"properties":{"district":"Karur","taluk":"Kadavur","village":"Melappaguthi","name":"Veeranampatty","area_type":"Rural","shop_code":"12EP124PN","search_string":"  kadavur karur "},"bbox":[78.2057,10.7246,78.2057,10.7246]},{"type":"Feature","geometry":{"type":"Point","coordinates":[77.935,10.9469]},"properties":{"district":"Karur","taluk":"Pugalur(TK)","village":"Nedungur","name":"Nedunkur","area_type":"Rural","shop_code":"12BP036PN","search_string":"  pugalur(tk) karur "},"bbox":[77.935,10.9469,77.935,10.9469]},{"type":"Feature","geometry":{"type":"Point","coordinates":[77.9569,10.6418]},"properties":{"district":"Karur","taluk":"Aravakurichi (Tk)","village":"Periya Manjuvali","name":"Vellampatti","area_type":"Rural","shop_code":"12BP018P1","search_string":"  aravakurichi (tk) karur "},"bbox":[77.9569,10.6418,77.9569,10.6418]},{"type":"Feature","geometry":{"type":"Point","coordinates":[77.9755,10.6462]},"properties":{"district":"Karur","taluk":"Aravakurichi (Tk)","village":"Periya Manjuvali","name":"Kiriyappanaikanur","area_type":"Rural","shop_code":"12BP018P2","search_string":"  aravakurichi (tk) karur "},"bbox":[77.9755,10.6462,77.9755,10.6462]},{"type":"Feature","geometry":{"type":"Point","coordinates":[77.8595,10.6494]},"properties":{"district":"Karur","taluk":"Aravakurichi (Tk)","village":"Senthamangalam East","name":"Kurikkaranvalasu","area_type":"Rural","shop_code":"12BP011P1","search_string":"  aravakurichi (tk) karur "},"bbox":[77.8595,10.6494,77.8595,10.6494]},{"type":"Feature","geometry":{"type":"Point","coordinates":[77.8691,10.6616]},"properties":{"district":"Karur","taluk":"Aravakurichi (Tk)","village":"Senthamangalam East","name":"Kurumbapatty","area_type":"Rural","shop_code":"12BP011PY","search_string":"  aravakurichi (tk) karur "},"bbox":[77.8691,10.6616,77.8691,10.6616]},{"type":"Feature","geometry":{"type":"Point","coordinates":[77.8879,10.662]},"properties":{"district":"Karur","taluk":"Aravakurichi (Tk)","village":"Senthamangalam East","name":"R Puthupatty","area_type":"Rural","shop_code":"12BP012PN","search_string":"  aravakurichi (tk) karur "},"bbox":[77.8879,10.662,77.8879,10.662]},{"type":"Feature","geometry":{"type":"Point","coordinates":[77.9425,10.6656]},"properties":{"district":"Karur","taluk":"Aravakurichi (Tk)","village":"Z Alamarathupatti","name":"Jangalpatty","area_type":"Rural","shop_code":"12BP013P2","search_string":"  aravakurichi (tk) karur "},"bbox":[77.9425,10.6656,77.9425,10.6656]},{"type":"Feature","geometry":{"type":"Point","coordinates":[77.9568,10.6677]},"properties":{"district":"Karur","taluk":"Aravakurichi (Tk)","village":"Periya Manjuvali","name":"Periyamansuvali","area_type":"Rural","shop_code":"12BP018PY","search_string":"  aravakurichi (tk) karur "},"bbox":[77.9568,10.6677,77.9568,10.6677]},{"type":"Feature","geometry":{"type":"Point","coordinates":[77.8493,10.6704]},"properties":{"district":"Karur","taluk":"Aravakurichi (Tk)","village":"Senthamangalam West","name":"Kottapatty","area_type":"Rural","shop_code":"12BP010PN","search_string":"  aravakurichi (tk) karur "},"bbox":[77.8493,10.6704,77.8493,10.6704]},{"type":"Feature","geometry":{"type":"Point","coordinates":[77.9264,10.6719]},"properties":{"district":"Karur","taluk":"Aravakurichi (Tk)","village":"Z Alamarathupatti","name":"Alamarathupatty","area_type":"Rural","shop_code":"12BP013P1","search_string":"  aravakurichi (tk) karur "},"bbox":[77.9264,10.6719,77.9264,10.6719]},{"type":"Feature","geometry":{"type":"Point","coordinates":[77.9845,10.6797]},"properties":{"district":"Karur","taluk":"Aravakurichi (Tk)","village":"Ammapatti","name":"Ammapatty","area_type":"Rural","shop_code":"12BP019PY","search_string":"  aravakurichi (tk) karur "},"bbox":[77.9845,10.6797,77.9845,10.6797]},{"type":"Feature","geometry":{"type":"Point","coordinates":[77.9289,10.6827]},"properties":{"district":"Karur","taluk":"Aravakurichi (Tk)","village":"Z Alamarathupatti","name":"Aandipatty","area_type":"Rural","shop_code":"12BP013PY","search_string":"  aravakurichi (tk) karur "},"bbox":[77.9289,10.6827,77.9289,10.6827]},{"type":"Feature","geometry":{"type":"Point","coordinates":[77.9702,10.6894]},"properties":{"district":"Karur","taluk":"Aravakurichi (Tk)","village":"Ammapatti","name":"Zameenaathur","area_type":"Rural","shop_code":"12BP019P1","search_string":"  aravakurichi (tk) karur "},"bbox":[77.9702,10.6894,77.9702,10.6894]},{"type":"Feature","geometry":{"type":"Point","coordinates":[77.8334,10.694]},"properties":{"district":"Karur","taluk":"Aravakurichi (Tk)","village":"Inanganur","name":"Inanganur","area_type":"Rural","shop_code":"12BP009PN","search_string":"  aravakurichi (tk) karur "},"bbox":[77.8334,10.694,77.8334,10.694]},{"type":"Feature","geometry":{"type":"Point","coordinates":[77.8974,10.6947]},"properties":{"district":"Karur","taluk":"Aravakurichi (Tk)","village":"Lingamanayakkanpatti","name":"Lingamanayakkanpatty","area_type":"Rural","shop_code":"12BP014PN","search_string":"  aravakurichi (tk) karur "},"bbox":[77.8974,10.6947,77.8974,10.6947]},{"type":"Feature","geometry":{"type":"Point","coordinates":[78.0043,10.7031]},"properties":{"district":"Karur","taluk":"Aravakurichi (Tk)","village":"Esanatham","name":"Esanathmputhur","area_type":"Rural","shop_code":"12BP061PN","search_string":"  aravakurichi (tk) karur "},"bbox":[78.0043,10.7031,78.0043,10.7031]},{"type":"Feature","geometry":{"type":"Point","coordinates":[77.9325,10.7039]},"properties":{"district":"Karur","taluk":"Aravakurichi (Tk)","village":"Thethupatti","name":"Theththupatty","area_type":"Rural","shop_code":"12BP016PY","search_string":"  aravakurichi (tk) karur "},"bbox":[77.9325,10.7039,77.9325,10.7039]},{"type":"Feature","geometry":{"type":"Point","coordinates":[77.9588,10.705]},"properties":{"district":"Karur","taluk":"Aravakurichi (Tk)","village":"Erumarpatti","name":"Eurumarpatty","area_type":"Rural","shop_code":"12BP015PN","search_string":"  aravakurichi (tk) karur "},"bbox":[77.9588,10.705,77.9588,10.705]},{"type":"Feature","geometry":{"type":"Point","coordinates":[78.0029,10.7119]},"properties":{"district":"Karur","taluk":"Aravakurichi (Tk)","village":"Esanatham","name":"Esanatham","area_type":"Rural","shop_code":"12BP020PN","search_string":"  aravakurichi (tk) karur "},"bbox":[78.0029,10.7119,78.0029,10.7119]},{"type":"Feature","geometry":{"type":"Point","coordinates":[77.8908,10.7165]},"properties":{"district":"Karur","taluk":"Aravakurichi (Tk)","village":"Pallapatti","name":"Pallapatty-5","area_type":"Urban","shop_code":"12BC005PN","search_string":"  aravakurichi (tk) karur "},"bbox":[77.8908,10.7165,77.8908,10.7165]},{"type":"Feature","geometry":{"type":"Point","coordinates":[77.8966,10.7171]},"properties":{"district":"Karur","taluk":"Aravakurichi (Tk)","village":"Pallapatti","name":"Pallapatty-7","area_type":"Urban","shop_code":"12BC007PN","search_string":"  aravakurichi (tk) karur "},"bbox":[77.8966,10.7171,77.8966,10.7171]},{"type":"Feature","geometry":{"type":"Point","coordinates":[77.8979,10.7172]},"properties":{"district":"Karur","taluk":"Aravakurichi (Tk)","village":"Pallapatti","name":"Pallapatty-11","area_type":"Urban","shop_code":"12BC021PN","search_string":"  aravakurichi (tk) karur "},"bbox":[77.8979,10.7172,77.8979,10.7172]},{"type":"Feature","geometry":{"type":"Point","coordinates":[77.8967,10.7173]},"properties":{"district":"Karur","taluk":"Aravakurichi (Tk)","village":"Pallapatti","name":"Pallapatty-10","area_type":"Urban","shop_code":"12BC017PN","search_string":"  aravakurichi (tk) karur "},"bbox":[77.8967,10.7173,77.8967,10.7173]},{"type":"Feature","geometry":{"type":"Point","coordinates":[77.8967,10.7173]},"properties":{"district":"Karur","taluk":"Aravakurichi (Tk)","village":"Pallapatti","name":"Pallapatty-3","area_type":"Urban","shop_code":"12BC003PN","search_string":"  aravakurichi (tk) karur "},"bbox":[77.8967,10.7173,77.8967,10.7173]},{"type":"Feature","geometry":{"type":"Point","coordinates":[77.8871,10.7185]},"properties":{"district":"Karur","taluk":"Aravakurichi (Tk)","village":"Pallapatti","name":"Pallapatty-2","area_type":"Urban","shop_code":"12BC002PN","search_string":"  aravakurichi (tk) karur "},"bbox":[77.8871,10.7185,77.8871,10.7185]},{"type":"Feature","geometry":{"type":"Point","coordinates":[77.8876,10.7186]},"properties":{"district":"Karur","taluk":"Aravakurichi (Tk)","village":"Pallapatti","name":"Pallapatty-4","area_type":"Urban","shop_code":"12BC004PN","search_string":"  aravakurichi (tk) karur "},"bbox":[77.8876,10.7186,77.8876,10.7186]},{"type":"Feature","geometry":{"type":"Point","coordinates":[77.985,10.7191]},"properties":{"district":"Karur","taluk":"Aravakurichi (Tk)","village":"Esanatham","name":"Kullamapatty","area_type":"Rural","shop_code":"12BP021PY","search_string":"  aravakurichi (tk) karur "},"bbox":[77.985,10.7191,77.985,10.7191]},{"type":"Feature","geometry":{"type":"Point","coordinates":[77.908,10.7193]},"properties":{"district":"Karur","taluk":"Aravakurichi (Tk)","village":"Pallapatti","name":"Pallapatty-12","area_type":"Urban","shop_code":"12BC020PN","search_string":"  aravakurichi (tk) karur "},"bbox":[77.908,10.7193,77.908,10.7193]},{"type":"Feature","geometry":{"type":"Point","coordinates":[77.8899,10.7213]},"properties":{"district":"Karur","taluk":"Aravakurichi (Tk)","village":"Pallapatti","name":"Pallapatty-9","area_type":"Urban","shop_code":"12BC016PN","search_string":"  aravakurichi (tk) karur "},"bbox":[77.8899,10.7213,77.8899,10.7213]},{"type":"Feature","geometry":{"type":"Point","coordinates":[77.89,10.7213]},"properties":{"district":"Karur","taluk":"Aravakurichi (Tk)","village":"Pallapatti","name":"Pallapatty-8","area_type":"Urban","shop_code":"12BC015PN","search_string":"  aravakurichi (tk) karur "},"bbox":[77.89,10.7213,77.89,10.7213]},{"type":"Feature","geometry":{"type":"Point","coordinates":[77.8767,10.7219]},"properties":{"district":"Karur","taluk":"Aravakurichi (Tk)","village":"Velambadi","name":"Velampaadi-2 Pappanayackanpatti","area_type":"Rural","shop_code":"12BC014PN","search_string":"  aravakurichi (tk) karur "},"bbox":[77.8767,10.7219,77.8767,10.7219]},{"type":"Feature","geometry":{"type":"Point","coordinates":[77.8897,10.7223]},"properties":{"district":"Karur","taluk":"Aravakurichi (Tk)","village":"Pallapatti","name":"Pallapatty-1","area_type":"Urban","shop_code":"12BC001PN","search_string":"  aravakurichi (tk) karur "},"bbox":[77.8897,10.7223,77.8897,10.7223]},{"type":"Feature","geometry":{"type":"Point","coordinates":[77.8976,10.7236]},"properties":{"district":"Karur","taluk":"Aravakurichi (Tk)","village":"Pallapatti","name":"Olisha Nagar","area_type":"Urban","shop_code":"12BC022PN","search_string":"  aravakurichi (tk) karur "},"bbox":[77.8976,10.7236,77.8976,10.7236]},{"type":"Feature","geometry":{"type":"Point","coordinates":[77.8943,10.7242]},"properties":{"district":"Karur","taluk":"Aravakurichi (Tk)","village":"Pallapatti","name":"Pallapatty-6","area_type":"Urban","shop_code":"12BC006PN","search_string":"  aravakurichi (tk) karur "},"bbox":[77.8943,10.7242,77.8943,10.7242]},{"type":"Feature","geometry":{"type":"Point","coordinates":[77.9607,10.725]},"properties":{"district":"Karur","taluk":"Aravakurichi (Tk)","village":"Anjagoundanpatti","name":"Ansagoundanpatty","area_type":"Rural","shop_code":"12BP017PN","search_string":"  aravakurichi (tk) karur "},"bbox":[77.9607,10.725,77.9607,10.725]},{"type":"Feature","geometry":{"type":"Point","coordinates":[77.8899,10.7264]},"properties":{"district":"Karur","taluk":"Aravakurichi (Tk)","village":"Velambadi","name":"Velampaadi-1","area_type":"Rural","shop_code":"12BC013PN","search_string":"  aravakurichi (tk) karur "},"bbox":[77.8899,10.7264,77.8899,10.7264]},{"type":"Feature","geometry":{"type":"Point","coordinates":[77.9803,10.7342]},"properties":{"district":"Karur","taluk":"Aravakurichi (Tk)","village":"Esanatham","name":"E Alamarathupatti","area_type":"Rural","shop_code":"12BP021P1","search_string":"  aravakurichi (tk) karur "},"bbox":[77.9803,10.7342,77.9803,10.7342]},{"type":"Feature","geometry":{"type":"Point","coordinates":[77.8936,10.7361]},"properties":{"district":"Karur","taluk":"Aravakurichi (Tk)","village":"Velambadi","name":"Rangarajnagar magalirangadi","area_type":"Rural","shop_code":"12BS001PN","search_string":"  aravakurichi (tk) karur "},"bbox":[77.8936,10.7361,77.8936,10.7361]},{"type":"Feature","geometry":{"type":"Point","coordinates":[77.9481,10.7369]},"properties":{"district":"Karur","taluk":"Aravakurichi (Tk)","village":"Thethupatti","name":"Kansamaranpatty","area_type":"Rural","shop_code":"12BP016P1","search_string":"  aravakurichi (tk) karur "},"bbox":[77.9481,10.7369,77.9481,10.7369]},{"type":"Feature","geometry":{"type":"Point","coordinates":[77.8524,10.74]},"properties":{"district":"Karur","taluk":"Aravakurichi (Tk)","village":"Modakkur East","name":"Modakur","area_type":"Rural","shop_code":"12BP008PN","search_string":"  aravakurichi (tk) karur "},"bbox":[77.8524,10.74,77.8524,10.74]},{"type":"Feature","geometry":{"type":"Point","coordinates":[77.8294,10.7614]},"properties":{"district":"Karur","taluk":"Aravakurichi (Tk)","village":"Modakkur West","name":"Kovilur","area_type":"Rural","shop_code":"12BP007PN","search_string":"  aravakurichi (tk) karur "},"bbox":[77.8294,10.7614,77.8294,10.7614]},{"type":"Feature","geometry":{"type":"Point","coordinates":[77.8192,10.7617]},"properties":{"district":"Karur","taluk":"Aravakurichi (Tk)","village":"Santhapadi","name":"Santhappaadi","area_type":"Rural","shop_code":"12BP006PY","search_string":"  aravakurichi (tk) karur "},"bbox":[77.8192,10.7617,77.8192,10.7617]},{"type":"Feature","geometry":{"type":"Point","coordinates":[77.9664,10.7638]},"properties":{"district":"Karur","taluk":"Aravakurichi (Tk)","village":"Pungambadi East","name":"Aathumedu","area_type":"Rural","shop_code":"12BP004PN","search_string":"  aravakurichi (tk) karur "},"bbox":[77.9664,10.7638,77.9664,10.7638]},{"type":"Feature","geometry":{"type":"Point","coordinates":[77.909,10.7714]},"properties":{"district":"Karur","taluk":"Aravakurichi (Tk)","village":"Aravakurichi","name":"Aravakurichi-3","area_type":"Urban","shop_code":"12BC010PN","search_string":"  aravakurichi (tk) karur "},"bbox":[77.909,10.7714,77.909,10.7714]},{"type":"Feature","geometry":{"type":"Point","coordinates":[77.9067,10.7729]},"properties":{"district":"Karur","taluk":"Aravakurichi (Tk)","village":"Aravakurichi","name":"Aravakurichi-4","area_type":"Urban","shop_code":"12BC018PN","search_string":"  aravakurichi (tk) karur "},"bbox":[77.9067,10.7729,77.9067,10.7729]},{"type":"Feature","geometry":{"type":"Point","coordinates":[77.9087,10.7744]},"properties":{"district":"Karur","taluk":"Aravakurichi (Tk)","village":"Aravakurichi","name":"Aravakurichi-2","area_type":"Urban","shop_code":"12BC009PN","search_string":"  aravakurichi (tk) karur "},"bbox":[77.9087,10.7744,77.9087,10.7744]},{"type":"Feature","geometry":{"type":"Point","coordinates":[77.9085,10.7746]},"properties":{"district":"Karur","taluk":"Aravakurichi (Tk)","village":"Aravakurichi","name":"Aravakurichi-1","area_type":"Urban","shop_code":"12BC008PN","search_string":"  aravakurichi (tk) karur "},"bbox":[77.9085,10.7746,77.9085,10.7746]},{"type":"Feature","geometry":{"type":"Point","coordinates":[77.905,10.7777]},"properties":{"district":"Karur","taluk":"Aravakurichi (Tk)","village":"Aravakurichi","name":"Aravakurichi-5","area_type":"Urban","shop_code":"12BC019PN","search_string":"  aravakurichi (tk) karur "},"bbox":[77.905,10.7777,77.905,10.7777]},{"type":"Feature","geometry":{"type":"Point","coordinates":[77.9311,10.7784]},"properties":{"district":"Karur","taluk":"Aravakurichi (Tk)","village":"Pungambadi West","name":"Chinavalayapatty","area_type":"Rural","shop_code":"12BP005PN","search_string":"  aravakurichi (tk) karur "},"bbox":[77.9311,10.7784,77.9311,10.7784]},{"type":"Feature","geometry":{"type":"Point","coordinates":[77.9964,10.7894]},"properties":{"district":"Karur","taluk":"Aravakurichi (Tk)","village":"Venjaman Gudalur Wes...","name":"Cinnakariyampatti","area_type":"Rural","shop_code":"12BP003P2","search_string":"  aravakurichi (tk) karur "},"bbox":[77.9964,10.7894,77.9964,10.7894]},{"type":"Feature","geometry":{"type":"Point","coordinates":[77.8176,10.7977]},"properties":{"district":"Karur","taluk":"Aravakurichi (Tk)","village":"Santhapadi","name":"Anankur","area_type":"Rural","shop_code":"12BP006P1","search_string":"  aravakurichi (tk) karur "},"bbox":[77.8176,10.7977,77.8176,10.7977]},{"type":"Feature","geometry":{"type":"Point","coordinates":[77.9325,10.8008]},"properties":{"district":"Karur","taluk":"Aravakurichi (Tk)","village":"Pungambadi West","name":"Thadakovil","area_type":"Rural","shop_code":"12BP062PN","search_string":"  aravakurichi (tk) karur "},"bbox":[77.9325,10.8008,77.9325,10.8008]},{"type":"Feature","geometry":{"type":"Point","coordinates":[77.8904,10.8008]},"properties":{"district":"Karur","taluk":"Aravakurichi (Tk)","village":"Rajapuram","name":"Rajapuram","area_type":"Rural","shop_code":"12BP050PN","search_string":"  aravakurichi (tk) karur "},"bbox":[77.8904,10.8008,77.8904,10.8008]},{"type":"Feature","geometry":{"type":"Point","coordinates":[77.9808,10.8025]},"properties":{"district":"Karur","taluk":"Aravakurichi (Tk)","village":"Venjaman Gudalur Wes...","name":"Rasapatti","area_type":"Rural","shop_code":"12BP003P1","search_string":"  aravakurichi (tk) karur "},"bbox":[77.9808,10.8025,77.9808,10.8025]},{"type":"Feature","geometry":{"type":"Point","coordinates":[78.0319,10.8028]},"properties":{"district":"Karur","taluk":"Aravakurichi (Tk)","village":"Venjaman Gudalur East","name":"Varikkapatti","area_type":"Rural","shop_code":"12BP002PN","search_string":"  aravakurichi (tk) karur "},"bbox":[78.0319,10.8028,78.0319,10.8028]},{"type":"Feature","geometry":{"type":"Point","coordinates":[77.9969,10.8142]},"properties":{"district":"Karur","taluk":"Aravakurichi (Tk)","village":"Venjaman Gudalur Wes...","name":"Vensamankoodalur","area_type":"Rural","shop_code":"12BP003PY","search_string":"  aravakurichi (tk) karur "},"bbox":[77.9969,10.8142,77.9969,10.8142]},{"type":"Feature","geometry":{"type":"Point","coordinates":[77.8862,10.8174]},"properties":{"district":"Karur","taluk":"Aravakurichi (Tk)","village":"Elavenur","name":"Chirangagoundanur","area_type":"Rural","shop_code":"12BP051PN","search_string":"  aravakurichi (tk) karur "},"bbox":[77.8862,10.8174,77.8862,10.8174]},{"type":"Feature","geometry":{"type":"Point","coordinates":[77.88,10.822]},"properties":{"district":"Karur","taluk":"Aravakurichi (Tk)","village":"Thokkupatti","name":"Thokkupatty","area_type":"Rural","shop_code":"12BP053PY","search_string":"  aravakurichi (tk) karur "},"bbox":[77.88,10.822,77.88,10.822]},{"type":"Feature","geometry":{"type":"Point","coordinates":[77.923,10.8288]},"properties":{"district":"Karur","taluk":"Aravakurichi (Tk)","village":"Punjai Kalakurichi","name":"Punjaikalakurichi","area_type":"Rural","shop_code":"12BP043PN","search_string":"  aravakurichi (tk) karur "},"bbox":[77.923,10.8288,77.923,10.8288]},{"type":"Feature","geometry":{"type":"Point","coordinates":[77.8772,10.8299]},"properties":{"district":"Karur","taluk":"Aravakurichi (Tk)","village":"Thokkupatti","name":"Thokkupattyputhur","area_type":"Rural","shop_code":"12BP053P1","search_string":"  aravakurichi (tk) karur "},"bbox":[77.8772,10.8299,77.8772,10.8299]},{"type":"Feature","geometry":{"type":"Point","coordinates":[77.9304,10.8328]},"properties":{"district":"Karur","taluk":"Aravakurichi (Tk)","village":"Nagampalli","name":"Nagampalli","area_type":"Rural","shop_code":"12BC011PY","search_string":"  aravakurichi (tk) karur "},"bbox":[77.9304,10.8328,77.9304,10.8328]},{"type":"Feature","geometry":{"type":"Point","coordinates":[77.9036,10.844]},"properties":{"district":"Karur","taluk":"Aravakurichi (Tk)","village":"Elavenur","name":"Elavanur","area_type":"Rural","shop_code":"12BP052PN","search_string":"  aravakurichi (tk) karur "},"bbox":[77.9036,10.844,77.9036,10.844]},{"type":"Feature","geometry":{"type":"Point","coordinates":[77.8823,10.8449]},"properties":{"district":"Karur","taluk":"Aravakurichi (Tk)","village":"Cinna Dharapuram","name":"Periyapuliyampatti","area_type":"Rural","shop_code":"12BP056P1","search_string":"  aravakurichi (tk) karur "},"bbox":[77.8823,10.8449,77.8823,10.8449]},{"type":"Feature","geometry":{"type":"Point","coordinates":[77.8307,10.8449]},"properties":{"district":"Karur","taluk":"Aravakurichi (Tk)","village":"Kudalur East","name":"Ponnagar","area_type":"Rural","shop_code":"12BP074PN","search_string":"  aravakurichi (tk) karur "},"bbox":[77.8307,10.8449,77.8307,10.8449]},{"type":"Feature","geometry":{"type":"Point","coordinates":[77.9712,10.847]},"properties":{"district":"Karur","taluk":"Aravakurichi (Tk)","village":"Nagampalli","name":"Malaikovilur","area_type":"Rural","shop_code":"12BC012PY","search_string":"  aravakurichi (tk) karur "},"bbox":[77.9712,10.847,77.9712,10.847]},{"type":"Feature","geometry":{"type":"Point","coordinates":[77.971,10.8471]},"properties":{"district":"Karur","taluk":"Aravakurichi (Tk)","village":"Nagampalli","name":"Malaikovilurmagalirangadi","area_type":"Rural","shop_code":"12BS002PN","search_string":"  aravakurichi (tk) karur "},"bbox":[77.971,10.8471,77.971,10.8471]},{"type":"Feature","geometry":{"type":"Point","coordinates":[77.947,10.8502]},"properties":{"district":"Karur","taluk":"Aravakurichi (Tk)","village":"Nagampalli","name":"N Vengadapuram","area_type":"Rural","shop_code":"12BC012P1","search_string":"  aravakurichi (tk) karur "},"bbox":[77.947,10.8502,77.947,10.8502]},{"type":"Feature","geometry":{"type":"Point","coordinates":[77.8496,10.8509]},"properties":{"district":"Karur","taluk":"Aravakurichi (Tk)","village":"Cinna Dharapuram","name":"Chinnatharapuram","area_type":"Rural","shop_code":"12BP054PN","search_string":"  aravakurichi (tk) karur "},"bbox":[77.8496,10.8509,77.8496,10.8509]},{"type":"Feature","geometry":{"type":"Point","coordinates":[77.9805,10.8542]},"properties":{"district":"Karur","taluk":"Aravakurichi (Tk)","village":"Kodayur","name":"Seethapatti Colony","area_type":"Rural","shop_code":"12BP001P1","search_string":"  aravakurichi (tk) karur "},"bbox":[77.9805,10.8542,77.9805,10.8542]},{"type":"Feature","geometry":{"type":"Point","coordinates":[77.8521,10.8542]},"properties":{"district":"Karur","taluk":"Aravakurichi (Tk)","village":"Cinna Dharapuram","name":"Chinna tharapurammagalirangadi","area_type":"Rural","shop_code":"12BS003PN","search_string":"  aravakurichi (tk) karur "},"bbox":[77.8521,10.8542,77.8521,10.8542]},{"type":"Feature","geometry":{"type":"Point","coordinates":[77.828,10.8553]},"properties":{"district":"Karur","taluk":"Aravakurichi (Tk)","village":"Kudalur East","name":"Periyamathiyakoodalur","area_type":"Rural","shop_code":"12BP058PN","search_string":"  aravakurichi (tk) karur "},"bbox":[77.828,10.8553,77.828,10.8553]},{"type":"Feature","geometry":{"type":"Point","coordinates":[77.9274,10.8562]},"properties":{"district":"Karur","taluk":"Aravakurichi (Tk)","village":"Nanjai Kalakurichi","name":"Nanjaikalakurichi","area_type":"Rural","shop_code":"12BP044PN","search_string":"  aravakurichi (tk) karur "},"bbox":[77.9274,10.8562,77.9274,10.8562]},{"type":"Feature","geometry":{"type":"Point","coordinates":[77.8461,10.8575]},"properties":{"district":"Karur","taluk":"Aravakurichi (Tk)","village":"T Vengada Puram","name":"Kattamputhur","area_type":"Rural","shop_code":"12BP055PN","search_string":"  aravakurichi (tk) karur "},"bbox":[77.8461,10.8575,77.8461,10.8575]},{"type":"Feature","geometry":{"type":"Point","coordinates":[77.9027,10.859]},"properties":{"district":"Karur","taluk":"Aravakurichi (Tk)","village":"Soodamani","name":"Katharmangalam","area_type":"Rural","shop_code":"12BP057P1","search_string":"  aravakurichi (tk) karur "},"bbox":[77.9027,10.859,77.9027,10.859]},{"type":"Feature","geometry":{"type":"Point","coordinates":[77.8632,10.8617]},"properties":{"district":"Karur","taluk":"Aravakurichi (Tk)","village":"T Vengada Puram","name":"T Venkidapuram","area_type":"Rural","shop_code":"12BP056PY","search_string":"  aravakurichi (tk) karur "},"bbox":[77.8632,10.8617,77.8632,10.8617]},{"type":"Feature","geometry":{"type":"Point","coordinates":[77.9921,10.8638]},"properties":{"district":"Karur","taluk":"Aravakurichi (Tk)","village":"Kodayur","name":"Kodayur","area_type":"Rural","shop_code":"12BP001PY","search_string":"  aravakurichi (tk) karur "},"bbox":[77.9921,10.8638,77.9921,10.8638]},{"type":"Feature","geometry":{"type":"Point","coordinates":[77.9109,10.8709]},"properties":{"district":"Karur","taluk":"Aravakurichi (Tk)","village":"Punjai Kalakurichi","name":"Katchinampatti","area_type":"Rural","shop_code":"12BP070P1","search_string":"  aravakurichi (tk) karur "},"bbox":[77.9109,10.8709,77.9109,10.8709]},{"type":"Feature","geometry":{"type":"Point","coordinates":[77.8382,10.8734]},"properties":{"district":"Karur","taluk":"Aravakurichi (Tk)","village":"Kudalur East","name":"Panayampalayam","area_type":"Rural","shop_code":"12BP049P1","search_string":"  aravakurichi (tk) karur "},"bbox":[77.8382,10.8734,77.8382,10.8734]},{"type":"Feature","geometry":{"type":"Point","coordinates":[77.8829,10.8745]},"properties":{"district":"Karur","taluk":"Aravakurichi (Tk)","village":"Soodamani","name":"Sudamani","area_type":"Rural","shop_code":"12BP057PY","search_string":"  aravakurichi (tk) karur "},"bbox":[77.8829,10.8745,77.8829,10.8745]},{"type":"Feature","geometry":{"type":"Point","coordinates":[77.9371,10.8787]},"properties":{"district":"Karur","taluk":"Aravakurichi (Tk)","village":"Punjai Kalakurichi","name":"Kasipalayam","area_type":"Rural","shop_code":"12BP070PY","search_string":"  aravakurichi (tk) karur "},"bbox":[77.9371,10.8787,77.9371,10.8787]},{"type":"Feature","geometry":{"type":"Point","coordinates":[77.9552,10.8798]},"properties":{"district":"Karur","taluk":"Aravakurichi (Tk)","village":"P Anaipalayam","name":"P Anaipalayam","area_type":"Rural","shop_code":"12BP042PY","search_string":"  aravakurichi (tk) karur "},"bbox":[77.9552,10.8798,77.9552,10.8798]},{"type":"Feature","geometry":{"type":"Point","coordinates":[77.7852,10.8877]},"properties":{"district":"Karur","taluk":"Aravakurichi (Tk)","village":"Kodanthur South","name":"Mulathurainatchipalayam","area_type":"Rural","shop_code":"12BP047P1","search_string":"  aravakurichi (tk) karur "},"bbox":[77.7852,10.8877,77.7852,10.8877]},{"type":"Feature","geometry":{"type":"Point","coordinates":[77.799,10.8885]},"properties":{"district":"Karur","taluk":"Aravakurichi (Tk)","village":"Kudalur East","name":"Periyathirumangalam","area_type":"Rural","shop_code":"12BP049PY","search_string":"  aravakurichi (tk) karur "},"bbox":[77.799,10.8885,77.799,10.8885]},{"type":"Feature","geometry":{"type":"Point","coordinates":[77.8353,10.9023]},"properties":{"district":"Karur","taluk":"Aravakurichi (Tk)","village":"Kudalur East","name":"C Koodalur","area_type":"Rural","shop_code":"12BP048PN","search_string":"  aravakurichi (tk) karur "},"bbox":[77.8353,10.9023,77.8353,10.9023]},{"type":"Feature","geometry":{"type":"Point","coordinates":[77.8803,10.9053]},"properties":{"district":"Karur","taluk":"Aravakurichi (Tk)","village":"Nadanthai South","name":"Aandisettipalayam","area_type":"Rural","shop_code":"12BP046P1","search_string":"  aravakurichi (tk) karur "},"bbox":[77.8803,10.9053,77.8803,10.9053]},{"type":"Feature","geometry":{"type":"Point","coordinates":[77.978,10.9064]},"properties":{"district":"Karur","taluk":"Aravakurichi (Tk)","village":"Thumbivadi","name":"Thumpivadi","area_type":"Rural","shop_code":"12BP041PN","search_string":"  aravakurichi (tk) karur "},"bbox":[77.978,10.9064,77.978,10.9064]},{"type":"Feature","geometry":{"type":"Point","coordinates":[77.9137,10.9099]},"properties":{"district":"Karur","taluk":"Aravakurichi (Tk)","village":"Ariyur","name":"Aariyur","area_type":"Rural","shop_code":"12BP045PN","search_string":"  aravakurichi (tk) karur "},"bbox":[77.9137,10.9099,77.9137,10.9099]},{"type":"Feature","geometry":{"type":"Point","coordinates":[77.9382,10.9111]},"properties":{"district":"Karur","taluk":"Aravakurichi (Tk)","village":"P Anaipalayam","name":"Niminthampatti","area_type":"Rural","shop_code":"12BP042P1","search_string":"  aravakurichi (tk) karur "},"bbox":[77.9382,10.9111,77.9382,10.9111]},{"type":"Feature","geometry":{"type":"Point","coordinates":[77.8915,10.9222]},"properties":{"district":"Karur","taluk":"Aravakurichi (Tk)","village":"Nadanthai North","name":"Nadanthi","area_type":"Rural","shop_code":"12BP046PY","search_string":"  aravakurichi (tk) karur "},"bbox":[77.8915,10.9222,77.8915,10.9222]},{"type":"Feature","geometry":{"type":"Point","coordinates":[77.7956,10.9246]},"properties":{"district":"Karur","taluk":"Aravakurichi (Tk)","village":"Kodanthur North","name":"Kodanthur","area_type":"Rural","shop_code":"12BP047PY","search_string":"  aravakurichi (tk) karur "},"bbox":[77.7956,10.9246,77.7956,10.9246]},{"type":"Feature","geometry":{"type":"Point","coordinates":[78.201,10.5761]},"properties":{"district":"Karur","taluk":"Kadavur","village":"D Edayapatti","name":"Kilakkurajapatty","area_type":"Rural","shop_code":"12EP128PN","search_string":"  kadavur karur "},"bbox":[78.201,10.5761,78.201,10.5761]},{"type":"Feature","geometry":{"type":"Point","coordinates":[78.1791,10.5784]},"properties":{"district":"Karur","taluk":"Kadavur","village":"D Edayapatti","name":"Iyyambalayam","area_type":"Rural","shop_code":"12EP064PN","search_string":"  kadavur karur "},"bbox":[78.1791,10.5784,78.1791,10.5784]},{"type":"Feature","geometry":{"type":"Point","coordinates":[78.2228,10.5801]},"properties":{"district":"Karur","taluk":"Kadavur","village":"D Edayapatti","name":"Idaiyapatty","area_type":"Rural","shop_code":"12EP067PN","search_string":"  kadavur karur "},"bbox":[78.2228,10.5801,78.2228,10.5801]},{"type":"Feature","geometry":{"type":"Point","coordinates":[78.2348,10.5849]},"properties":{"district":"Karur","taluk":"Kadavur","village":"D Edayapatti","name":"Pungambadi","area_type":"Rural","shop_code":"12EP066PN","search_string":"  kadavur karur "},"bbox":[78.2348,10.5849,78.2348,10.5849]},{"type":"Feature","geometry":{"type":"Point","coordinates":[78.1594,10.5897]},"properties":{"district":"Karur","taluk":"Kadavur","village":"D Edayapatti","name":"Sevappur","area_type":"Rural","shop_code":"12EP065PN","search_string":"  kadavur karur "},"bbox":[78.1594,10.5897,78.1594,10.5897]},{"type":"Feature","geometry":{"type":"Point","coordinates":[78.1888,10.5935]},"properties":{"district":"Karur","taluk":"Kadavur","village":"D Edayapatti","name":"Kadavur","area_type":"Rural","shop_code":"12EP063PY","search_string":"  kadavur karur "},"bbox":[78.1888,10.5935,78.1888,10.5935]},{"type":"Feature","geometry":{"type":"Point","coordinates":[78.1971,10.5954]},"properties":{"district":"Karur","taluk":"Kadavur","village":"D Edayapatti","name":"Surumanpatty","area_type":"Rural","shop_code":"12EP063P1","search_string":"  kadavur karur "},"bbox":[78.1971,10.5954,78.1971,10.5954]},{"type":"Feature","geometry":{"type":"Point","coordinates":[78.2247,10.5992]},"properties":{"district":"Karur","taluk":"Kadavur","village":"D Edayapatti","name":"Sukkampatty","area_type":"Rural","shop_code":"12EP111PN","search_string":"  kadavur karur "},"bbox":[78.2247,10.5992,78.2247,10.5992]},{"type":"Feature","geometry":{"type":"Point","coordinates":[78.2469,10.6202]},"properties":{"district":"Karur","taluk":"Kadavur","village":"Mullippadi","name":"Thalivasal","area_type":"Rural","shop_code":"12EP113PN","search_string":"  kadavur karur "},"bbox":[78.2469,10.6202,78.2469,10.6202]},{"type":"Feature","geometry":{"type":"Point","coordinates":[78.2541,10.6234]},"properties":{"district":"Karur","taluk":"Kadavur","village":"Mullippadi","name":"Servaikaranpatty","area_type":"Rural","shop_code":"12EP068PN","search_string":"  kadavur karur "},"bbox":[78.2541,10.6234,78.2541,10.6234]},{"type":"Feature","geometry":{"type":"Point","coordinates":[78.2611,10.6411]},"properties":{"district":"Karur","taluk":"Kadavur","village":"Mullippadi","name":"Mullipadi","area_type":"Rural","shop_code":"12EP112PN","search_string":"  kadavur karur "},"bbox":[78.2611,10.6411,78.2611,10.6411]},{"type":"Feature","geometry":{"type":"Point","coordinates":[78.212,10.6441]},"properties":{"district":"Karur","taluk":"Kadavur","village":"Palavidithi","name":"Singampatty","area_type":"Rural","shop_code":"12EP110PN","search_string":"  kadavur karur "},"bbox":[78.212,10.6441,78.212,10.6441]},{"type":"Feature","geometry":{"type":"Point","coordinates":[78.2407,10.6461]},"properties":{"district":"Karur","taluk":"Kadavur","village":"Palavidithi","name":"Palaviduthi","area_type":"Rural","shop_code":"12EP061PY","search_string":"  kadavur karur "},"bbox":[78.2407,10.6461,78.2407,10.6461]},{"type":"Feature","geometry":{"type":"Point","coordinates":[78.225,10.649]},"properties":{"district":"Karur","taluk":"Kadavur","village":"Palavidithi","name":"Kavarappatty","area_type":"Rural","shop_code":"12EP062PN","search_string":"  kadavur karur "},"bbox":[78.225,10.649,78.225,10.649]},{"type":"Feature","geometry":{"type":"Point","coordinates":[78.2434,10.6565]},"properties":{"district":"Karur","taluk":"Kadavur","village":"Palavidithi","name":"Kurumbapatty","area_type":"Rural","shop_code":"12EP061P2","search_string":"  kadavur karur "},"bbox":[78.2434,10.6565,78.2434,10.6565]},{"type":"Feature","geometry":{"type":"Point","coordinates":[78.2354,10.6615]},"properties":{"district":"Karur","taluk":"Kadavur","village":"Palavidithi","name":"Thoolippatty","area_type":"Rural","shop_code":"12EP061P1","search_string":"  kadavur karur "},"bbox":[78.2354,10.6615,78.2354,10.6615]},{"type":"Feature","geometry":{"type":"Point","coordinates":[78.1932,10.6649]},"properties":{"district":"Karur","taluk":"Kadavur","village":"Sembianatham","name":"Poosaripatty","area_type":"Rural","shop_code":"12EP133PN","search_string":"  kadavur karur "},"bbox":[78.1932,10.6649,78.1932,10.6649]},{"type":"Feature","geometry":{"type":"Point","coordinates":[78.2635,10.668]},"properties":{"district":"Karur","taluk":"Kadavur","village":"Mavathur","name":"Kulakkarampatty","area_type":"Rural","shop_code":"12EP069P2","search_string":"  kadavur karur "},"bbox":[78.2635,10.668,78.2635,10.668]},{"type":"Feature","geometry":{"type":"Point","coordinates":[78.1831,10.673]},"properties":{"district":"Karur","taluk":"Kadavur","village":"Keelappaguthi","name":"Arasakavandanur","area_type":"Rural","shop_code":"12EP075PN","search_string":"  kadavur karur "},"bbox":[78.1831,10.673,78.1831,10.673]},{"type":"Feature","geometry":{"type":"Point","coordinates":[78.2485,10.6759]},"properties":{"district":"Karur","taluk":"Kadavur","village":"Mavathur","name":"Rediapatty","area_type":"Rural","shop_code":"12EP069PY","search_string":"  kadavur karur "},"bbox":[78.2485,10.6759,78.2485,10.6759]},{"type":"Feature","geometry":{"type":"Point","coordinates":[78.2002,10.6759]},"properties":{"district":"Karur","taluk":"Kadavur","village":"Mavathur","name":"Rayappakavandanur","area_type":"Rural","shop_code":"12EP074P1","search_string":"  kadavur karur "},"bbox":[78.2002,10.6759,78.2002,10.6759]},{"type":"Feature","geometry":{"type":"Point","coordinates":[78.1696,10.6821]},"properties":{"district":"Karur","taluk":"Kadavur","village":"Sembianatham","name":"Mettur","area_type":"Rural","shop_code":"12EP132PN","search_string":"  kadavur karur "},"bbox":[78.1696,10.6821,78.1696,10.6821]},{"type":"Feature","geometry":{"type":"Point","coordinates":[78.1924,10.6913]},"properties":{"district":"Karur","taluk":"Kadavur","village":"Mullippadi","name":"Sambiyanatham","area_type":"Rural","shop_code":"12EP074PY","search_string":"  kadavur karur "},"bbox":[78.1924,10.6913,78.1924,10.6913]},{"type":"Feature","geometry":{"type":"Point","coordinates":[78.2319,10.6914]},"properties":{"district":"Karur","taluk":"Kadavur","village":"Mavathur","name":"Mavathur","area_type":"Rural","shop_code":"12EP114PN","search_string":"  kadavur karur "},"bbox":[78.2319,10.6914,78.2319,10.6914]},{"type":"Feature","geometry":{"type":"Point","coordinates":[78.2142,10.6926]},"properties":{"district":"Karur","taluk":"Kadavur","village":"Adhanur","name":"Sennampatty","area_type":"Rural","shop_code":"12EP115PN","search_string":"  kadavur karur "},"bbox":[78.2142,10.6926,78.2142,10.6926]},{"type":"Feature","geometry":{"type":"Point","coordinates":[78.251,10.6981]},"properties":{"district":"Karur","taluk":"Kadavur","village":"Mavathur","name":"Kaluthirikanpatty","area_type":"Rural","shop_code":"12EP069P1","search_string":"  kadavur karur "},"bbox":[78.251,10.6981,78.251,10.6981]},{"type":"Feature","geometry":{"type":"Point","coordinates":[78.1811,10.701]},"properties":{"district":"Karur","taluk":"Kadavur","village":"Adhanur","name":"Melamettupatty","area_type":"Rural","shop_code":"12EP126PN","search_string":"  kadavur karur "},"bbox":[78.1811,10.701,78.1811,10.701]},{"type":"Feature","geometry":{"type":"Point","coordinates":[78.2014,10.7049]},"properties":{"district":"Karur","taluk":"Kadavur","village":"Adhanur","name":"Eruthikonampatty","area_type":"Rural","shop_code":"12EP073PN","search_string":"  kadavur karur "},"bbox":[78.2014,10.7049,78.2014,10.7049]},{"type":"Feature","geometry":{"type":"Point","coordinates":[78.2789,10.7248]},"properties":{"district":"Karur","taluk":"Kadavur","village":"Valvarmangalam","name":"Valvarmangalam","area_type":"Rural","shop_code":"12EP078PN","search_string":"  kadavur karur "},"bbox":[78.2789,10.7248,78.2789,10.7248]},{"type":"Feature","geometry":{"type":"Point","coordinates":[78.1732,10.7259]},"properties":{"district":"Karur","taluk":"Kadavur","village":"Devarmalai","name":"Kurunikulathupatty","area_type":"Rural","shop_code":"12EP125PN","search_string":"  kadavur karur "},"bbox":[78.1732,10.7259,78.1732,10.7259]},{"type":"Feature","geometry":{"type":"Point","coordinates":[78.1889,10.7283]},"properties":{"district":"Karur","taluk":"Kadavur","village":"Melappaguthi","name":"Anaigoundanpatty","area_type":"Rural","shop_code":"12EP123PN","search_string":"  kadavur karur "},"bbox":[78.1889,10.7283,78.1889,10.7283]},{"type":"Feature","geometry":{"type":"Point","coordinates":[78.231,10.7288]},"properties":{"district":"Karur","taluk":"Kadavur","village":"Keelappaguthi","name":"Chinthamanipatti","area_type":"Rural","shop_code":"12EP071PN","search_string":"  kadavur karur "},"bbox":[78.231,10.7288,78.231,10.7288]},{"type":"Feature","geometry":{"type":"Point","coordinates":[78.336,10.7291]},"properties":{"district":"Karur","taluk":"Kadavur","village":"Kosur","name":"Gowndampatty","area_type":"Rural","shop_code":"12EP032P1","search_string":"  kadavur karur "},"bbox":[78.336,10.7291,78.336,10.7291]},{"type":"Feature","geometry":{"type":"Point","coordinates":[78.2432,10.733]},"properties":{"district":"Karur","taluk":"Kadavur","village":"D Edayapatti","name":"Mylampatty","area_type":"Rural","shop_code":"12EP072PN","search_string":"  kadavur karur "},"bbox":[78.2432,10.733,78.2432,10.733]},{"type":"Feature","geometry":{"type":"Point","coordinates":[78.3481,10.7412]},"properties":{"district":"Karur","taluk":"Kadavur","village":"Kosur","name":"valaikinam","area_type":"Rural","shop_code":"12EP032PY","search_string":"  kadavur karur "},"bbox":[78.3481,10.7412,78.3481,10.7412]},{"type":"Feature","geometry":{"type":"Point","coordinates":[78.3187,10.7446]},"properties":{"district":"Karur","taluk":"Kadavur","village":"Kosur","name":"Kosur","area_type":"Rural","shop_code":"12EP033PY","search_string":"  kadavur karur "},"bbox":[78.3187,10.7446,78.3187,10.7446]},{"type":"Feature","geometry":{"type":"Point","coordinates":[78.2947,10.748]},"properties":{"district":"Karur","taluk":"Kadavur","village":"Kosur","name":"Ottappatty","area_type":"Rural","shop_code":"12EP033P2","search_string":"  kadavur karur "},"bbox":[78.2947,10.748,78.2947,10.748]},{"type":"Feature","geometry":{"type":"Point","coordinates":[78.225,10.748]},"properties":{"district":"Karur","taluk":"Kadavur","village":"Varavanai","name":"Varavanai","area_type":"Rural","shop_code":"12EP121PN","search_string":"  kadavur karur "},"bbox":[78.225,10.748,78.225,10.748]},{"type":"Feature","geometry":{"type":"Point","coordinates":[78.3534,10.7488]},"properties":{"district":"Karur","taluk":"Kadavur","village":"Kosur","name":"Kuppandiyur natham","area_type":"Rural","shop_code":"12EP034PN","search_string":"  kadavur karur "},"bbox":[78.3534,10.7488,78.3534,10.7488]},{"type":"Feature","geometry":{"type":"Point","coordinates":[78.2685,10.7504]},"properties":{"district":"Karur","taluk":"Kadavur","village":"Thennilai","name":"Manjappulipatty","area_type":"Rural","shop_code":"12EP077PN","search_string":"  kadavur karur "},"bbox":[78.2685,10.7504,78.2685,10.7504]},{"type":"Feature","geometry":{"type":"Point","coordinates":[78.3295,10.7557]},"properties":{"district":"Karur","taluk":"Kadavur","village":"Kosur","name":"Kambaliamptty","area_type":"Rural","shop_code":"12EP033P1","search_string":"  kadavur karur "},"bbox":[78.3295,10.7557,78.3295,10.7557]},{"type":"Feature","geometry":{"type":"Point","coordinates":[78.1959,10.7569]},"properties":{"district":"Karur","taluk":"Kadavur","village":"Melappaguthi","name":"Veralipatty","area_type":"Rural","shop_code":"12EP122PN","search_string":"  kadavur karur "},"bbox":[78.1959,10.7569,78.1959,10.7569]},{"type":"Feature","geometry":{"type":"Point","coordinates":[78.2524,10.7602]},"properties":{"district":"Karur","taluk":"Kadavur","village":"Thennilai","name":"Mamarathuppatty","area_type":"Rural","shop_code":"12EP076PN","search_string":"  kadavur karur "},"bbox":[78.2524,10.7602,78.2524,10.7602]},{"type":"Feature","geometry":{"type":"Point","coordinates":[78.1754,10.7615]},"properties":{"district":"Karur","taluk":"Kadavur","village":"Kalayapatti","name":"K.Chinnandipatty","area_type":"Rural","shop_code":"12EP083PY","search_string":"  kadavur karur "},"bbox":[78.1754,10.7615,78.1754,10.7615]},{"type":"Feature","geometry":{"type":"Point","coordinates":[78.2929,10.7647]},"properties":{"district":"Karur","taluk":"Kadavur","village":"Keeranur","name":"Thalumagoundanur","area_type":"Rural","shop_code":"12EP119PN","search_string":"  kadavur karur "},"bbox":[78.2929,10.7647,78.2929,10.7647]},{"type":"Feature","geometry":{"type":"Point","coordinates":[78.2159,10.7648]},"properties":{"district":"Karur","taluk":"Kadavur","village":"Varavanai","name":"Sundukulipatty","area_type":"Rural","shop_code":"12EP086PN","search_string":"  kadavur karur "},"bbox":[78.2159,10.7648,78.2159,10.7648]},{"type":"Feature","geometry":{"type":"Point","coordinates":[78.2348,10.7714]},"properties":{"district":"Karur","taluk":"Kadavur","village":"Thennilai","name":"keelasakarakottai","area_type":"Rural","shop_code":"12EP079PN","search_string":"  kadavur karur "},"bbox":[78.2348,10.7714,78.2348,10.7714]},{"type":"Feature","geometry":{"type":"Point","coordinates":[78.1829,10.7719]},"properties":{"district":"Karur","taluk":"Kadavur","village":"Kalayapatti","name":"Kallaiyapatty","area_type":"Rural","shop_code":"12EP083P1","search_string":"  kadavur karur "},"bbox":[78.1829,10.7719,78.1829,10.7719]},{"type":"Feature","geometry":{"type":"Point","coordinates":[78.2293,10.7789]},"properties":{"district":"Karur","taluk":"Kadavur","village":"Varavanai","name":"Pappanampatty","area_type":"Rural","shop_code":"12EP120PN","search_string":"  kadavur karur "},"bbox":[78.2293,10.7789,78.2293,10.7789]},{"type":"Feature","geometry":{"type":"Point","coordinates":[78.1823,10.7859]},"properties":{"district":"Karur","taluk":"Kadavur","village":"Manjanaiyakanpatti","name":"Veeriyapatty","area_type":"Rural","shop_code":"12EP087P1","search_string":"  kadavur karur "},"bbox":[78.1823,10.7859,78.1823,10.7859]},{"type":"Feature","geometry":{"type":"Point","coordinates":[78.2816,10.7868]},"properties":{"district":"Karur","taluk":"Kadavur","village":"Keeranur","name":"Keeranur","area_type":"Rural","shop_code":"12EP082PN","search_string":"  kadavur karur "},"bbox":[78.2816,10.7868,78.2816,10.7868]},{"type":"Feature","geometry":{"type":"Point","coordinates":[78.2018,10.7898]},"properties":{"district":"Karur","taluk":"Kadavur","village":"Manjanaiyakanpatti","name":"Kaniyalampatty","area_type":"Rural","shop_code":"12EP087PY","search_string":"  kadavur karur "},"bbox":[78.2018,10.7898,78.2018,10.7898]},{"type":"Feature","geometry":{"type":"Point","coordinates":[78.2479,10.7936]},"properties":{"district":"Karur","taluk":"Kadavur","village":"Pannapatti","name":"P.udaiyapatty","area_type":"Rural","shop_code":"12EP080PY","search_string":"  kadavur karur "},"bbox":[78.2479,10.7936,78.2479,10.7936]},{"type":"Feature","geometry":{"type":"Point","coordinates":[78.2109,10.7943]},"properties":{"district":"Karur","taluk":"Kadavur","village":"Varavanai","name":"V. Chinnandipatty","area_type":"Rural","shop_code":"12EP085PN","search_string":"  kadavur karur "},"bbox":[78.2109,10.7943,78.2109,10.7943]},{"type":"Feature","geometry":{"type":"Point","coordinates":[78.2164,10.7967]},"properties":{"district":"Karur","taluk":"Kadavur","village":"Pannapatti","name":"Sukkampatty","area_type":"Rural","shop_code":"12EP116PN","search_string":"  kadavur karur "},"bbox":[78.2164,10.7967,78.2164,10.7967]},{"type":"Feature","geometry":{"type":"Point","coordinates":[78.2923,10.799]},"properties":{"district":"Karur","taluk":"Kadavur","village":"Keeranur","name":"Puduvady","area_type":"Rural","shop_code":"12EP118PN","search_string":"  kadavur karur "},"bbox":[78.2923,10.799,78.2923,10.799]},{"type":"Feature","geometry":{"type":"Point","coordinates":[78.2468,10.808]},"properties":{"district":"Karur","taluk":"Kadavur","village":"Vellapatti","name":"Paraippatty","area_type":"Rural","shop_code":"12EP081P1","search_string":"  kadavur karur "},"bbox":[78.2468,10.808,78.2468,10.808]},{"type":"Feature","geometry":{"type":"Point","coordinates":[78.2819,10.8101]},"properties":{"district":"Karur","taluk":"Kadavur","village":"Vellapatti","name":"Ponnipatty","area_type":"Rural","shop_code":"12EP117PN","search_string":"  kadavur karur "},"bbox":[78.2819,10.8101,78.2819,10.8101]},{"type":"Feature","geometry":{"type":"Point","coordinates":[78.2415,10.821]},"properties":{"district":"Karur","taluk":"Kadavur","village":"Pannapatti","name":"Nallamuthupalayam","area_type":"Rural","shop_code":"12EP080P1","search_string":"  kadavur karur "},"bbox":[78.2415,10.821,78.2415,10.821]},{"type":"Feature","geometry":{"type":"Point","coordinates":[78.2704,10.8212]},"properties":{"district":"Karur","taluk":"Kadavur","village":"Vellapatti","name":"Vellappatty","area_type":"Rural","shop_code":"12EP081PY","search_string":"  kadavur karur "},"bbox":[78.2704,10.8212,78.2704,10.8212]},{"type":"Feature","geometry":{"type":"Point","coordinates":[78.2641,10.8302]},"properties":{"district":"Karur","taluk":"Kadavur","village":"Vadavambadi","name":"Vadavambadi","area_type":"Rural","shop_code":"12EP090PN","search_string":"  kadavur karur "},"bbox":[78.2641,10.8302,78.2641,10.8302]},{"type":"Feature","geometry":{"type":"Point","coordinates":[78.2719,10.8631]},"properties":{"district":"Karur","taluk":"Kadavur","village":"Pappayambadi","name":"Pappayambadi","area_type":"Rural","shop_code":"12EP089PN","search_string":"  kadavur karur "},"bbox":[78.2719,10.8631,78.2719,10.8631]},{"type":"Feature","geometry":{"type":"Point","coordinates":[78.0749,10.961]},"properties":{"district":"Karur","taluk":"Kadavur","village":"Manjanaiyakanpatti","name":"Sellandipuram","area_type":"Rural","shop_code":"12EP084PN","search_string":"  kadavur karur "},"bbox":[78.0749,10.961,78.0749,10.961]},{"type":"Feature","geometry":{"type":"Point","coordinates":[78.0808,10.794]},"properties":{"district":"Karur","taluk":"Karur (Tk)","village":"Pitchampatti","name":"K.Pitchampatti","area_type":"Rural","shop_code":"12AP084PN","search_string":"  karur (tk) karur "},"bbox":[78.0808,10.794,78.0808,10.794]},{"type":"Feature","geometry":{"type":"Point","coordinates":[78.0875,10.8018]},"properties":{"district":"Karur","taluk":"Karur (Tk)","village":"Thalappatti","name":"K . Pitchampatti - 1","area_type":"Rural","shop_code":"12AP058PN","search_string":"  karur (tk) karur "},"bbox":[78.0875,10.8018,78.0875,10.8018]},{"type":"Feature","geometry":{"type":"Point","coordinates":[78.1046,10.8194]},"properties":{"district":"Karur","taluk":"Karur (Tk)","village":"Velliyanai","name":"Jallipatti","area_type":"Rural","shop_code":"12AP068P2","search_string":"  karur (tk) karur "},"bbox":[78.1046,10.8194,78.1046,10.8194]},{"type":"Feature","geometry":{"type":"Point","coordinates":[78.136,10.8207]},"properties":{"district":"Karur","taluk":"Karur (Tk)","village":"Velliyanai","name":"Vadakku Mettuppatti","area_type":"Rural","shop_code":"12AP068P1","search_string":"  karur (tk) karur "},"bbox":[78.136,10.8207,78.136,10.8207]},{"type":"Feature","geometry":{"type":"Point","coordinates":[78.0487,10.8235]},"properties":{"district":"Karur","taluk":"Karur (Tk)","village":"Mustaginathupatti","name":"Mustaginathupatti","area_type":"Rural","shop_code":"12AP062PN","search_string":"  karur (tk) karur "},"bbox":[78.0487,10.8235,78.0487,10.8235]},{"type":"Feature","geometry":{"type":"Point","coordinates":[78.0746,10.8361]},"properties":{"district":"Karur","taluk":"Karur (Tk)","village":"Chinna Mookkanankurichi","name":"Chinna-Mookkanankurichi","area_type":"Rural","shop_code":"12AP086PN","search_string":"  karur (tk) karur "},"bbox":[78.0746,10.8361,78.0746,10.8361]},{"type":"Feature","geometry":{"type":"Point","coordinates":[78.167,10.8416]},"properties":{"district":"Karur","taluk":"Karur (Tk)","village":"Jagathabi","name":"Jagathabi","area_type":"Rural","shop_code":"12AP055PY","search_string":"  karur (tk) karur "},"bbox":[78.167,10.8416,78.167,10.8416]},{"type":"Feature","geometry":{"type":"Point","coordinates":[78.1223,10.8448]},"properties":{"district":"Karur","taluk":"Karur (Tk)","village":"Velliyanai","name":"Velliyanai east","area_type":"Rural","shop_code":"12AP067PY","search_string":"  karur (tk) karur "},"bbox":[78.1223,10.8448,78.1223,10.8448]},{"type":"Feature","geometry":{"type":"Point","coordinates":[78.1215,10.8452]},"properties":{"district":"Karur","taluk":"Karur (Tk)","village":"Velliyanai","name":"Velliyanai south","area_type":"Rural","shop_code":"12AP068PY","search_string":"  karur (tk) karur "},"bbox":[78.1215,10.8452,78.1215,10.8452]},{"type":"Feature","geometry":{"type":"Point","coordinates":[78.192,10.8453]},"properties":{"district":"Karur","taluk":"Karur (Tk)","village":"Pommanuthuppatti","name":"Pommanuthuppatti","area_type":"Rural","shop_code":"12AP056P1","search_string":"  karur (tk) karur "},"bbox":[78.192,10.8453,78.192,10.8453]},{"type":"Feature","geometry":{"type":"Point","coordinates":[78.119,10.8475]},"properties":{"district":"Karur","taluk":"Karur (Tk)","village":"Velliyanai","name":"Velliyanai north","area_type":"Rural","shop_code":"12AP069PY","search_string":"  karur (tk) karur "},"bbox":[78.119,10.8475,78.119,10.8475]},{"type":"Feature","geometry":{"type":"Point","coordinates":[78.1511,10.8485]},"properties":{"district":"Karur","taluk":"Karur (Tk)","village":"Thirumalainathanpatti","name":"Thirumalainathanpatti","area_type":"Rural","shop_code":"12AP067P1","search_string":"  karur (tk) karur "},"bbox":[78.1511,10.8485,78.1511,10.8485]},{"type":"Feature","geometry":{"type":"Point","coordinates":[78.1122,10.8492]},"properties":{"district":"Karur","taluk":"Karur (Tk)","village":"Velliyanai Samathuvapuram","name":"Velliyanai samathuvapuram","area_type":"Rural","shop_code":"12AP069P3","search_string":"  karur (tk) karur "},"bbox":[78.1122,10.8492,78.1122,10.8492]},{"type":"Feature","geometry":{"type":"Point","coordinates":[78.0472,10.8502]},"properties":{"district":"Karur","taluk":"Karur (Tk)","village":"Paganatham","name":"Paganatham","area_type":"Rural","shop_code":"12AP061PY","search_string":"  karur (tk) karur "},"bbox":[78.0472,10.8502,78.0472,10.8502]},{"type":"Feature","geometry":{"type":"Point","coordinates":[78.1615,10.8576]},"properties":{"district":"Karur","taluk":"Karur (Tk)","village":"Thulasikodumbu","name":"Thulasikodumbu","area_type":"Rural","shop_code":"12AP055P1","search_string":"  karur (tk) karur "},"bbox":[78.1615,10.8576,78.1615,10.8576]},{"type":"Feature","geometry":{"type":"Point","coordinates":[78.193,10.8627]},"properties":{"district":"Karur","taluk":"Karur (Tk)","village":"Porani","name":"Porani","area_type":"Rural","shop_code":"12AP056PY","search_string":"  karur (tk) karur "},"bbox":[78.193,10.8627,78.193,10.8627]},{"type":"Feature","geometry":{"type":"Point","coordinates":[78.049,10.8632]},"properties":{"district":"Karur","taluk":"Karur (Tk)","village":"Vedikkaranpatti","name":"Vedikkaranpatti","area_type":"Rural","shop_code":"12AP061P1","search_string":"  karur (tk) karur "},"bbox":[78.049,10.8632,78.049,10.8632]},{"type":"Feature","geometry":{"type":"Point","coordinates":[78.0655,10.8632]},"properties":{"district":"Karur","taluk":"Karur (Tk)","village":"Thammanayakkanpatti","name":"Thammanayakkanpatti","area_type":"Rural","shop_code":"12AP059P1","search_string":"  karur (tk) karur "},"bbox":[78.0655,10.8632,78.0655,10.8632]},{"type":"Feature","geometry":{"type":"Point","coordinates":[78.0767,10.8655]},"properties":{"district":"Karur","taluk":"Karur (Tk)","village":"Kandhasarappatti","name":"Kandhasarappatti","area_type":"Rural","shop_code":"12AP059PY","search_string":"  karur (tk) karur "},"bbox":[78.0767,10.8655,78.0767,10.8655]},{"type":"Feature","geometry":{"type":"Point","coordinates":[78.1243,10.8655]},"properties":{"district":"Karur","taluk":"Karur (Tk)","village":"Kumarapalayam","name":"Kumarapalayam","area_type":"Rural","shop_code":"12AP069P1","search_string":"  karur (tk) karur "},"bbox":[78.1243,10.8655,78.1243,10.8655]},{"type":"Feature","geometry":{"type":"Point","coordinates":[78.1472,10.8698]},"properties":{"district":"Karur","taluk":"Karur (Tk)","village":"Velayuthampalayam","name":"Velayuthampalayam","area_type":"Rural","shop_code":"12AP069P2","search_string":"  karur (tk) karur "},"bbox":[78.1472,10.8698,78.1472,10.8698]},{"type":"Feature","geometry":{"type":"Point","coordinates":[78.1751,10.8745]},"properties":{"district":"Karur","taluk":"Karur (Tk)","village":"Allaligoundanur","name":"Allaligoundanur","area_type":"Rural","shop_code":"12AP056P2","search_string":"  karur (tk) karur "},"bbox":[78.1751,10.8745,78.1751,10.8745]},{"type":"Feature","geometry":{"type":"Point","coordinates":[78.02,10.8759]},"properties":{"district":"Karur","taluk":"Karur (Tk)","village":"Puththambur","name":"Putthambur","area_type":"Rural","shop_code":"12AP066PY","search_string":"  karur (tk) karur "},"bbox":[78.02,10.8759,78.02,10.8759]},{"type":"Feature","geometry":{"type":"Point","coordinates":[78.124,10.8772]},"properties":{"district":"Karur","taluk":"Karur (Tk)","village":"Manavadi","name":"Manavadi","area_type":"Rural","shop_code":"12AP057PY","search_string":"  karur (tk) karur "},"bbox":[78.124,10.8772,78.124,10.8772]},{"type":"Feature","geometry":{"type":"Point","coordinates":[78.0657,10.8773]},"properties":{"district":"Karur","taluk":"Karur (Tk)","village":"Mookkanankurichi","name":"Mookkanankurichi","area_type":"Rural","shop_code":"12AP060PY","search_string":"  karur (tk) karur "},"bbox":[78.0657,10.8773,78.0657,10.8773]},{"type":"Feature","geometry":{"type":"Point","coordinates":[78.1035,10.8829]},"properties":{"district":"Karur","taluk":"Karur (Tk)","village":"Palvarppatti","name":"Palvarppatti","area_type":"Rural","shop_code":"12AP060P1","search_string":"  karur (tk) karur "},"bbox":[78.1035,10.8829,78.1035,10.8829]},{"type":"Feature","geometry":{"type":"Point","coordinates":[78.1053,10.8846]},"properties":{"district":"Karur","taluk":"Karur (Tk)","village":"Ayyampalayam","name":"V.  Ayyampalayam","area_type":"Rural","shop_code":"12AP057P1","search_string":"  karur (tk) karur "},"bbox":[78.1053,10.8846,78.1053,10.8846]},{"type":"Feature","geometry":{"type":"Point","coordinates":[78.0168,10.8847]},"properties":{"district":"Karur","taluk":"Karur (Tk)","village":"Puthampur Samathuvapuram","name":"Puthampur samathuvapuram","area_type":"Rural","shop_code":"12AP066P1","search_string":"  karur (tk) karur "},"bbox":[78.0168,10.8847,78.0168,10.8847]},{"type":"Feature","geometry":{"type":"Point","coordinates":[78.1933,10.8871]},"properties":{"district":"Karur","taluk":"Karur (Tk)","village":"Latshumanampatti","name":"Latshumanampatti","area_type":"Urban","shop_code":"12AP016PY","search_string":"  karur (tk) karur "},"bbox":[78.1933,10.8871,78.1933,10.8871]},{"type":"Feature","geometry":{"type":"Point","coordinates":[78.1241,10.8886]},"properties":{"district":"Karur","taluk":"Karur (Tk)","village":"Kathalapatti","name":"Kathalapatti","area_type":"Rural","shop_code":"12AP057P2","search_string":"  karur (tk) karur "},"bbox":[78.1241,10.8886,78.1241,10.8886]},{"type":"Feature","geometry":{"type":"Point","coordinates":[78.1599,10.892]},"properties":{"district":"Karur","taluk":"Karur (Tk)","village":"Puthukanchamanoor","name":"Puthukanchamanoor","area_type":"Urban","shop_code":"12AP017PY","search_string":"  karur (tk) karur "},"bbox":[78.1599,10.892,78.1599,10.892]},{"type":"Feature","geometry":{"type":"Point","coordinates":[78.2132,10.8928]},"properties":{"district":"Karur","taluk":"Karur (Tk)","village":"Karuppur","name":"Salappatti","area_type":"Urban","shop_code":"12AP016P2","search_string":"  karur (tk) karur "},"bbox":[78.2132,10.8928,78.2132,10.8928]},{"type":"Feature","geometry":{"type":"Point","coordinates":[78.1782,10.8946]},"properties":{"district":"Karur","taluk":"Karur (Tk)","village":"Vennilai","name":"Pugaielaikurichiyanur","area_type":"Urban","shop_code":"12AP016P1","search_string":"  karur (tk) karur "},"bbox":[78.1782,10.8946,78.1782,10.8946]},{"type":"Feature","geometry":{"type":"Point","coordinates":[78.0875,10.8976]},"properties":{"district":"Karur","taluk":"Karur (Tk)","village":"Chinnamanayankanpatti","name":"Chinnamanayankanpatti","area_type":"Rural","shop_code":"12AP060P2","search_string":"  karur (tk) karur "},"bbox":[78.0875,10.8976,78.0875,10.8976]},{"type":"Feature","geometry":{"type":"Point","coordinates":[78.0517,10.9041]},"properties":{"district":"Karur","taluk":"Karur (Tk)","village":"Kokkampatti","name":"Kokkampatti","area_type":"Rural","shop_code":"12AP064P1","search_string":"  karur (tk) karur "},"bbox":[78.0517,10.9041,78.0517,10.9041]},{"type":"Feature","geometry":{"type":"Point","coordinates":[78.1565,10.9045]},"properties":{"district":"Karur","taluk":"Karur (Tk)","village":"Uppidamangalam","name":"Uppidamangalam","area_type":"Urban","shop_code":"12AP015PN","search_string":"  karur (tk) karur "},"bbox":[78.1565,10.9045,78.1565,10.9045]},{"type":"Feature","geometry":{"type":"Point","coordinates":[78.0304,10.905]},"properties":{"district":"Karur","taluk":"Karur (Tk)","village":"Kakkavadi","name":"Kakkavadi","area_type":"Rural","shop_code":"12AP064PY","search_string":"  karur (tk) karur "},"bbox":[78.0304,10.905,78.0304,10.905]},{"type":"Feature","geometry":{"type":"Point","coordinates":[78.1664,10.91]},"properties":{"district":"Karur","taluk":"Karur (Tk)","village":"Vaiyapuri Goundanur","name":"Vaiyapuri goundanur","area_type":"Urban","shop_code":"12AP017P1","search_string":"  karur (tk) karur "},"bbox":[78.1664,10.91,78.1664,10.91]},{"type":"Feature","geometry":{"type":"Point","coordinates":[78.1086,10.9114]},"properties":{"district":"Karur","taluk":"Karur (Tk)","village":"Emur Puthur","name":"Emur","area_type":"Rural","shop_code":"12AP050PY","search_string":"  karur (tk) karur "},"bbox":[78.1086,10.9114,78.1086,10.9114]},{"type":"Feature","geometry":{"type":"Point","coordinates":[78.154,10.9128]},"properties":{"district":"Karur","taluk":"Karur (Tk)","village":"Lingaththoor","name":"Lingaththoor","area_type":"Urban","shop_code":"12AP073PN","search_string":"  karur (tk) karur "},"bbox":[78.154,10.9128,78.154,10.9128]},{"type":"Feature","geometry":{"type":"Point","coordinates":[78.1235,10.9217]},"properties":{"district":"Karur","taluk":"Karur (Tk)","village":"Emur Puthur","name":"Emur Puthur","area_type":"Rural","shop_code":"12AP050P1","search_string":"  karur (tk) karur "},"bbox":[78.1235,10.9217,78.1235,10.9217]},{"type":"Feature","geometry":{"type":"Point","coordinates":[78.0955,10.9262]},"properties":{"district":"Karur","taluk":"Karur (Tk)","village":"Kaliyappanur","name":"Thanthoni - 2","area_type":"Urban","shop_code":"12AP013PN","search_string":"  karur (tk) karur "},"bbox":[78.0955,10.9262,78.0955,10.9262]},{"type":"Feature","geometry":{"type":"Point","coordinates":[78.1343,10.9282]},"properties":{"district":"Karur","taluk":"Karur (Tk)","village":"Vellalapatti","name":"P. Vellalapatti","area_type":"Urban","shop_code":"12AP014P1","search_string":"  karur (tk) karur "},"bbox":[78.1343,10.9282,78.1343,10.9282]},{"type":"Feature","geometry":{"type":"Point","coordinates":[78.0823,10.9309]},"properties":{"district":"Karur","taluk":"Karur (Tk)","village":"Pon Nagar","name":"Aachimangalam","area_type":"Urban","shop_code":"12AP011PN","search_string":"  karur (tk) karur "},"bbox":[78.0823,10.9309,78.0823,10.9309]},{"type":"Feature","geometry":{"type":"Point","coordinates":[78.088,10.9326]},"properties":{"district":"Karur","taluk":"Karur (Tk)","village":"Bharathidhasan Nagar","name":"Thanthoni - 1","area_type":"Urban","shop_code":"12AP012PN","search_string":"  karur (tk) karur "},"bbox":[78.088,10.9326,78.088,10.9326]},{"type":"Feature","geometry":{"type":"Point","coordinates":[78.06,10.9345]},"properties":{"district":"Karur","taluk":"Karur (Tk)","village":"Thoranakkalpatti","name":"Thoranakkalpatti","area_type":"Urban","shop_code":"12AP018PN","search_string":"  karur (tk) karur "},"bbox":[78.06,10.9345,78.06,10.9345]},{"type":"Feature","geometry":{"type":"Point","coordinates":[78.0913,10.9345]},"properties":{"district":"Karur","taluk":"Karur (Tk)","village":"Kaliyappan Kovil Street","name":"Thanthoni - 4","area_type":"Urban","shop_code":"12AP112PN","search_string":"  karur (tk) karur "},"bbox":[78.0913,10.9345,78.0913,10.9345]},{"type":"Feature","geometry":{"type":"Point","coordinates":[78.1506,10.9349]},"properties":{"district":"Karur","taluk":"Karur (Tk)","village":"Puliyur","name":"Puliyur","area_type":"Urban","shop_code":"12AC046PY","search_string":"  karur (tk) karur "},"bbox":[78.1506,10.9349,78.1506,10.9349]},{"type":"Feature","geometry":{"type":"Point","coordinates":[78.1429,10.9361]},"properties":{"district":"Karur","taluk":"Karur (Tk)","village":"Puliyur","name":"Puliyur-2","area_type":"Urban","shop_code":"12AC047PN","search_string":"  karur (tk) karur "},"bbox":[78.1429,10.9361,78.1429,10.9361]},{"type":"Feature","geometry":{"type":"Point","coordinates":[78.1581,10.9372]},"properties":{"district":"Karur","taluk":"Karur (Tk)","village":"Kalipalayam","name":"kalipalayam","area_type":"Urban","shop_code":"12AC046P1","search_string":"  karur (tk) karur "},"bbox":[78.1581,10.9372,78.1581,10.9372]},{"type":"Feature","geometry":{"type":"Point","coordinates":[78.0949,10.9374]},"properties":{"district":"Karur","taluk":"Karur (Tk)","village":"Ganapathipalayam","name":"Ganapathipalayam","area_type":"Urban","shop_code":"12AC056PN","search_string":"  karur (tk) karur "},"bbox":[78.0949,10.9374,78.0949,10.9374]},{"type":"Feature","geometry":{"type":"Point","coordinates":[78.1442,10.9387]},"properties":{"district":"Karur","taluk":"Karur (Tk)","village":"Puliyur","name":"Puliyur","area_type":"Urban","shop_code":"12AP014PY","search_string":"  karur (tk) karur "},"bbox":[78.1442,10.9387,78.1442,10.9387]},{"type":"Feature","geometry":{"type":"Point","coordinates":[78.0904,10.9388]},"properties":{"district":"Karur","taluk":"Karur (Tk)","village":"Thanthoni","name":"Thanthoni - 3","area_type":"Urban","shop_code":"12AC055PN","search_string":"  karur (tk) karur "},"bbox":[78.0904,10.9388,78.0904,10.9388]},{"type":"Feature","geometry":{"type":"Point","coordinates":[78.1243,10.9399]},"properties":{"district":"Karur","taluk":"Karur (Tk)","village":"Vadakupalayam","name":"Vadakkupalayam","area_type":"Rural","shop_code":"12AP051P1","search_string":"  karur (tk) karur "},"bbox":[78.1243,10.9399,78.1243,10.9399]},{"type":"Feature","geometry":{"type":"Point","coordinates":[78.0896,10.9399]},"properties":{"district":"Karur","taluk":"Karur (Tk)","village":"Thanthoni","name":"Thanthoni - 5","area_type":"Urban","shop_code":"12AC064PN","search_string":"  karur (tk) karur "},"bbox":[78.0896,10.9399,78.0896,10.9399]},{"type":"Feature","geometry":{"type":"Point","coordinates":[78.0818,10.94]},"properties":{"district":"Karur","taluk":"Karur (Tk)","village":"Rayanoor","name":"Rayanoor-2","area_type":"Urban","shop_code":"12AC068PN","search_string":"  karur (tk) karur "},"bbox":[78.0818,10.94,78.0818,10.94]},{"type":"Feature","geometry":{"type":"Point","coordinates":[78.0819,10.9401]},"properties":{"district":"Karur","taluk":"Karur (Tk)","village":"Rayanoor","name":"Rayanoor-1","area_type":"Urban","shop_code":"12AC044PN","search_string":"  karur (tk) karur "},"bbox":[78.0819,10.9401,78.0819,10.9401]},{"type":"Feature","geometry":{"type":"Point","coordinates":[78.0955,10.9408]},"properties":{"district":"Karur","taluk":"Karur (Tk)","village":"Ganapathipalayam","name":"Ganapathipalayam North","area_type":"Urban","shop_code":"12AC065PN","search_string":"  karur (tk) karur "},"bbox":[78.0955,10.9408,78.0955,10.9408]},{"type":"Feature","geometry":{"type":"Point","coordinates":[78.0726,10.9418]},"properties":{"district":"Karur","taluk":"Karur (Tk)","village":"Sellandipalayam","name":"Sellandipalayam -1","area_type":"Urban","shop_code":"12AP085PN","search_string":"  karur (tk) karur "},"bbox":[78.0726,10.9418,78.0726,10.9418]},{"type":"Feature","geometry":{"type":"Point","coordinates":[78.1033,10.942]},"properties":{"district":"Karur","taluk":"Karur (Tk)","village":"Indra Nagar","name":"Gandhigramam south-3","area_type":"Urban","shop_code":"12AP113PN","search_string":"  karur (tk) karur "},"bbox":[78.1033,10.942,78.1033,10.942]},{"type":"Feature","geometry":{"type":"Point","coordinates":[78.1461,10.9439]},"properties":{"district":"Karur","taluk":"Karur (Tk)","village":"Puliyur","name":"Puravipalayam","area_type":"Urban","shop_code":"12AC045PN","search_string":"  karur (tk) karur "},"bbox":[78.1461,10.9439,78.1461,10.9439]},{"type":"Feature","geometry":{"type":"Point","coordinates":[78.1045,10.9442]},"properties":{"district":"Karur","taluk":"Karur (Tk)","village":"Gandhigramam South","name":"Gandhigramam south -1","area_type":"Urban","shop_code":"12AP092PN","search_string":"  karur (tk) karur "},"bbox":[78.1045,10.9442,78.1045,10.9442]},{"type":"Feature","geometry":{"type":"Point","coordinates":[78.0731,10.9444]},"properties":{"district":"Karur","taluk":"Karur (Tk)","village":"Sellandipalayam","name":"Sellandipalayam -2","area_type":"Urban","shop_code":"12AP116PN","search_string":"  karur (tk) karur "},"bbox":[78.0731,10.9444,78.0731,10.9444]},{"type":"Feature","geometry":{"type":"Point","coordinates":[78.092,10.9482]},"properties":{"district":"Karur","taluk":"Karur (Tk)","village":"Karuppagoundan Pudhur","name":"Karuppagoundan pudhur","area_type":"Urban","shop_code":"12AP111PN","search_string":"  karur (tk) karur "},"bbox":[78.092,10.9482,78.092,10.9482]},{"type":"Feature","geometry":{"type":"Point","coordinates":[78.1012,10.9494]},"properties":{"district":"Karur","taluk":"Karur (Tk)","village":"Mariyamman Kovil Street","name":"Gandhigramam south -2","area_type":"Urban","shop_code":"12AP109PN","search_string":"  karur (tk) karur "},"bbox":[78.1012,10.9494,78.1012,10.9494]},{"type":"Feature","geometry":{"type":"Point","coordinates":[78.0813,10.9502]},"properties":{"district":"Karur","taluk":"Karur (Tk)","village":"Thiruma Nilaiyur","name":"Thiruma Nilaiyur","area_type":"Urban","shop_code":"12AC015PN","search_string":"  karur (tk) karur "},"bbox":[78.0813,10.9502,78.0813,10.9502]},{"type":"Feature","geometry":{"type":"Point","coordinates":[78.1112,10.9505]},"properties":{"district":"Karur","taluk":"Karur (Tk)","village":"Narikkattiyur","name":"Narikkattiyur","area_type":"Urban","shop_code":"12AP115PN","search_string":"  karur (tk) karur "},"bbox":[78.1112,10.9505,78.1112,10.9505]},{"type":"Feature","geometry":{"type":"Point","coordinates":[78.0874,10.9511]},"properties":{"district":"Karur","taluk":"Karur (Tk)","village":"Sungagate","name":"Sungagate","area_type":"Urban","shop_code":"12AC035PN","search_string":"  karur (tk) karur "},"bbox":[78.0874,10.9511,78.0874,10.9511]},{"type":"Feature","geometry":{"type":"Point","coordinates":[78.0973,10.9519]},"properties":{"district":"Karur","taluk":"Karur (Tk)","village":"Kolanthanur","name":"Kolanthanur","area_type":"Urban","shop_code":"12AC016PN","search_string":"  karur (tk) karur "},"bbox":[78.0973,10.9519,78.0973,10.9519]},{"type":"Feature","geometry":{"type":"Point","coordinates":[78.0804,10.9545]},"properties":{"district":"Karur","taluk":"Karur (Tk)","village":"Evr Salai","name":"EVR SALAI","area_type":"Urban","shop_code":"12AC006PN","search_string":"  karur (tk) karur "},"bbox":[78.0804,10.9545,78.0804,10.9545]},{"type":"Feature","geometry":{"type":"Point","coordinates":[78.0803,10.9547]},"properties":{"district":"Karur","taluk":"Karur (Tk)","village":"Narasimmapuram North","name":"Narasimmapuram Middle Street","area_type":"Urban","shop_code":"12AC031PN","search_string":"  karur (tk) karur "},"bbox":[78.0803,10.9547,78.0803,10.9547]},{"type":"Feature","geometry":{"type":"Point","coordinates":[78.0767,10.9548]},"properties":{"district":"Karur","taluk":"Karur (Tk)","village":"Pasupathi Lew Out","name":"Gandhi Nagar-2","area_type":"Urban","shop_code":"12AC026PN","search_string":"  karur (tk) karur "},"bbox":[78.0767,10.9548,78.0767,10.9548]},{"type":"Feature","geometry":{"type":"Point","coordinates":[78.1056,10.9548]},"properties":{"district":"Karur","taluk":"Karur (Tk)","village":"Eb Colny","name":"Gadhigramam North -2","area_type":"Urban","shop_code":"12AP110PN","search_string":"  karur (tk) karur "},"bbox":[78.1056,10.9548,78.1056,10.9548]},{"type":"Feature","geometry":{"type":"Point","coordinates":[78.0996,10.9553]},"properties":{"district":"Karur","taluk":"Karur (Tk)","village":"Raja Nagar","name":"Gandhigramam north -1","area_type":"Urban","shop_code":"12AP093PN","search_string":"  karur (tk) karur "},"bbox":[78.0996,10.9553,78.0996,10.9553]},{"type":"Feature","geometry":{"type":"Point","coordinates":[78.116,10.9566]},"properties":{"district":"Karur","taluk":"Karur (Tk)","village":"Sanappiratti","name":"Sanappiratti","area_type":"Urban","shop_code":"12AP053PN","search_string":"  karur (tk) karur "},"bbox":[78.116,10.9566,78.116,10.9566]},{"type":"Feature","geometry":{"type":"Point","coordinates":[78.0839,10.9567]},"properties":{"district":"Karur","taluk":"Karur (Tk)","village":"Vanjiyamman Kovil Street","name":"Vanjiyamman Kovil Street","area_type":"Urban","shop_code":"12AC033PN","search_string":"  karur (tk) karur "},"bbox":[78.0839,10.9567,78.0839,10.9567]},{"type":"Feature","geometry":{"type":"Point","coordinates":[78.1133,10.9568]},"properties":{"district":"Karur","taluk":"Karur (Tk)","village":"Thozhilpettai","name":"Thozhilpettai","area_type":"Urban","shop_code":"12AP054PN","search_string":"  karur (tk) karur "},"bbox":[78.1133,10.9568,78.1133,10.9568]},{"type":"Feature","geometry":{"type":"Point","coordinates":[78.0757,10.957]},"properties":{"district":"Karur","taluk":"Karur (Tk)","village":"Gandhi Nagar Main Road","name":"Gandhi Nagar-1","area_type":"Urban","shop_code":"12AC004PN","search_string":"  karur (tk) karur "},"bbox":[78.0757,10.957,78.0757,10.957]},{"type":"Feature","geometry":{"type":"Point","coordinates":[78.083,10.9572]},"properties":{"district":"Karur","taluk":"Karur (Tk)","village":"Srinivasapuram","name":"Lighthouse Corner","area_type":"Urban","shop_code":"12AC034PN","search_string":"  karur (tk) karur "},"bbox":[78.083,10.9572,78.083,10.9572]},{"type":"Feature","geometry":{"type":"Point","coordinates":[78.0702,10.9575]},"properties":{"district":"Karur","taluk":"Karur (Tk)","village":"Anna Nagar","name":"Amutham","area_type":"Urban","shop_code":"12AA001PN","search_string":"  karur (tk) karur "},"bbox":[78.0702,10.9575,78.0702,10.9575]},{"type":"Feature","geometry":{"type":"Point","coordinates":[78.078,10.9579]},"properties":{"district":"Karur","taluk":"Karur (Tk)","village":"Palaya Busstand","name":"Palaya Bus Stand","area_type":"Urban","shop_code":"12AC003PN","search_string":"  karur (tk) karur "},"bbox":[78.078,10.9579,78.078,10.9579]},{"type":"Feature","geometry":{"type":"Point","coordinates":[78.0799,10.958]},"properties":{"district":"Karur","taluk":"Karur (Tk)","village":"Narasimmapuram North","name":"Narasimmapuram North","area_type":"Urban","shop_code":"12AC032PN","search_string":"  karur (tk) karur "},"bbox":[78.0799,10.958,78.0799,10.958]},{"type":"Feature","geometry":{"type":"Point","coordinates":[78.0846,10.9594]},"properties":{"district":"Karur","taluk":"Karur (Tk)","village":"Mettu Street","name":"Mettu Theru  -2","area_type":"Urban","shop_code":"12AC061PN","search_string":"  karur (tk) karur "},"bbox":[78.0846,10.9594,78.0846,10.9594]},{"type":"Feature","geometry":{"type":"Point","coordinates":[78.0646,10.9594]},"properties":{"district":"Karur","taluk":"Karur (Tk)","village":"L G B Nagar","name":"L.G.B Nagar","area_type":"Urban","shop_code":"12AC048PN","search_string":"  karur (tk) karur "},"bbox":[78.0646,10.9594,78.0646,10.9594]},{"type":"Feature","geometry":{"type":"Point","coordinates":[78.0869,10.9594]},"properties":{"district":"Karur","taluk":"Karur (Tk)","village":"Mavadiyan Kovil Street","name":"Mavadiyankovil Theru  -2","area_type":"Urban","shop_code":"12AC062PN","search_string":"  karur (tk) karur "},"bbox":[78.0869,10.9594,78.0869,10.9594]},{"type":"Feature","geometry":{"type":"Point","coordinates":[78.0991,10.9595]},"properties":{"district":"Karur","taluk":"Karur (Tk)","village":"Kamaraj Nagar","name":"Kamaraj Nagar Pasuvai","area_type":"Urban","shop_code":"12AC036PN","search_string":"  karur (tk) karur "},"bbox":[78.0991,10.9595,78.0991,10.9595]},{"type":"Feature","geometry":{"type":"Point","coordinates":[78.077,10.9597]},"properties":{"district":"Karur","taluk":"Karur (Tk)","village":"Annamalai Santhu","name":"Annamalai Santhu","area_type":"Urban","shop_code":"12AC002PN","search_string":"  karur (tk) karur "},"bbox":[78.077,10.9597,78.077,10.9597]},{"type":"Feature","geometry":{"type":"Point","coordinates":[78.0848,10.9598]},"properties":{"district":"Karur","taluk":"Karur (Tk)","village":"Mettu Street","name":"Mettu Street -1","area_type":"Urban","shop_code":"12AC008PN","search_string":"  karur (tk) karur "},"bbox":[78.0848,10.9598,78.0848,10.9598]},{"type":"Feature","geometry":{"type":"Point","coordinates":[78.071,10.9598]},"properties":{"district":"Karur","taluk":"Karur (Tk)","village":"Anna Nagar","name":"Anna Nagar -2","area_type":"Urban","shop_code":"12AC025PN","search_string":"  karur (tk) karur "},"bbox":[78.071,10.9598,78.071,10.9598]},{"type":"Feature","geometry":{"type":"Point","coordinates":[78.0769,10.9598]},"properties":{"district":"Karur","taluk":"Karur (Tk)","village":"Annamalai Santhu","name":"Puthu kacheriveethi","area_type":"Urban","shop_code":"12AC001PN","search_string":"  karur (tk) karur "},"bbox":[78.0769,10.9598,78.0769,10.9598]},{"type":"Feature","geometry":{"type":"Point","coordinates":[78.0994,10.9605]},"properties":{"district":"Karur","taluk":"Karur (Tk)","village":"Arunachala Nagar","name":"Arunachala Nagar -1","area_type":"Urban","shop_code":"12AC013PN","search_string":"  karur (tk) karur "},"bbox":[78.0994,10.9605,78.0994,10.9605]},{"type":"Feature","geometry":{"type":"Point","coordinates":[78.1008,10.9607]},"properties":{"district":"Karur","taluk":"Karur (Tk)","village":"Arunachala Nagar","name":"Arunachala Nagar  -2","area_type":"Urban","shop_code":"12AC063PN","search_string":"  karur (tk) karur "},"bbox":[78.1008,10.9607,78.1008,10.9607]},{"type":"Feature","geometry":{"type":"Point","coordinates":[78.1273,10.961]},"properties":{"district":"Karur","taluk":"Karur (Tk)","village":"Melappalayam","name":"Melappalayam","area_type":"Rural","shop_code":"12AP051PY","search_string":"  karur (tk) karur "},"bbox":[78.1273,10.961,78.1273,10.961]},{"type":"Feature","geometry":{"type":"Point","coordinates":[78.089,10.9615]},"properties":{"district":"Karur","taluk":"Karur (Tk)","village":"Voc Street","name":"Five Road","area_type":"Urban","shop_code":"12AC011PN","search_string":"  karur (tk) karur "},"bbox":[78.089,10.9615,78.089,10.9615]},{"type":"Feature","geometry":{"type":"Point","coordinates":[78.089,10.9615]},"properties":{"district":"Karur","taluk":"Karur (Tk)","village":"Ranimangammal Street","name":"V.O.C  Street","area_type":"Urban","shop_code":"12AC030PN","search_string":"  karur (tk) karur "},"bbox":[78.089,10.9615,78.089,10.9615]},{"type":"Feature","geometry":{"type":"Point","coordinates":[78.088,10.9615]},"properties":{"district":"Karur","taluk":"Karur (Tk)","village":"Mavadiyan Kovil Street","name":"Mavadiyan Kovil Street -1","area_type":"Urban","shop_code":"12AC009PN","search_string":"  karur (tk) karur "},"bbox":[78.088,10.9615,78.088,10.9615]},{"type":"Feature","geometry":{"type":"Point","coordinates":[78.0828,10.9615]},"properties":{"district":"Karur","taluk":"Karur (Tk)","village":"Ramakrishnapuram","name":"Kottaiyanan Thoppu  -2","area_type":"Urban","shop_code":"12AC060PN","search_string":"  karur (tk) karur "},"bbox":[78.0828,10.9615,78.0828,10.9615]},{"type":"Feature","geometry":{"type":"Point","coordinates":[78.0722,10.9619]},"properties":{"district":"Karur","taluk":"Karur (Tk)","village":"Sengunthapuarm","name":"KamachiAmman Kovil Street-1","area_type":"Urban","shop_code":"12AC028PN","search_string":"  karur (tk) karur "},"bbox":[78.0722,10.9619,78.0722,10.9619]},{"type":"Feature","geometry":{"type":"Point","coordinates":[78.0991,10.9622]},"properties":{"district":"Karur","taluk":"Karur (Tk)","village":"Pasuvai South","name":"Pasuvai South","area_type":"Urban","shop_code":"12AC014PN","search_string":"  karur (tk) karur "},"bbox":[78.0991,10.9622,78.0991,10.9622]},{"type":"Feature","geometry":{"type":"Point","coordinates":[78.0711,10.9622]},"properties":{"district":"Karur","taluk":"Karur (Tk)","village":"Palaniyappa Street","name":"Palaniyappa Street","area_type":"Urban","shop_code":"12AC012PN","search_string":"  karur (tk) karur "},"bbox":[78.0711,10.9622,78.0711,10.9622]},{"type":"Feature","geometry":{"type":"Point","coordinates":[78.0871,10.9633]},"properties":{"district":"Karur","taluk":"Karur (Tk)","village":"Ther Veethi","name":"Aalamara Street","area_type":"Urban","shop_code":"12AC010PN","search_string":"  karur (tk) karur "},"bbox":[78.0871,10.9633,78.0871,10.9633]},{"type":"Feature","geometry":{"type":"Point","coordinates":[78.0605,10.9634]},"properties":{"district":"Karur","taluk":"Karur (Tk)","village":"Thirukkampuliyur","name":"Thirukkampuliyur","area_type":"Urban","shop_code":"12AC043PN","search_string":"  karur (tk) karur "},"bbox":[78.0605,10.9634,78.0605,10.9634]},{"type":"Feature","geometry":{"type":"Point","coordinates":[78.087,10.9634]},"properties":{"district":"Karur","taluk":"Karur (Tk)","village":"Ther Veethi","name":"Ther Veethi","area_type":"Urban","shop_code":"12AC005PN","search_string":"  karur (tk) karur "},"bbox":[78.087,10.9634,78.087,10.9634]},{"type":"Feature","geometry":{"type":"Point","coordinates":[78.0672,10.9636]},"properties":{"district":"Karur","taluk":"Karur (Tk)","village":"Vaiyapuri Nagar","name":"Vaiyapuri Nagar-1","area_type":"Urban","shop_code":"12AC023PN","search_string":"  karur (tk) karur "},"bbox":[78.0672,10.9636,78.0672,10.9636]},{"type":"Feature","geometry":{"type":"Point","coordinates":[78.0837,10.9637]},"properties":{"district":"Karur","taluk":"Karur (Tk)","village":"Kottaiyannan Thoppu","name":"Kottaiyannan Thoppu-1","area_type":"Urban","shop_code":"12AC007PN","search_string":"  karur (tk) karur "},"bbox":[78.0837,10.9637,78.0837,10.9637]},{"type":"Feature","geometry":{"type":"Point","coordinates":[78.097,10.9638]},"properties":{"district":"Karur","taluk":"Karur (Tk)","village":"Pasuvai North","name":"Pasuvai North-1","area_type":"Urban","shop_code":"12AC027PN","search_string":"  karur (tk) karur "},"bbox":[78.097,10.9638,78.097,10.9638]},{"type":"Feature","geometry":{"type":"Point","coordinates":[78.076,10.9642]},"properties":{"district":"Karur","taluk":"Karur (Tk)","village":"North Prathatchanam Road","name":"KamachiAmman Kovil Street-2","area_type":"Urban","shop_code":"12AC029PN","search_string":"  karur (tk) karur "},"bbox":[78.076,10.9642,78.076,10.9642]},{"type":"Feature","geometry":{"type":"Point","coordinates":[78.0703,10.9644]},"properties":{"district":"Karur","taluk":"Karur (Tk)","village":"Vaiyapuri Nagar","name":"Vaiyapuri Nagar-2","area_type":"Urban","shop_code":"12AC024PN","search_string":"  karur (tk) karur "},"bbox":[78.0703,10.9644,78.0703,10.9644]},{"type":"Feature","geometry":{"type":"Point","coordinates":[78.0984,10.9651]},"properties":{"district":"Karur","taluk":"Karur (Tk)","village":"Pasuvai North","name":"Pasuvai North-2","area_type":"Urban","shop_code":"12AC067PN","search_string":"  karur (tk) karur "},"bbox":[78.0984,10.9651,78.0984,10.9651]},{"type":"Feature","geometry":{"type":"Point","coordinates":[78.0537,10.9656]},"properties":{"district":"Karur","taluk":"Karur (Tk)","village":"Velusamypuram Main Road","name":"Velusamypuram-1","area_type":"Urban","shop_code":"12AC022PN","search_string":"  karur (tk) karur "},"bbox":[78.0537,10.9656,78.0537,10.9656]},{"type":"Feature","geometry":{"type":"Point","coordinates":[78.0507,10.9684]},"properties":{"district":"Karur","taluk":"Karur (Tk)","village":"Thiruvalluvar Nagar","name":"Velusamypuram-2","area_type":"Urban","shop_code":"12AC042PN","search_string":"  karur (tk) karur "},"bbox":[78.0507,10.9684,78.0507,10.9684]},{"type":"Feature","geometry":{"type":"Point","coordinates":[78.0667,10.971]},"properties":{"district":"Karur","taluk":"Karur (Tk)","village":"Periyakulathupalayam","name":"Periyakulathupalayam","area_type":"Urban","shop_code":"12AC066PN","search_string":"  karur (tk) karur "},"bbox":[78.0667,10.971,78.0667,10.971]},{"type":"Feature","geometry":{"type":"Point","coordinates":[78.0761,10.9716]},"properties":{"district":"Karur","taluk":"Karur (Tk)","village":"Pudhukulathupalayam","name":"Pudhukulathupalayam-1","area_type":"Urban","shop_code":"12AC040PN","search_string":"  karur (tk) karur "},"bbox":[78.0761,10.9716,78.0761,10.9716]},{"type":"Feature","geometry":{"type":"Point","coordinates":[78.0782,10.9723]},"properties":{"district":"Karur","taluk":"Karur (Tk)","village":"Nsk Nagar","name":"Vengamedu-3","area_type":"Urban","shop_code":"12AC019PN","search_string":"  karur (tk) karur "},"bbox":[78.0782,10.9723,78.0782,10.9723]},{"type":"Feature","geometry":{"type":"Point","coordinates":[78.0777,10.9726]},"properties":{"district":"Karur","taluk":"Karur (Tk)","village":"Pudhukulathupalayam","name":"Vengamedu-4","area_type":"Urban","shop_code":"12AC020PN","search_string":"  karur (tk) karur "},"bbox":[78.0777,10.9726,78.0777,10.9726]},{"type":"Feature","geometry":{"type":"Point","coordinates":[78.0705,10.9728]},"properties":{"district":"Karur","taluk":"Karur (Tk)","village":"Chinnakulathupalayam","name":"Chinnakulathupalayam","area_type":"Urban","shop_code":"12AC021PN","search_string":"  karur (tk) karur "},"bbox":[78.0705,10.9728,78.0705,10.9728]},{"type":"Feature","geometry":{"type":"Point","coordinates":[78.0794,10.9761]},"properties":{"district":"Karur","taluk":"Karur (Tk)","village":"Old Post Office Street","name":"Vengamedu-6","area_type":"Urban","shop_code":"12AC038PN","search_string":"  karur (tk) karur "},"bbox":[78.0794,10.9761,78.0794,10.9761]},{"type":"Feature","geometry":{"type":"Point","coordinates":[78.0768,10.9763]},"properties":{"district":"Karur","taluk":"Karur (Tk)","village":"Sivanantha Street","name":"Pudhukulathupalayam-2","area_type":"Urban","shop_code":"12AC041PN","search_string":"  karur (tk) karur "},"bbox":[78.0768,10.9763,78.0768,10.9763]},{"type":"Feature","geometry":{"type":"Point","coordinates":[78.0728,10.9765]},"properties":{"district":"Karur","taluk":"Karur (Tk)","village":"Thirumalai Street","name":"Vemgamedu - 8","area_type":"Urban","shop_code":"12AC058PN","search_string":"  karur (tk) karur "},"bbox":[78.0728,10.9765,78.0728,10.9765]},{"type":"Feature","geometry":{"type":"Point","coordinates":[78.0766,10.9774]},"properties":{"district":"Karur","taluk":"Karur (Tk)","village":"Kamatchiamman Street","name":"Vengamedu-7","area_type":"Urban","shop_code":"12AC039PN","search_string":"  karur (tk) karur "},"bbox":[78.0766,10.9774,78.0766,10.9774]},{"type":"Feature","geometry":{"type":"Point","coordinates":[78.0746,10.979]},"properties":{"district":"Karur","taluk":"Karur (Tk)","village":"Kumarappagoundar Street","name":"Vengamedu-1","area_type":"Urban","shop_code":"12AC017PN","search_string":"  karur (tk) karur "},"bbox":[78.0746,10.979,78.0746,10.979]},{"type":"Feature","geometry":{"type":"Point","coordinates":[78.0731,10.9792]},"properties":{"district":"Karur","taluk":"Karur (Tk)","village":"Kumarappagoundar Street","name":"Vengamedu-2","area_type":"Urban","shop_code":"12AC018PN","search_string":"  karur (tk) karur "},"bbox":[78.0731,10.9792,78.0731,10.9792]},{"type":"Feature","geometry":{"type":"Point","coordinates":[78.0817,10.9811]},"properties":{"district":"Karur","taluk":"Karur (Tk)","village":"Kongu Nagar","name":"Vengamedu -9","area_type":"Urban","shop_code":"12AC059PN","search_string":"  karur (tk) karur "},"bbox":[78.0817,10.9811,78.0817,10.9811]},{"type":"Feature","geometry":{"type":"Point","coordinates":[78.0764,10.9848]},"properties":{"district":"Karur","taluk":"Karur (Tk)","village":"Vangappalayam","name":"Vengamedu-5","area_type":"Urban","shop_code":"12AC037PN","search_string":"  karur (tk) karur "},"bbox":[78.0764,10.9848,78.0764,10.9848]},{"type":"Feature","geometry":{"type":"Point","coordinates":[78.3266,10.7815]},"properties":{"district":"Karur","taluk":"Krishnarayapuram (Tk)","village":"Pothuravuthambatti","name":"Muthambatty Kuditheru","area_type":"Rural","shop_code":"12DP026PN","search_string":"  krishnarayapuram (tk) karur "},"bbox":[78.3266,10.7815,78.3266,10.7815]},{"type":"Feature","geometry":{"type":"Point","coordinates":[78.2265,10.8069]},"properties":{"district":"Karur","taluk":"Krishnarayapuram (Tk)","village":"Muthurangampatti","name":"Muthurangampatty","area_type":"Rural","shop_code":"12DP031PN","search_string":"  krishnarayapuram (tk) karur "},"bbox":[78.2265,10.8069,78.2265,10.8069]},{"type":"Feature","geometry":{"type":"Point","coordinates":[78.3873,10.81]},"properties":{"district":"Karur","taluk":"Krishnarayapuram (Tk)","village":"Sivayam (S)","name":"Desiyamangalam","area_type":"Rural","shop_code":"12DP050PN","search_string":"  krishnarayapuram (tk) karur "},"bbox":[78.3873,10.81,78.3873,10.81]},{"type":"Feature","geometry":{"type":"Point","coordinates":[78.356,10.8268]},"properties":{"district":"Karur","taluk":"Krishnarayapuram (Tk)","village":"Pappakkappatti","name":"Kanakkapillayur kuditheru","area_type":"Rural","shop_code":"12DP020PN","search_string":"  krishnarayapuram (tk) karur "},"bbox":[78.356,10.8268,78.356,10.8268]},{"type":"Feature","geometry":{"type":"Point","coordinates":[78.3727,10.829]},"properties":{"district":"Karur","taluk":"Krishnarayapuram (Tk)","village":"Pappakkappatti","name":"Alamarathupatty","area_type":"Rural","shop_code":"12DP051PN","search_string":"  krishnarayapuram (tk) karur "},"bbox":[78.3727,10.829,78.3727,10.829]},{"type":"Feature","geometry":{"type":"Point","coordinates":[78.3054,10.8308]},"properties":{"district":"Karur","taluk":"Krishnarayapuram (Tk)","village":"Panchapatti","name":"Panchapatty natham kuditruppu","area_type":"Rural","shop_code":"12DP022PN","search_string":"  krishnarayapuram (tk) karur "},"bbox":[78.3054,10.8308,78.3054,10.8308]},{"type":"Feature","geometry":{"type":"Point","coordinates":[78.3055,10.8311]},"properties":{"district":"Karur","taluk":"Krishnarayapuram (Tk)","village":"Panchapatti","name":"Keelapanjapatty","area_type":"Rural","shop_code":"12DP065PN","search_string":"  krishnarayapuram (tk) karur "},"bbox":[78.3055,10.8311,78.3055,10.8311]},{"type":"Feature","geometry":{"type":"Point","coordinates":[78.3318,10.835]},"properties":{"district":"Karur","taluk":"Krishnarayapuram (Tk)","village":"Pothuravuthambatti","name":"Pothuravuthambatti","area_type":"Rural","shop_code":"12DP025PN","search_string":"  krishnarayapuram (tk) karur "},"bbox":[78.3318,10.835,78.3318,10.835]},{"type":"Feature","geometry":{"type":"Point","coordinates":[78.3873,10.8421]},"properties":{"district":"Karur","taluk":"Krishnarayapuram (Tk)","village":"Sivayam (N)","name":"Kuppachipatti","area_type":"Rural","shop_code":"12DP017P1","search_string":"  krishnarayapuram (tk) karur "},"bbox":[78.3873,10.8421,78.3873,10.8421]},{"type":"Feature","geometry":{"type":"Point","coordinates":[78.4115,10.8427]},"properties":{"district":"Karur","taluk":"Krishnarayapuram (Tk)","village":"Sivayam (S)","name":"Veppangudinatham Kudiyiruppu","area_type":"Rural","shop_code":"12DP018PY","search_string":"  krishnarayapuram (tk) karur "},"bbox":[78.4115,10.8427,78.4115,10.8427]},{"type":"Feature","geometry":{"type":"Point","coordinates":[78.2147,10.8458]},"properties":{"district":"Karur","taluk":"Krishnarayapuram (Tk)","village":"Sengal","name":"Manikkapuram","area_type":"Rural","shop_code":"12DP054PN","search_string":"  krishnarayapuram (tk) karur "},"bbox":[78.2147,10.8458,78.2147,10.8458]},{"type":"Feature","geometry":{"type":"Point","coordinates":[78.3717,10.8489]},"properties":{"district":"Karur","taluk":"Krishnarayapuram (Tk)","village":"Pappakkappatti","name":"Pappakkapatty kaspa panchapatty salai","area_type":"Rural","shop_code":"12DP019PN","search_string":"  krishnarayapuram (tk) karur "},"bbox":[78.3717,10.8489,78.3717,10.8489]},{"type":"Feature","geometry":{"type":"Point","coordinates":[78.2897,10.8509]},"properties":{"district":"Karur","taluk":"Krishnarayapuram (Tk)","village":"Veeriyapalayam","name":"Kannamuthampatti palli","area_type":"Rural","shop_code":"12DP024PN","search_string":"  krishnarayapuram (tk) karur "},"bbox":[78.2897,10.8509,78.2897,10.8509]},{"type":"Feature","geometry":{"type":"Point","coordinates":[78.2341,10.8541]},"properties":{"district":"Karur","taluk":"Krishnarayapuram (Tk)","village":"Sengal","name":"Kiladai","area_type":"Rural","shop_code":"12DP053PN","search_string":"  krishnarayapuram (tk) karur "},"bbox":[78.2341,10.8541,78.2341,10.8541]},{"type":"Feature","geometry":{"type":"Point","coordinates":[78.3403,10.8563]},"properties":{"district":"Karur","taluk":"Krishnarayapuram (Tk)","village":"Vayalur","name":"Devasingampatty","area_type":"Rural","shop_code":"12DP052PN","search_string":"  krishnarayapuram (tk) karur "},"bbox":[78.3403,10.8563,78.3403,10.8563]},{"type":"Feature","geometry":{"type":"Point","coordinates":[78.3844,10.8582]},"properties":{"district":"Karur","taluk":"Krishnarayapuram (Tk)","village":"Sivayam (N)","name":"Irumbuthpatty Salai","area_type":"Rural","shop_code":"12DP017PY","search_string":"  krishnarayapuram (tk) karur "},"bbox":[78.3844,10.8582,78.3844,10.8582]},{"type":"Feature","geometry":{"type":"Point","coordinates":[78.4215,10.8591]},"properties":{"district":"Karur","taluk":"Krishnarayapuram (Tk)","village":"Sivayam (S)","name":"Eachampatti","area_type":"Rural","shop_code":"12DP018P1","search_string":"  krishnarayapuram (tk) karur "},"bbox":[78.4215,10.8591,78.4215,10.8591]},{"type":"Feature","geometry":{"type":"Point","coordinates":[78.3543,10.8596]},"properties":{"district":"Karur","taluk":"Krishnarayapuram (Tk)","village":"Vayalur","name":"Pambanpatty","area_type":"Rural","shop_code":"12DP021P2","search_string":"  krishnarayapuram (tk) karur "},"bbox":[78.3543,10.8596,78.3543,10.8596]},{"type":"Feature","geometry":{"type":"Point","coordinates":[78.3692,10.8597]},"properties":{"district":"Karur","taluk":"Krishnarayapuram (Tk)","village":"Vayalur","name":"Kodankipatty","area_type":"Rural","shop_code":"12DP049PN","search_string":"  krishnarayapuram (tk) karur "},"bbox":[78.3692,10.8597,78.3692,10.8597]},{"type":"Feature","geometry":{"type":"Point","coordinates":[78.3171,10.8635]},"properties":{"district":"Karur","taluk":"Krishnarayapuram (Tk)","village":"Veeriyapalayam","name":"Komatteri Kuditheru","area_type":"Rural","shop_code":"12DP023PN","search_string":"  krishnarayapuram (tk) karur "},"bbox":[78.3171,10.8635,78.3171,10.8635]},{"type":"Feature","geometry":{"type":"Point","coordinates":[78.2486,10.8674]},"properties":{"district":"Karur","taluk":"Krishnarayapuram (Tk)","village":"Sengal","name":"Periasengal Kuditheru","area_type":"Rural","shop_code":"12DP027PN","search_string":"  krishnarayapuram (tk) karur "},"bbox":[78.2486,10.8674,78.2486,10.8674]},{"type":"Feature","geometry":{"type":"Point","coordinates":[78.3448,10.8717]},"properties":{"district":"Karur","taluk":"Krishnarayapuram (Tk)","village":"Vayalur","name":"Vayalur Kaspa Natham","area_type":"Rural","shop_code":"12DP021PY","search_string":"  krishnarayapuram (tk) karur "},"bbox":[78.3448,10.8717,78.3448,10.8717]},{"type":"Feature","geometry":{"type":"Point","coordinates":[78.357,10.8791]},"properties":{"district":"Karur","taluk":"Krishnarayapuram (Tk)","village":"Karuppathur","name":"Varagur Kuditheru","area_type":"Rural","shop_code":"12DP040PN","search_string":"  krishnarayapuram (tk) karur "},"bbox":[78.357,10.8791,78.357,10.8791]},{"type":"Feature","geometry":{"type":"Point","coordinates":[78.2173,10.8792]},"properties":{"district":"Karur","taluk":"Krishnarayapuram (Tk)","village":"Chithalavai","name":"Meladai","area_type":"Rural","shop_code":"12DP055PN","search_string":"  krishnarayapuram (tk) karur "},"bbox":[78.2173,10.8792,78.2173,10.8792]},{"type":"Feature","geometry":{"type":"Point","coordinates":[78.2657,10.8869]},"properties":{"district":"Karur","taluk":"Krishnarayapuram (Tk)","village":"P J Cholapuram","name":"Alagapuri Sengal salai","area_type":"Urban","shop_code":"12DP003PN","search_string":"  krishnarayapuram (tk) karur "},"bbox":[78.2657,10.8869,78.2657,10.8869]},{"type":"Feature","geometry":{"type":"Point","coordinates":[78.3269,10.8875]},"properties":{"district":"Karur","taluk":"Krishnarayapuram (Tk)","village":"Vayalur","name":"Kanakkampatty","area_type":"Rural","shop_code":"12DP021P1","search_string":"  krishnarayapuram (tk) karur "},"bbox":[78.3269,10.8875,78.3269,10.8875]},{"type":"Feature","geometry":{"type":"Point","coordinates":[78.3587,10.8889]},"properties":{"district":"Karur","taluk":"Krishnarayapuram (Tk)","village":"Karuppathur","name":"Mettupatty","area_type":"Rural","shop_code":"12DP059PN","search_string":"  krishnarayapuram (tk) karur "},"bbox":[78.3587,10.8889,78.3587,10.8889]},{"type":"Feature","geometry":{"type":"Point","coordinates":[78.2823,10.8922]},"properties":{"district":"Karur","taluk":"Krishnarayapuram (Tk)","village":"P J Cholapuram","name":"Lakshmanampatty","area_type":"Urban","shop_code":"12DP001P1","search_string":"  krishnarayapuram (tk) karur "},"bbox":[78.2823,10.8922,78.2823,10.8922]},{"type":"Feature","geometry":{"type":"Point","coordinates":[78.243,10.8933]},"properties":{"district":"Karur","taluk":"Krishnarayapuram (Tk)","village":"Chithalavai","name":"Munayanur Panchapatty Salai","area_type":"Rural","shop_code":"12DP028PN","search_string":"  krishnarayapuram (tk) karur "},"bbox":[78.243,10.8933,78.243,10.8933]},{"type":"Feature","geometry":{"type":"Point","coordinates":[78.337,10.8946]},"properties":{"district":"Karur","taluk":"Krishnarayapuram (Tk)","village":"Chinthalavadi","name":"Mathipatty","area_type":"Rural","shop_code":"12DP061PN","search_string":"  krishnarayapuram (tk) karur "},"bbox":[78.337,10.8946,78.337,10.8946]},{"type":"Feature","geometry":{"type":"Point","coordinates":[78.3028,10.9003]},"properties":{"district":"Karur","taluk":"Krishnarayapuram (Tk)","village":"P J Cholapuram","name":"M.Puthupatty","area_type":"Urban","shop_code":"12DP044PN","search_string":"  krishnarayapuram (tk) karur "},"bbox":[78.3028,10.9003,78.3028,10.9003]},{"type":"Feature","geometry":{"type":"Point","coordinates":[78.364,10.904]},"properties":{"district":"Karur","taluk":"Krishnarayapuram (Tk)","village":"Karuppathur","name":"Vengampatty natham Kuditheru","area_type":"Rural","shop_code":"12DP039PY","search_string":"  krishnarayapuram (tk) karur "},"bbox":[78.364,10.904,78.364,10.904]},{"type":"Feature","geometry":{"type":"Point","coordinates":[78.2821,10.9052]},"properties":{"district":"Karur","taluk":"Krishnarayapuram (Tk)","village":"P J Cholapuram","name":"Palayajeyankondam Shop","area_type":"Urban","shop_code":"12DP001PY","search_string":"  krishnarayapuram (tk) karur "},"bbox":[78.2821,10.9052,78.2821,10.9052]},{"type":"Feature","geometry":{"type":"Point","coordinates":[78.3778,10.9102]},"properties":{"district":"Karur","taluk":"Krishnarayapuram (Tk)","village":"Karuppathur","name":"Thaliyampatty","area_type":"Rural","shop_code":"12DP058PN","search_string":"  krishnarayapuram (tk) karur "},"bbox":[78.3778,10.9102,78.3778,10.9102]},{"type":"Feature","geometry":{"type":"Point","coordinates":[78.2136,10.9131]},"properties":{"district":"Karur","taluk":"Krishnarayapuram (Tk)","village":"Manavasi","name":"Nathamedu manavasi","area_type":"Rural","shop_code":"12DP047PN","search_string":"  krishnarayapuram (tk) karur "},"bbox":[78.2136,10.9131,78.2136,10.9131]},{"type":"Feature","geometry":{"type":"Point","coordinates":[78.2627,10.9143]},"properties":{"district":"Karur","taluk":"Krishnarayapuram (Tk)","village":"Krishnarayapuram","name":"Tharapurathanur","area_type":"Urban","shop_code":"12DP045P1","search_string":"  krishnarayapuram (tk) karur "},"bbox":[78.2627,10.9143,78.2627,10.9143]},{"type":"Feature","geometry":{"type":"Point","coordinates":[78.3221,10.9144]},"properties":{"district":"Karur","taluk":"Krishnarayapuram (Tk)","village":"Chinthalavadi","name":"Punavasipatti","area_type":"Rural","shop_code":"12DP042PY","search_string":"  krishnarayapuram (tk) karur "},"bbox":[78.3221,10.9144,78.3221,10.9144]},{"type":"Feature","geometry":{"type":"Point","coordinates":[78.3009,10.9156]},"properties":{"district":"Karur","taluk":"Krishnarayapuram (Tk)","village":"P J Cholapuram","name":"Kuppureddipatty","area_type":"Urban","shop_code":"12DP002PN","search_string":"  krishnarayapuram (tk) karur "},