{"type":"FeatureCollection","features":[{"type":"Feature","geometry":{"type":"Point","coordinates":[79.3003,12.8331]},"properties":{"district":"Ranipet","taluk":"Arakkonam (tk)","village":"Kavanur","name":"Narasingapuram","area_type":"Rural","shop_code":"04CP176PN","search_string":"  arakkonam (tk) ranipet "},"bbox":[79.3003,12.8331,79.3003,12.8331]},{"type":"Feature","geometry":{"type":"Point","coordinates":[79.6703,12.9622]},"properties":{"district":"Ranipet","taluk":"Arakkonam (tk)","village":"Pallur","name":"Pallur","area_type":"Rural","shop_code":"04CP128PY","search_string":"  arakkonam (tk) ranipet "},"bbox":[79.6703,12.9622,79.6703,12.9622]},{"type":"Feature","geometry":{"type":"Point","coordinates":[79.7009,12.9799]},"properties":{"district":"Ranipet","taluk":"Arakkonam (tk)","village":"Ganapathipuram","name":"Ganapathipuram","area_type":"Rural","shop_code":"04CP131PN","search_string":"  arakkonam (tk) ranipet "},"bbox":[79.7009,12.9799,79.7009,12.9799]},{"type":"Feature","geometry":{"type":"Point","coordinates":[79.6637,12.986]},"properties":{"district":"Ranipet","taluk":"Arakkonam (tk)","village":"Pallur","name":"Alapakkam","area_type":"Rural","shop_code":"04CP128P1","search_string":"  arakkonam (tk) ranipet "},"bbox":[79.6637,12.986,79.6637,12.986]},{"type":"Feature","geometry":{"type":"Point","coordinates":[79.6777,12.9862]},"properties":{"district":"Ranipet","taluk":"Arakkonam (tk)","village":"Sendamangalam","name":"Sendamangalam","area_type":"Rural","shop_code":"04CP188PN","search_string":"  arakkonam (tk) ranipet "},"bbox":[79.6777,12.9862,79.6777,12.9862]},{"type":"Feature","geometry":{"type":"Point","coordinates":[79.6814,12.9919]},"properties":{"district":"Ranipet","taluk":"Arakkonam (tk)","village":"Pinnavaram","name":"Pinnavaram","area_type":"Rural","shop_code":"04CP133PN","search_string":"  arakkonam (tk) ranipet "},"bbox":[79.6814,12.9919,79.6814,12.9919]},{"type":"Feature","geometry":{"type":"Point","coordinates":[79.6983,12.9935]},"properties":{"district":"Ranipet","taluk":"Arakkonam (tk)","village":"Chittor","name":"Chittor","area_type":"Rural","shop_code":"04CP132PN","search_string":"  arakkonam (tk) ranipet "},"bbox":[79.6983,12.9935,79.6983,12.9935]},{"type":"Feature","geometry":{"type":"Point","coordinates":[79.6633,12.9946]},"properties":{"district":"Ranipet","taluk":"Arakkonam (tk)","village":"Attupakkam","name":"Attupakkam","area_type":"Rural","shop_code":"04CP069PY","search_string":"  arakkonam (tk) ranipet "},"bbox":[79.6633,12.9946,79.6633,12.9946]},{"type":"Feature","geometry":{"type":"Point","coordinates":[79.7243,12.9989]},"properties":{"district":"Ranipet","taluk":"Arakkonam (tk)","village":"Murungai","name":"Murungai","area_type":"Rural","shop_code":"04CP055PN","search_string":"  arakkonam (tk) ranipet "},"bbox":[79.7243,12.9989,79.7243,12.9989]},{"type":"Feature","geometry":{"type":"Point","coordinates":[79.666,13.0049]},"properties":{"district":"Ranipet","taluk":"Arakkonam (tk)","village":"Manjambadi","name":"Manjambadi","area_type":"Rural","shop_code":"04CP069P1","search_string":"  arakkonam (tk) ranipet "},"bbox":[79.666,13.0049,79.666,13.0049]},{"type":"Feature","geometry":{"type":"Point","coordinates":[79.7357,13.0117]},"properties":{"district":"Ranipet","taluk":"Arakkonam (tk)","village":"Thakkolam","name":"Gandhi Nagar -Takkolam","area_type":"Urban","shop_code":"04CP165P1","search_string":"  arakkonam (tk) ranipet "},"bbox":[79.7357,13.0117,79.7357,13.0117]},{"type":"Feature","geometry":{"type":"Point","coordinates":[79.6812,13.0126]},"properties":{"district":"Ranipet","taluk":"Arakkonam (tk)","village":"Parameswaramangalam","name":"Parameswaramangalam","area_type":"Rural","shop_code":"04CP057PN","search_string":"  arakkonam (tk) ranipet "},"bbox":[79.6812,13.0126,79.6812,13.0126]},{"type":"Feature","geometry":{"type":"Point","coordinates":[79.7558,13.0148]},"properties":{"district":"Ranipet","taluk":"Arakkonam (tk)","village":"Pudukesawaram","name":"Pudukesavaram","area_type":"Rural","shop_code":"04CP054PY","search_string":"  arakkonam (tk) ranipet "},"bbox":[79.7558,13.0148,79.7558,13.0148]},{"type":"Feature","geometry":{"type":"Point","coordinates":[79.6978,13.0151]},"properties":{"district":"Ranipet","taluk":"Arakkonam (tk)","village":"Kadambanallur","name":"Kadambanallur","area_type":"Rural","shop_code":"04CP052PN","search_string":"  arakkonam (tk) ranipet "},"bbox":[79.6978,13.0151,79.6978,13.0151]},{"type":"Feature","geometry":{"type":"Point","coordinates":[79.7345,13.0154]},"properties":{"district":"Ranipet","taluk":"Arakkonam (tk)","village":"Thakkolam","name":"Thakkolam- 3","area_type":"Urban","shop_code":"04CP165PY","search_string":"  arakkonam (tk) ranipet "},"bbox":[79.7345,13.0154,79.7345,13.0154]},{"type":"Feature","geometry":{"type":"Point","coordinates":[79.727,13.0165]},"properties":{"district":"Ranipet","taluk":"Arakkonam (tk)","village":"Thakkolam","name":"Thakkolam-2","area_type":"Urban","shop_code":"04CP049PN","search_string":"  arakkonam (tk) ranipet "},"bbox":[79.727,13.0165,79.727,13.0165]},{"type":"Feature","geometry":{"type":"Point","coordinates":[79.7325,13.0169]},"properties":{"district":"Ranipet","taluk":"Arakkonam (tk)","village":"Thakkolam","name":"Thakkolam-1","area_type":"Urban","shop_code":"04CP048PN","search_string":"  arakkonam (tk) ranipet "},"bbox":[79.7325,13.0169,79.7325,13.0169]},{"type":"Feature","geometry":{"type":"Point","coordinates":[79.6667,13.0174]},"properties":{"district":"Ranipet","taluk":"Arakkonam (tk)","village":"Illupaithandalam","name":"Illupaithandalam","area_type":"Rural","shop_code":"04CP068PN","search_string":"  arakkonam (tk) ranipet "},"bbox":[79.6667,13.0174,79.6667,13.0174]},{"type":"Feature","geometry":{"type":"Point","coordinates":[79.7487,13.0209]},"properties":{"district":"Ranipet","taluk":"Arakkonam (tk)","village":"Ananthapuram","name":"Ananthpuram","area_type":"Rural","shop_code":"04CP051PN","search_string":"  arakkonam (tk) ranipet "},"bbox":[79.7487,13.0209,79.7487,13.0209]},{"type":"Feature","geometry":{"type":"Point","coordinates":[79.7008,13.0245]},"properties":{"district":"Ranipet","taluk":"Arakkonam (tk)","village":"Thirumathalampakkam","name":"Thiurmathalampakkam","area_type":"Rural","shop_code":"04CP050PN","search_string":"  arakkonam (tk) ranipet "},"bbox":[79.7008,13.0245,79.7008,13.0245]},{"type":"Feature","geometry":{"type":"Point","coordinates":[79.7734,13.0246]},"properties":{"district":"Ranipet","taluk":"Arakkonam (tk)","village":"Palaiyakesawaram","name":"Palyakesavram","area_type":"Rural","shop_code":"04CP054P1","search_string":"  arakkonam (tk) ranipet "},"bbox":[79.7734,13.0246,79.7734,13.0246]},{"type":"Feature","geometry":{"type":"Point","coordinates":[79.6799,13.025]},"properties":{"district":"Ranipet","taluk":"Arakkonam (tk)","village":"Arigalapadi","name":"Arigalapadi","area_type":"Rural","shop_code":"04CP053PY","search_string":"  arakkonam (tk) ranipet "},"bbox":[79.6799,13.025,79.6799,13.025]},{"type":"Feature","geometry":{"type":"Point","coordinates":[79.7083,13.0264]},"properties":{"district":"Ranipet","taluk":"Arakkonam (tk)","village":"Mangattucheri","name":"Mangattucheri","area_type":"Rural","shop_code":"04CP056PN","search_string":"  arakkonam (tk) ranipet "},"bbox":[79.7083,13.0264,79.7083,13.0264]},{"type":"Feature","geometry":{"type":"Point","coordinates":[79.7651,13.0323]},"properties":{"district":"Ranipet","taluk":"Arakkonam (tk)","village":"Uriyur","name":"Uriyur Kuppam","area_type":"Rural","shop_code":"04CP058P1","search_string":"  arakkonam (tk) ranipet "},"bbox":[79.7651,13.0323,79.7651,13.0323]},{"type":"Feature","geometry":{"type":"Point","coordinates":[79.6921,13.0346]},"properties":{"district":"Ranipet","taluk":"Arakkonam (tk)","village":"Arigalapadi","name":"Paliyakara Kandigai","area_type":"Rural","shop_code":"04CP053P1","search_string":"  arakkonam (tk) ranipet "},"bbox":[79.6921,13.0346,79.6921,13.0346]},{"type":"Feature","geometry":{"type":"Point","coordinates":[79.6306,13.0353]},"properties":{"district":"Ranipet","taluk":"Arakkonam (tk)","village":"Parithiputhur","name":"Parithiputhur","area_type":"Rural","shop_code":"04LP047PN","search_string":"  arakkonam (tk) ranipet "},"bbox":[79.6306,13.0353,79.6306,13.0353]},{"type":"Feature","geometry":{"type":"Point","coordinates":[79.6713,13.0388]},"properties":{"district":"Ranipet","taluk":"Arakkonam (tk)","village":"Poiyapakkam","name":"Poyapakkam","area_type":"Rural","shop_code":"04CP013PN","search_string":"  arakkonam (tk) ranipet "},"bbox":[79.6713,13.0388,79.6713,13.0388]},{"type":"Feature","geometry":{"type":"Point","coordinates":[79.7733,13.0456]},"properties":{"district":"Ranipet","taluk":"Arakkonam (tk)","village":"Uriyur","name":"Uriur","area_type":"Rural","shop_code":"04CP058PY","search_string":"  arakkonam (tk) ranipet "},"bbox":[79.7733,13.0456,79.7733,13.0456]},{"type":"Feature","geometry":{"type":"Point","coordinates":[79.6965,13.047]},"properties":{"district":"Ranipet","taluk":"Arakkonam (tk)","village":"Attur","name":"Attur","area_type":"Rural","shop_code":"04CP016PN","search_string":"  arakkonam (tk) ranipet "},"bbox":[79.6965,13.047,79.6965,13.047]},{"type":"Feature","geometry":{"type":"Point","coordinates":[79.739,13.0479]},"properties":{"district":"Ranipet","taluk":"Arakkonam (tk)","village":"Nagarikuppam","name":"Attur","area_type":"Rural","shop_code":"04CP017PN","search_string":"  arakkonam (tk) ranipet "},"bbox":[79.739,13.0479,79.739,13.0479]},{"type":"Feature","geometry":{"type":"Point","coordinates":[79.7839,13.0494]},"properties":{"district":"Ranipet","taluk":"Arakkonam (tk)","village":"Anaikattaputtur","name":"Anaikattaputtur","area_type":"Rural","shop_code":"04CP059PN","search_string":"  arakkonam (tk) ranipet "},"bbox":[79.7839,13.0494,79.7839,13.0494]},{"type":"Feature","geometry":{"type":"Point","coordinates":[79.6043,13.0521]},"properties":{"district":"Ranipet","taluk":"Arakkonam (tk)","village":"Arumbakkam","name":"Arumbakkam","area_type":"Rural","shop_code":"04LP008PN","search_string":"  arakkonam (tk) ranipet "},"bbox":[79.6043,13.0521,79.6043,13.0521]},{"type":"Feature","geometry":{"type":"Point","coordinates":[79.7161,13.0534]},"properties":{"district":"Ranipet","taluk":"Arakkonam (tk)","village":"Avinasikandigai","name":"Avinasikandigai","area_type":"Rural","shop_code":"04CP014P1","search_string":"  arakkonam (tk) ranipet "},"bbox":[79.7161,13.0534,79.7161,13.0534]},{"type":"Feature","geometry":{"type":"Point","coordinates":[79.5654,13.0542]},"properties":{"district":"Ranipet","taluk":"Arakkonam (tk)","village":"Avadampudupatu","name":"AvathampudhuPattu -Muslim Area","area_type":"Rural","shop_code":"04CP177PN","search_string":"  arakkonam (tk) ranipet "},"bbox":[79.5654,13.0542,79.5654,13.0542]},{"type":"Feature","geometry":{"type":"Point","coordinates":[79.6738,13.0551]},"properties":{"district":"Ranipet","taluk":"Arakkonam (tk)","village":"Perumuchi","name":"Perumuchi","area_type":"Rural","shop_code":"04CP012PN","search_string":"  arakkonam (tk) ranipet "},"bbox":[79.6738,13.0551,79.6738,13.0551]},{"type":"Feature","geometry":{"type":"Point","coordinates":[79.5647,13.0559]},"properties":{"district":"Ranipet","taluk":"Arakkonam (tk)","village":"Avadampudupatu","name":"Avadampudupatu","area_type":"Rural","shop_code":"04LP009PN","search_string":"  arakkonam (tk) ranipet "},"bbox":[79.5647,13.0559,79.5647,13.0559]},{"type":"Feature","geometry":{"type":"Point","coordinates":[79.7004,13.0602]},"properties":{"district":"Ranipet","taluk":"Arakkonam (tk)","village":"Cheyyur","name":"Cheyyur","area_type":"Rural","shop_code":"04CP014PY","search_string":"  arakkonam (tk) ranipet "},"bbox":[79.7004,13.0602,79.7004,13.0602]},{"type":"Feature","geometry":{"type":"Point","coordinates":[79.5584,13.062]},"properties":{"district":"Ranipet","taluk":"Arakkonam (tk)","village":"Anwarthikanpettai","name":"Anvrthikanpettai","area_type":"Rural","shop_code":"04LP007PN","search_string":"  arakkonam (tk) ranipet "},"bbox":[79.5584,13.062,79.5584,13.062]},{"type":"Feature","geometry":{"type":"Point","coordinates":[79.5831,13.064]},"properties":{"district":"Ranipet","taluk":"Arakkonam (tk)","village":"Asamandur","name":"Asamandur","area_type":"Rural","shop_code":"04CP094PN","search_string":"  arakkonam (tk) ranipet "},"bbox":[79.5831,13.064,79.5831,13.064]},{"type":"Feature","geometry":{"type":"Point","coordinates":[79.6542,13.0662]},"properties":{"district":"Ranipet","taluk":"Arakkonam (tk)","village":"Arakkonam","name":"Ammanur","area_type":"Rural","shop_code":"04CB008P1","search_string":"  arakkonam (tk) ranipet "},"bbox":[79.6542,13.0662,79.6542,13.0662]},{"type":"Feature","geometry":{"type":"Point","coordinates":[79.6456,13.0663]},"properties":{"district":"Ranipet","taluk":"Arakkonam (tk)","village":"Melpakkam","name":"Melpakkam","area_type":"Rural","shop_code":"04LP046PN","search_string":"  arakkonam (tk) ranipet "},"bbox":[79.6456,13.0663,79.6456,13.0663]},{"type":"Feature","geometry":{"type":"Point","coordinates":[79.6042,13.0673]},"properties":{"district":"Ranipet","taluk":"Arakkonam (tk)","village":"Chitheri","name":"Chitteri","area_type":"Rural","shop_code":"04LP041PY","search_string":"  arakkonam (tk) ranipet "},"bbox":[79.6042,13.0673,79.6042,13.0673]},{"type":"Feature","geometry":{"type":"Point","coordinates":[79.6728,13.0683]},"properties":{"district":"Ranipet","taluk":"Arakkonam (tk)","village":"Arakkonam","name":"Karpagam-015","area_type":"Urban","shop_code":"04CB015PN","search_string":"  arakkonam (tk) ranipet "},"bbox":[79.6728,13.0683,79.6728,13.0683]},{"type":"Feature","geometry":{"type":"Point","coordinates":[79.6629,13.0697]},"properties":{"district":"Ranipet","taluk":"Arakkonam (tk)","village":"Arakkonam","name":"Karpagam -012","area_type":"Urban","shop_code":"04CB012PN","search_string":"  arakkonam (tk) ranipet "},"bbox":[79.6629,13.0697,79.6629,13.0697]},{"type":"Feature","geometry":{"type":"Point","coordinates":[79.7234,13.0705]},"properties":{"district":"Ranipet","taluk":"Arakkonam (tk)","village":"Mosur","name":"Chinnamosur","area_type":"Rural","shop_code":"04CP046P1","search_string":"  arakkonam (tk) ranipet "},"bbox":[79.7234,13.0705,79.7234,13.0705]},{"type":"Feature","geometry":{"type":"Point","coordinates":[79.5793,13.0725]},"properties":{"district":"Ranipet","taluk":"Arakkonam (tk)","village":"Vedal","name":"Vedal","area_type":"Rural","shop_code":"04CP095PY","search_string":"  arakkonam (tk) ranipet "},"bbox":[79.5793,13.0725,79.5793,13.0725]},{"type":"Feature","geometry":{"type":"Point","coordinates":[79.5987,13.0728]},"properties":{"district":"Ranipet","taluk":"Arakkonam (tk)","village":"Chitheri","name":"Melkandikai","area_type":"Rural","shop_code":"04LP041P1","search_string":"  arakkonam (tk) ranipet "},"bbox":[79.5987,13.0728,79.5987,13.0728]},{"type":"Feature","geometry":{"type":"Point","coordinates":[79.6704,13.0742]},"properties":{"district":"Ranipet","taluk":"Arakkonam (tk)","village":"Arakkonam","name":"Karpagam -8","area_type":"Urban","shop_code":"04CB008PY","search_string":"  arakkonam (tk) ranipet "},"bbox":[79.6704,13.0742,79.6704,13.0742]},{"type":"Feature","geometry":{"type":"Point","coordinates":[79.6714,13.0743]},"properties":{"district":"Ranipet","taluk":"Arakkonam (tk)","village":"Arakkonam","name":"Karpagam-9","area_type":"Urban","shop_code":"04CB009PN","search_string":"  arakkonam (tk) ranipet "},"bbox":[79.6714,13.0743,79.6714,13.0743]},{"type":"Feature","geometry":{"type":"Point","coordinates":[79.553,13.0753]},"properties":{"district":"Ranipet","taluk":"Arakkonam (tk)","village":"Minnal","name":"Minnal-2","area_type":"Rural","shop_code":"04CP080PY","search_string":"  arakkonam (tk) ranipet "},"bbox":[79.553,13.0753,79.553,13.0753]},{"type":"Feature","geometry":{"type":"Point","coordinates":[79.5588,13.0761]},"properties":{"district":"Ranipet","taluk":"Arakkonam (tk)","village":"Minnal","name":"Minnal-1","area_type":"Rural","shop_code":"04CP079PY","search_string":"  arakkonam (tk) ranipet "},"bbox":[79.5588,13.0761,79.5588,13.0761]},{"type":"Feature","geometry":{"type":"Point","coordinates":[79.6703,13.077]},"properties":{"district":"Ranipet","taluk":"Arakkonam (tk)","village":"Arakkonam","name":"Karpagam010","area_type":"Urban","shop_code":"04CB010PN","search_string":"  arakkonam (tk) ranipet "},"bbox":[79.6703,13.077,79.6703,13.077]},{"type":"Feature","geometry":{"type":"Point","coordinates":[79.6907,13.0772]},"properties":{"district":"Ranipet","taluk":"Arakkonam (tk)","village":"Pulliyamangalam","name":"Pulliyamangalm","area_type":"Rural","shop_code":"04CP015PN","search_string":"  arakkonam (tk) ranipet "},"bbox":[79.6907,13.0772,79.6907,13.0772]},{"type":"Feature","geometry":{"type":"Point","coordinates":[79.6731,13.0775]},"properties":{"district":"Ranipet","taluk":"Arakkonam (tk)","village":"Arakkonam","name":"Karpagam-016","area_type":"Urban","shop_code":"04CB001PN","search_string":"  arakkonam (tk) ranipet "},"bbox":[79.6731,13.0775,79.6731,13.0775]},{"type":"Feature","geometry":{"type":"Point","coordinates":[79.6727,13.078]},"properties":{"district":"Ranipet","taluk":"Arakkonam (tk)","village":"Arakkonam","name":"Karpagam-7","area_type":"Urban","shop_code":"04CB007PN","search_string":"  arakkonam (tk) ranipet "},"bbox":[79.6727,13.078,79.6727,13.078]},{"type":"Feature","geometry":{"type":"Point","coordinates":[79.661,13.0781]},"properties":{"district":"Ranipet","taluk":"Arakkonam (tk)","village":"Arakkonam","name":"Karpagam -4","area_type":"Urban","shop_code":"04CB004PY","search_string":"  arakkonam (tk) ranipet "},"bbox":[79.661,13.0781,79.661,13.0781]},{"type":"Feature","geometry":{"type":"Point","coordinates":[79.6623,13.0787]},"properties":{"district":"Ranipet","taluk":"Arakkonam (tk)","village":"Arakkonam","name":"Karpagam 18","area_type":"Urban","shop_code":"04CB004P1","search_string":"  arakkonam (tk) ranipet "},"bbox":[79.6623,13.0787,79.6623,13.0787]},{"type":"Feature","geometry":{"type":"Point","coordinates":[79.6773,13.0788]},"properties":{"district":"Ranipet","taluk":"Arakkonam (tk)","village":"Arakkonam","name":"Karpagam-013","area_type":"Urban","shop_code":"04CB013PN","search_string":"  arakkonam (tk) ranipet "},"bbox":[79.6773,13.0788,79.6773,13.0788]},{"type":"Feature","geometry":{"type":"Point","coordinates":[79.5889,13.081]},"properties":{"district":"Ranipet","taluk":"Arakkonam (tk)","village":"Vedal","name":"Gandhi Nagar","area_type":"Rural","shop_code":"04CP095P1","search_string":"  arakkonam (tk) ranipet "},"bbox":[79.5889,13.081,79.5889,13.081]},{"type":"Feature","geometry":{"type":"Point","coordinates":[79.6729,13.0813]},"properties":{"district":"Ranipet","taluk":"Arakkonam (tk)","village":"Arakkonam","name":"Karpagam - 017","area_type":"Urban","shop_code":"04CB002PN","search_string":"  arakkonam (tk) ranipet "},"bbox":[79.6729,13.0813,79.6729,13.0813]},{"type":"Feature","geometry":{"type":"Point","coordinates":[79.721,13.0834]},"properties":{"district":"Ranipet","taluk":"Arakkonam (tk)","village":"Mosur","name":"Mosur","area_type":"Rural","shop_code":"04CP046PY","search_string":"  arakkonam (tk) ranipet "},"bbox":[79.721,13.0834,79.721,13.0834]},{"type":"Feature","geometry":{"type":"Point","coordinates":[79.6731,13.0846]},"properties":{"district":"Ranipet","taluk":"Arakkonam (tk)","village":"Arakkonam","name":"Karpagam-5","area_type":"Urban","shop_code":"04CB005PN","search_string":"  arakkonam (tk) ranipet "},"bbox":[79.6731,13.0846,79.6731,13.0846]},{"type":"Feature","geometry":{"type":"Point","coordinates":[79.6693,13.0856]},"properties":{"district":"Ranipet","taluk":"Arakkonam (tk)","village":"Arakkonam","name":"Karpagam-6","area_type":"Urban","shop_code":"04CB006PN","search_string":"  arakkonam (tk) ranipet "},"bbox":[79.6693,13.0856,79.6693,13.0856]},{"type":"Feature","geometry":{"type":"Point","coordinates":[79.6694,13.0857]},"properties":{"district":"Ranipet","taluk":"Arakkonam (tk)","village":"Arakkonam","name":"Karpagam-3","area_type":"Urban","shop_code":"04CB003PN","search_string":"  arakkonam (tk) ranipet "},"bbox":[79.6694,13.0857,79.6694,13.0857]},{"type":"Feature","geometry":{"type":"Point","coordinates":[79.6832,13.0857]},"properties":{"district":"Ranipet","taluk":"Arakkonam (tk)","village":"Arakkonam","name":"Tnsl","area_type":"Rural","shop_code":"04CO001PN","search_string":"  arakkonam (tk) ranipet "},"bbox":[79.6832,13.0857,79.6832,13.0857]},{"type":"Feature","geometry":{"type":"Point","coordinates":[79.668,13.0859]},"properties":{"district":"Ranipet","taluk":"Arakkonam (tk)","village":"Arakkonam","name":"Karpagam-6","area_type":"Urban","shop_code":"04CB011PN","search_string":"  arakkonam (tk) ranipet "},"bbox":[79.668,13.0859,79.668,13.0859]},{"type":"Feature","geometry":{"type":"Point","coordinates":[79.6665,13.0859]},"properties":{"district":"Ranipet","taluk":"Arakkonam (tk)","village":"Arakkonam","name":"Arakonam - Pacb 6","area_type":"Urban","shop_code":"04CP006PN","search_string":"  arakkonam (tk) ranipet "},"bbox":[79.6665,13.0859,79.6665,13.0859]},{"type":"Feature","geometry":{"type":"Point","coordinates":[79.6603,13.0867]},"properties":{"district":"Ranipet","taluk":"Arakkonam (tk)","village":"Arakkonam","name":"Arakonam -Pacb 5","area_type":"Urban","shop_code":"04CP005PN","search_string":"  arakkonam (tk) ranipet "},"bbox":[79.6603,13.0867,79.6603,13.0867]},{"type":"Feature","geometry":{"type":"Point","coordinates":[79.5685,13.0868]},"properties":{"district":"Ranipet","taluk":"Arakkonam (tk)","village":"Kailasapuram","name":"Kailasapuram","area_type":"Rural","shop_code":"04CP185PN","search_string":"  arakkonam (tk) ranipet "},"bbox":[79.5685,13.0868,79.5685,13.0868]},{"type":"Feature","geometry":{"type":"Point","coordinates":[79.66,13.0868]},"properties":{"district":"Ranipet","taluk":"Arakkonam (tk)","village":"Arakkonam","name":"Arakonam- Atcms1","area_type":"Urban","shop_code":"04CP001PN","search_string":"  arakkonam (tk) ranipet "},"bbox":[79.66,13.0868,79.66,13.0868]},{"type":"Feature","geometry":{"type":"Point","coordinates":[79.6549,13.087]},"properties":{"district":"Ranipet","taluk":"Arakkonam (tk)","village":"Arakkonam","name":"Arakonam -Pacb 9","area_type":"Urban","shop_code":"04CP009PN","search_string":"  arakkonam (tk) ranipet "},"bbox":[79.6549,13.087,79.6549,13.087]},{"type":"Feature","geometry":{"type":"Point","coordinates":[79.6623,13.0871]},"properties":{"district":"Ranipet","taluk":"Arakkonam (tk)","village":"Arakkonam","name":"Arakonam -Pacb 2","area_type":"Urban","shop_code":"04CP002PN","search_string":"  arakkonam (tk) ranipet "},"bbox":[79.6623,13.0871,79.6623,13.0871]},{"type":"Feature","geometry":{"type":"Point","coordinates":[79.6819,13.0875]},"properties":{"district":"Ranipet","taluk":"Arakkonam (tk)","village":"Arakkonam","name":"Karpagam-014","area_type":"Urban","shop_code":"04CB014PN","search_string":"  arakkonam (tk) ranipet "},"bbox":[79.6819,13.0875,79.6819,13.0875]},{"type":"Feature","geometry":{"type":"Point","coordinates":[79.6625,13.0878]},"properties":{"district":"Ranipet","taluk":"Arakkonam (tk)","village":"Arakkonam","name":"Arakonam - Pacb11","area_type":"Urban","shop_code":"04CP163PN","search_string":"  arakkonam (tk) ranipet "},"bbox":[79.6625,13.0878,79.6625,13.0878]},{"type":"Feature","geometry":{"type":"Point","coordinates":[79.7063,13.0895]},"properties":{"district":"Ranipet","taluk":"Arakkonam (tk)","village":"Ambaraishipuram","name":"Ambarishipuram","area_type":"Rural","shop_code":"04CP047PN","search_string":"  arakkonam (tk) ranipet "},"bbox":[79.7063,13.0895,79.7063,13.0895]},{"type":"Feature","geometry":{"type":"Point","coordinates":[79.5686,13.091]},"properties":{"district":"Ranipet","taluk":"Arakkonam (tk)","village":"Minnal","name":"Marankandigai","area_type":"Rural","shop_code":"04CP080P1","search_string":"  arakkonam (tk) ranipet "},"bbox":[79.5686,13.091,79.5686,13.091]},{"type":"Feature","geometry":{"type":"Point","coordinates":[79.6581,13.091]},"properties":{"district":"Ranipet","taluk":"Arakkonam (tk)","village":"Arakkonam","name":"Arakonam -Atcms 4","area_type":"Urban","shop_code":"04CP004PN","search_string":"  arakkonam (tk) ranipet "},"bbox":[79.6581,13.091,79.6581,13.091]},{"type":"Feature","geometry":{"type":"Point","coordinates":[79.6594,13.0916]},"properties":{"district":"Ranipet","taluk":"Arakkonam (tk)","village":"Paranji","name":"Jothimottur","area_type":"Rural","shop_code":"04CP083P1","search_string":"  arakkonam (tk) ranipet "},"bbox":[79.6594,13.0916,79.6594,13.0916]},{"type":"Feature","geometry":{"type":"Point","coordinates":[79.6656,13.0923]},"properties":{"district":"Ranipet","taluk":"Arakkonam (tk)","village":"Arakkonam","name":"Arakonam -Pacb 7","area_type":"Urban","shop_code":"04CP007PN","search_string":"  arakkonam (tk) ranipet "},"bbox":[79.6656,13.0923,79.6656,13.0923]},{"type":"Feature","geometry":{"type":"Point","coordinates":[79.6639,13.0925]},"properties":{"district":"Ranipet","taluk":"Arakkonam (tk)","village":"Arakkonam","name":"Arakonam-Atcms 3","area_type":"Urban","shop_code":"04CP003PN","search_string":"  arakkonam (tk) ranipet "},"bbox":[79.6639,13.0925,79.6639,13.0925]},{"type":"Feature","geometry":{"type":"Point","coordinates":[79.531,13.0932]},"properties":{"district":"Ranipet","taluk":"Arakkonam (tk)","village":"Paranji","name":"Paranji Coloney","area_type":"Rural","shop_code":"04CP083P2","search_string":"  arakkonam (tk) ranipet "},"bbox":[79.531,13.0932,79.531,13.0932]},{"type":"Feature","geometry":{"type":"Point","coordinates":[79.6572,13.0937]},"properties":{"district":"Ranipet","taluk":"Arakkonam (tk)","village":"Arakkonam","name":"Arakonam -Atcms 8","area_type":"Urban","shop_code":"04CP008PN","search_string":"  arakkonam (tk) ranipet "},"bbox":[79.6572,13.0937,79.6572,13.0937]},{"type":"Feature","geometry":{"type":"Point","coordinates":[79.5771,13.0941]},"properties":{"district":"Ranipet","taluk":"Arakkonam (tk)","village":"Minnal","name":"Mittapettai","area_type":"Rural","shop_code":"04CP079P1","search_string":"  arakkonam (tk) ranipet "},"bbox":[79.5771,13.0941,79.5771,13.0941]},{"type":"Feature","geometry":{"type":"Point","coordinates":[79.639,13.0945]},"properties":{"district":"Ranipet","taluk":"Arakkonam (tk)","village":"Kainur","name":"Kainur","area_type":"Rural","shop_code":"04CP010PN","search_string":"  arakkonam (tk) ranipet "},"bbox":[79.639,13.0945,79.639,13.0945]},{"type":"Feature","geometry":{"type":"Point","coordinates":[79.6641,13.0946]},"properties":{"district":"Ranipet","taluk":"Arakkonam (tk)","village":"Arakkonam","name":"Arakonam Pacb-10","area_type":"Urban","shop_code":"04CP162PN","search_string":"  arakkonam (tk) ranipet "},"bbox":[79.6641,13.0946,79.6641,13.0946]},{"type":"Feature","geometry":{"type":"Point","coordinates":[79.6603,13.0978]},"properties":{"district":"Ranipet","taluk":"Arakkonam (tk)","village":"Papankulam","name":"Papaankulam","area_type":"Rural","shop_code":"04CP167P1","search_string":"  arakkonam (tk) ranipet "},"bbox":[79.6603,13.0978,79.6603,13.0978]},{"type":"Feature","geometry":{"type":"Point","coordinates":[79.6112,13.0982]},"properties":{"district":"Ranipet","taluk":"Arakkonam (tk)","village":"Thandalam","name":"Thandalam","area_type":"Rural","shop_code":"04CP164PN","search_string":"  arakkonam (tk) ranipet "},"bbox":[79.6112,13.0982,79.6112,13.0982]},{"type":"Feature","geometry":{"type":"Point","coordinates":[79.5749,13.0987]},"properties":{"district":"Ranipet","taluk":"Arakkonam (tk)","village":"Perumalrajpettai","name":"Perumalrajapettai","area_type":"Rural","shop_code":"04CP025PY","search_string":"  arakkonam (tk) ranipet "},"bbox":[79.5749,13.0987,79.5749,13.0987]},{"type":"Feature","geometry":{"type":"Point","coordinates":[79.5921,13.0994]},"properties":{"district":"Ranipet","taluk":"Arakkonam (tk)","village":"Mangalapuram","name":"Mangalapuram","area_type":"Rural","shop_code":"04CP025P1","search_string":"  arakkonam (tk) ranipet "},"bbox":[79.5921,13.0994,79.5921,13.0994]},{"type":"Feature","geometry":{"type":"Point","coordinates":[79.5301,13.1]},"properties":{"district":"Ranipet","taluk":"Arakkonam (tk)","village":"Paranji","name":"Paranji","area_type":"Rural","shop_code":"04CP083PY","search_string":"  arakkonam (tk) ranipet "},"bbox":[79.5301,13.1,79.5301,13.1]},{"type":"Feature","geometry":{"type":"Point","coordinates":[79.6256,13.1028]},"properties":{"district":"Ranipet","taluk":"Arakkonam (tk)","village":"Vaniyampettai","name":"Balakrishnapuram","area_type":"Rural","shop_code":"04CP029P1","search_string":"  arakkonam (tk) ranipet "},"bbox":[79.6256,13.1028,79.6256,13.1028]},{"type":"Feature","geometry":{"type":"Point","coordinates":[79.6577,13.1059]},"properties":{"district":"Ranipet","taluk":"Arakkonam (tk)","village":"Mangammapetai","name":"Mangamapettai","area_type":"Rural","shop_code":"04CP167PY","search_string":"  arakkonam (tk) ranipet "},"bbox":[79.6577,13.1059,79.6577,13.1059]},{"type":"Feature","geometry":{"type":"Point","coordinates":[79.5892,13.1064]},"properties":{"district":"Ranipet","taluk":"Arakkonam (tk)","village":"Chithambadi","name":"Chitambadi","area_type":"Rural","shop_code":"04CP084PN","search_string":"  arakkonam (tk) ranipet "},"bbox":[79.5892,13.1064,79.5892,13.1064]},{"type":"Feature","geometry":{"type":"Point","coordinates":[79.5693,13.1067]},"properties":{"district":"Ranipet","taluk":"Arakkonam (tk)","village":"Sokanur","name":"Sokanur","area_type":"Rural","shop_code":"04CP020PN","search_string":"  arakkonam (tk) ranipet "},"bbox":[79.5693,13.1067,79.5693,13.1067]},{"type":"Feature","geometry":{"type":"Point","coordinates":[79.6868,13.1077]},"properties":{"district":"Ranipet","taluk":"Arakkonam (tk)","village":"Kavanur","name":"Kavanur","area_type":"Rural","shop_code":"04CP030PN","search_string":"  arakkonam (tk) ranipet "},"bbox":[79.6868,13.1077,79.6868,13.1077]},{"type":"Feature","geometry":{"type":"Point","coordinates":[79.6746,13.1103]},"properties":{"district":"Ranipet","taluk":"Arakkonam (tk)","village":"Kilpakkam","name":"Kilkuppam","area_type":"Rural","shop_code":"04CP032PY","search_string":"  arakkonam (tk) ranipet "},"bbox":[79.6746,13.1103,79.6746,13.1103]},{"type":"Feature","geometry":{"type":"Point","coordinates":[79.5737,13.1126]},"properties":{"district":"Ranipet","taluk":"Arakkonam (tk)","village":"Guruvarajpettai","name":"Guruvarajapettai","area_type":"Rural","shop_code":"04CP018PN","search_string":"  arakkonam (tk) ranipet "},"bbox":[79.5737,13.1126,79.5737,13.1126]},{"type":"Feature","geometry":{"type":"Point","coordinates":[79.5311,13.1145]},"properties":{"district":"Ranipet","taluk":"Arakkonam (tk)","village":"Kadarikandigai","name":"Kadarikuppam","area_type":"Rural","shop_code":"04CP021P1","search_string":"  arakkonam (tk) ranipet "},"bbox":[79.5311,13.1145,79.5311,13.1145]},{"type":"Feature","geometry":{"type":"Point","coordinates":[79.6365,13.1156]},"properties":{"district":"Ranipet","taluk":"Arakkonam (tk)","village":"Vaniyampettai","name":"Vaniyampettai","area_type":"Rural","shop_code":"04CP029PY","search_string":"  arakkonam (tk) ranipet "},"bbox":[79.6365,13.1156,79.6365,13.1156]},{"type":"Feature","geometry":{"type":"Point","coordinates":[79.5716,13.1166]},"properties":{"district":"Ranipet","taluk":"Arakkonam (tk)","village":"Viswanathapuram","name":"Viswanathapuram","area_type":"Rural","shop_code":"04CP019PN","search_string":"  arakkonam (tk) ranipet "},"bbox":[79.5716,13.1166,79.5716,13.1166]},{"type":"Feature","geometry":{"type":"Point","coordinates":[79.6585,13.1174]},"properties":{"district":"Ranipet","taluk":"Arakkonam (tk)","village":"Vadamambakkam","name":"Vadamambakkam","area_type":"Rural","shop_code":"04CP011PN","search_string":"  arakkonam (tk) ranipet "},"bbox":[79.6585,13.1174,79.6585,13.1174]},{"type":"Feature","geometry":{"type":"Point","coordinates":[79.6891,13.1233]},"properties":{"district":"Ranipet","taluk":"Arakkonam (tk)","village":"Rajapalayam","name":"Rajapalayam","area_type":"Rural","shop_code":"04CP031P1","search_string":"  arakkonam (tk) ranipet "},"bbox":[79.6891,13.1233,79.6891,13.1233]},{"type":"Feature","geometry":{"type":"Point","coordinates":[79.6974,13.1236]},"properties":{"district":"Ranipet","taluk":"Arakkonam (tk)","village":"Kilpakkam","name":"Kilpakkam","area_type":"Rural","shop_code":"04CP031PY","search_string":"  arakkonam (tk) ranipet "},"bbox":[79.6974,13.1236,79.6974,13.1236]},{"type":"Feature","geometry":{"type":"Point","coordinates":[79.6466,13.1264]},"properties":{"district":"Ranipet","taluk":"Arakkonam (tk)","village":"Thanigaipollur","name":"Thanigaipolur","area_type":"Rural","shop_code":"04CP028PY","search_string":"  arakkonam (tk) ranipet "},"bbox":[79.6466,13.1264,79.6466,13.1264]},{"type":"Feature","geometry":{"type":"Point","coordinates":[79.6311,13.1268]},"properties":{"district":"Ranipet","taluk":"Arakkonam (tk)","village":"Itchiputtur","name":"Itchiputtur","area_type":"Rural","shop_code":"04CP026PY","search_string":"  arakkonam (tk) ranipet "},"bbox":[79.6311,13.1268,79.6311,13.1268]},{"type":"Feature","geometry":{"type":"Point","coordinates":[79.5477,13.1271]},"properties":{"district":"Ranipet","taluk":"Arakkonam (tk)","village":"Nandhiveduthangal","name":"Nandiveduthangal","area_type":"Rural","shop_code":"04CP021PY","search_string":"  arakkonam (tk) ranipet "},"bbox":[79.5477,13.1271,79.5477,13.1271]},{"type":"Feature","geometry":{"type":"Point","coordinates":[79.6734,13.1279]},"properties":{"district":"Ranipet","taluk":"Arakkonam (tk)","village":"Ammavarthangal","name":"Ammavarthangal","area_type":"Rural","shop_code":"04CP032P1","search_string":"  arakkonam (tk) ranipet "},"bbox":[79.6734,13.1279,79.6734,13.1279]},{"type":"Feature","geometry":{"type":"Point","coordinates":[79.5618,13.1289]},"properties":{"district":"Ranipet","taluk":"Arakkonam (tk)","village":"Sembedu","name":"Sembedu","area_type":"Rural","shop_code":"04CP190PN","search_string":"  arakkonam (tk) ranipet "},"bbox":[79.5618,13.1289,79.5618,13.1289]},{"type":"Feature","geometry":{"type":"Point","coordinates":[79.6106,13.13]},"properties":{"district":"Ranipet","taluk":"Arakkonam (tk)","village":"Kadarikandigai","name":"Kadavarikandigai","area_type":"Rural","shop_code":"04CP026P1","search_string":"  arakkonam (tk) ranipet "},"bbox":[79.6106,13.13,79.6106,13.13]},{"type":"Feature","geometry":{"type":"Point","coordinates":[79.7274,13.1361]},"properties":{"district":"Ranipet","taluk":"Arakkonam (tk)","village":"Mulvoy","name":"Mulvoy","area_type":"Rural","shop_code":"04CP039PN","search_string":"  arakkonam (tk) ranipet "},"bbox":[79.7274,13.1361,79.7274,13.1361]},{"type":"Feature","geometry":{"type":"Point","coordinates":[79.696,13.1367]},"properties":{"district":"Ranipet","taluk":"Arakkonam (tk)","village":"Vellur","name":"Velurpet","area_type":"Rural","shop_code":"04CP037P1","search_string":"  arakkonam (tk) ranipet "},"bbox":[79.696,13.1367,79.696,13.1367]},{"type":"Feature","geometry":{"type":"Point","coordinates":[79.6763,13.139]},"properties":{"district":"Ranipet","taluk":"Arakkonam (tk)","village":"Veeranarayanapuram","name":"Veeranarayanapuram","area_type":"Rural","shop_code":"04CP035P2","search_string":"  arakkonam (tk) ranipet "},"bbox":[79.6763,13.139,79.6763,13.139]},{"type":"Feature","geometry":{"type":"Point","coordinates":[79.6108,13.1403]},"properties":{"district":"Ranipet","taluk":"Arakkonam (tk)","village":"Kadarikandigai","name":"Ammeerpettai","area_type":"Rural","shop_code":"04CP026P2","search_string":"  arakkonam (tk) ranipet "},"bbox":[79.6108,13.1403,79.6108,13.1403]},{"type":"Feature","geometry":{"type":"Point","coordinates":[79.6424,13.1437]},"properties":{"district":"Ranipet","taluk":"Arakkonam (tk)","village":"Thanigaipollur","name":"Alliappanthangal","area_type":"Rural","shop_code":"04CP028P1","search_string":"  arakkonam (tk) ranipet "},"bbox":[79.6424,13.1437,79.6424,13.1437]},{"type":"Feature","geometry":{"type":"Point","coordinates":[79.6014,13.144]},"properties":{"district":"Ranipet","taluk":"Arakkonam (tk)","village":"Kizavanam","name":"Kizavanam","area_type":"Rural","shop_code":"04CP027PN","search_string":"  arakkonam (tk) ranipet "},"bbox":[79.6014,13.144,79.6014,13.144]},{"type":"Feature","geometry":{"type":"Point","coordinates":[79.6662,13.1443]},"properties":{"district":"Ranipet","taluk":"Arakkonam (tk)","village":"Karpanthangal","name":"Karpanthangal","area_type":"Rural","shop_code":"04CP042P1","search_string":"  arakkonam (tk) ranipet "},"bbox":[79.6662,13.1443,79.6662,13.1443]},{"type":"Feature","geometry":{"type":"Point","coordinates":[79.6524,13.1498]},"properties":{"district":"Ranipet","taluk":"Arakkonam (tk)","village":"Ulliyambakkam","name":"Ulliyambakkam","area_type":"Rural","shop_code":"04CP042PY","search_string":"  arakkonam (tk) ranipet "},"bbox":[79.6524,13.1498,79.6524,13.1498]},{"type":"Feature","geometry":{"type":"Point","coordinates":[79.7017,13.1501]},"properties":{"district":"Ranipet","taluk":"Arakkonam (tk)","village":"Vellur","name":"Velur","area_type":"Rural","shop_code":"04CP037PY","search_string":"  arakkonam (tk) ranipet "},"bbox":[79.7017,13.1501,79.7017,13.1501]},{"type":"Feature","geometry":{"type":"Point","coordinates":[79.7295,13.1516]},"properties":{"district":"Ranipet","taluk":"Arakkonam (tk)","village":"Anaipakkam","name":"Anaipakkam","area_type":"Rural","shop_code":"04CP040PN","search_string":"  arakkonam (tk) ranipet "},"bbox":[79.7295,13.1516,79.7295,13.1516]},{"type":"Feature","geometry":{"type":"Point","coordinates":[79.6838,13.1517]},"properties":{"district":"Ranipet","taluk":"Arakkonam (tk)","village":"Mudur","name":"Mudur","area_type":"Rural","shop_code":"04CP035PY","search_string":"  arakkonam (tk) ranipet "},"bbox":[79.6838,13.1517,79.6838,13.1517]},{"type":"Feature","geometry":{"type":"Point","coordinates":[79.7013,13.1521]},"properties":{"district":"Ranipet","taluk":"Arakkonam (tk)","village":"Konalam","name":"Konalam","area_type":"Rural","shop_code":"04CP038PN","search_string":"  arakkonam (tk) ranipet "},"bbox":[79.7013,13.1521,79.7013,13.1521]},{"type":"Feature","geometry":{"type":"Point","coordinates":[79.6901,13.155]},"properties":{"district":"Ranipet","taluk":"Arakkonam (tk)","village":"Mudur","name":"Mudurmagalir","area_type":"Rural","shop_code":"04CP035P1","search_string":"  arakkonam (tk) ranipet "},"bbox":[79.6901,13.155,79.6901,13.155]},{"type":"Feature","geometry":{"type":"Point","coordinates":[79.6434,13.1656]},"properties":{"district":"Ranipet","taluk":"Arakkonam (tk)","village":"Kilandur","name":"Kilan Dur","area_type":"Rural","shop_code":"04CP043PY","search_string":"  arakkonam (tk) ranipet "},"bbox":[79.6434,13.1656,79.6434,13.1656]},{"type":"Feature","geometry":{"type":"Point","coordinates":[79.6721,13.1661]},"properties":{"district":"Ranipet","taluk":"Arakkonam (tk)","village":"Valarpuram","name":"Valarpuram","area_type":"Rural","shop_code":"04CP189PN","search_string":"  arakkonam (tk) ranipet "},"bbox":[79.6721,13.1661,79.6721,13.1661]},{"type":"Feature","geometry":{"type":"Point","coordinates":[79.6775,13.1683]},"properties":{"district":"Ranipet","taluk":"Arakkonam (tk)","village":"Valarpuram","name":"Valarpuram1","area_type":"Rural","shop_code":"04CP041PN","search_string":"  arakkonam (tk) ranipet "},"bbox":[79.6775,13.1683,79.6775,13.1683]},{"type":"Feature","geometry":{"type":"Point","coordinates":[79.6524,13.1706]},"properties":{"district":"Ranipet","taluk":"Arakkonam (tk)","village":"Palliankuppam","name":"Palliankuppam","area_type":"Rural","shop_code":"04CP043P1","search_string":"  arakkonam (tk) ranipet "},"bbox":[79.6524,13.1706,79.6524,13.1706]},{"type":"Feature","geometry":{"type":"Point","coordinates":[79.691,13.1848]},"properties":{"district":"Ranipet","taluk":"Arakkonam (tk)","village":"Krishnapuram","name":"Krishnapuram","area_type":"Rural","shop_code":"04CP045PN","search_string":"  arakkonam (tk) ranipet "},"bbox":[79.691,13.1848,79.691,13.1848]},{"type":"Feature","geometry":{"type":"Point","coordinates":[79.657,13.1856]},"properties":{"district":"Ranipet","taluk":"Arakkonam (tk)","village":"Perunkalathur","name":"Perunkalathur","area_type":"Rural","shop_code":"04CP044PY","search_string":"  arakkonam (tk) ranipet "},"bbox":[79.657,13.1856,79.657,13.1856]},{"type":"Feature","geometry":{"type":"Point","coordinates":[79.6663,13.1931]},"properties":{"district":"Ranipet","taluk":"Arakkonam (tk)","village":"Nm Kandigai","name":"N.M.Kandigai","area_type":"Rural","shop_code":"04CP044P1","search_string":"  arakkonam (tk) ranipet "},"bbox":[79.6663,13.1931,79.6663,13.1931]},{"type":"Feature","geometry":{"type":"Point","coordinates":[79.651,13.1957]},"properties":{"district":"Ranipet","taluk":"Arakkonam (tk)","village":"Nm Kandigai","name":"Indiranagar","area_type":"Rural","shop_code":"04CP044P2","search_string":"  arakkonam (tk) ranipet "},"bbox":[79.651,13.1957,79.651,13.1957]},{"type":"Feature","geometry":{"type":"Point","coordinates":[79.3067,12.7607]},"properties":{"district":"Ranipet","taluk":"Arcot (Tk)","village":"Thamaraipakkam","name":"Thamaraipakkam","area_type":"Rural","shop_code":"04DP078PY","search_string":"  arcot (tk) ranipet "},"bbox":[79.3067,12.7607,79.3067,12.7607]},{"type":"Feature","geometry":{"type":"Point","coordinates":[79.3109,12.7663]},"properties":{"district":"Ranipet","taluk":"Arcot (Tk)","village":"Vanakampaadi","name":"Vanakampaadi","area_type":"Rural","shop_code":"04DP081PN","search_string":"  arcot (tk) ranipet "},"bbox":[79.3109,12.7663,79.3109,12.7663]},{"type":"Feature","geometry":{"type":"Point","coordinates":[79.3103,12.7749]},"properties":{"district":"Ranipet","taluk":"Arcot (Tk)","village":"Mosur","name":"Moosoor","area_type":"Rural","shop_code":"04DP082PN","search_string":"  arcot (tk) ranipet "},"bbox":[79.3103,12.7749,79.3103,12.7749]},{"type":"Feature","geometry":{"type":"Point","coordinates":[79.3226,12.7759]},"properties":{"district":"Ranipet","taluk":"Arcot (Tk)","village":"Palayam","name":"Palayam","area_type":"Rural","shop_code":"04DP083PN","search_string":"  arcot (tk) ranipet "},"bbox":[79.3226,12.7759,79.3226,12.7759]},{"type":"Feature","geometry":{"type":"Point","coordinates":[79.2986,12.7934]},"properties":{"district":"Ranipet","taluk":"Arcot (Tk)","village":"Melathangal","name":"Melathangal","area_type":"Rural","shop_code":"04DP051PN","search_string":"  arcot (tk) ranipet "},"bbox":[79.2986,12.7934,79.2986,12.7934]},{"type":"Feature","geometry":{"type":"Point","coordinates":[79.3157,12.7942]},"properties":{"district":"Ranipet","taluk":"Arcot (Tk)","village":"Baratharami","name":"Baratharami","area_type":"Rural","shop_code":"04DP052PN","search_string":"  arcot (tk) ranipet "},"bbox":[79.3157,12.7942,79.3157,12.7942]},{"type":"Feature","geometry":{"type":"Point","coordinates":[79.2729,12.7977]},"properties":{"district":"Ranipet","taluk":"Arcot (Tk)","village":"Durgam","name":"Mugamadhu Patti","area_type":"Rural","shop_code":"04DP050P1","search_string":"  arcot (tk) ranipet "},"bbox":[79.2729,12.7977,79.2729,12.7977]},{"type":"Feature","geometry":{"type":"Point","coordinates":[79.4558,12.8013]},"properties":{"district":"Ranipet","taluk":"Arcot (Tk)","village":"Macheri","name":"Macheri","area_type":"Rural","shop_code":"04DP018PN","search_string":"  arcot (tk) ranipet "},"bbox":[79.4558,12.8013,79.4558,12.8013]},{"type":"Feature","geometry":{"type":"Point","coordinates":[79.2877,12.802]},"properties":{"district":"Ranipet","taluk":"Arcot (Tk)","village":"Durgam","name":"Durgam","area_type":"Rural","shop_code":"04DP050PY","search_string":"  arcot (tk) ranipet "},"bbox":[79.2877,12.802,79.2877,12.802]},{"type":"Feature","geometry":{"type":"Point","coordinates":[79.3823,12.8036]},"properties":{"district":"Ranipet","taluk":"Arcot (Tk)","village":"Sembedu","name":"Sembedu","area_type":"Rural","shop_code":"04DP023PN","search_string":"  arcot (tk) ranipet "},"bbox":[79.3823,12.8036,79.3823,12.8036]},{"type":"Feature","geometry":{"type":"Point","coordinates":[79.2091,12.8062]},"properties":{"district":"Ranipet","taluk":"Arcot (Tk)","village":"Varagur","name":"Varagoor Pudhuoor","area_type":"Rural","shop_code":"04DP035P2","search_string":"  arcot (tk) ranipet "},"bbox":[79.2091,12.8062,79.2091,12.8062]},{"type":"Feature","geometry":{"type":"Point","coordinates":[79.4071,12.8067]},"properties":{"district":"Ranipet","taluk":"Arcot (Tk)","village":"Karikanthangal","name":"Karikanththangal","area_type":"Rural","shop_code":"04DP057PN","search_string":"  arcot (tk) ranipet "},"bbox":[79.4071,12.8067,79.4071,12.8067]},{"type":"Feature","geometry":{"type":"Point","coordinates":[79.4304,12.8071]},"properties":{"district":"Ranipet","taluk":"Arcot (Tk)","village":"Mulluvadi","name":"Mettu Mulluvadi","area_type":"Rural","shop_code":"04DP021P1","search_string":"  arcot (tk) ranipet "},"bbox":[79.4304,12.8071,79.4304,12.8071]},{"type":"Feature","geometry":{"type":"Point","coordinates":[79.2141,12.8103]},"properties":{"district":"Ranipet","taluk":"Arcot (Tk)","village":"Karungalikuppam","name":"Karungkalikuppam","area_type":"Rural","shop_code":"04DP035P1","search_string":"  arcot (tk) ranipet "},"bbox":[79.2141,12.8103,79.2141,12.8103]},{"type":"Feature","geometry":{"type":"Point","coordinates":[79.3894,12.8106]},"properties":{"district":"Ranipet","taluk":"Arcot (Tk)","village":"K.Vellur","name":"K.Velore","area_type":"Rural","shop_code":"04DP055PN","search_string":"  arcot (tk) ranipet "},"bbox":[79.3894,12.8106,79.3894,12.8106]},{"type":"Feature","geometry":{"type":"Point","coordinates":[79.4043,12.8115]},"properties":{"district":"Ranipet","taluk":"Arcot (Tk)","village":"Kilanthangal","name":"Kilaanthangal","area_type":"Rural","shop_code":"04DP132PN","search_string":"  arcot (tk) ranipet "},"bbox":[79.4043,12.8115,79.4043,12.8115]},{"type":"Feature","geometry":{"type":"Point","coordinates":[79.3691,12.8116]},"properties":{"district":"Ranipet","taluk":"Arcot (Tk)","village":"Ozyalai","name":"Ozyalai","area_type":"Rural","shop_code":"04DP124PN","search_string":"  arcot (tk) ranipet "},"bbox":[79.3691,12.8116,79.3691,12.8116]},{"type":"Feature","geometry":{"type":"Point","coordinates":[79.2362,12.8121]},"properties":{"district":"Ranipet","taluk":"Arcot (Tk)","village":"Varagur","name":"Varagoor","area_type":"Rural","shop_code":"04DP035PY","search_string":"  arcot (tk) ranipet "},"bbox":[79.2362,12.8121,79.2362,12.8121]},{"type":"Feature","geometry":{"type":"Point","coordinates":[79.269,12.8158]},"properties":{"district":"Ranipet","taluk":"Arcot (Tk)","village":"Nambarai","name":"Mohanavaram","area_type":"Rural","shop_code":"04DP048P1","search_string":"  arcot (tk) ranipet "},"bbox":[79.269,12.8158,79.269,12.8158]},{"type":"Feature","geometry":{"type":"Point","coordinates":[79.2466,12.8171]},"properties":{"district":"Ranipet","taluk":"Arcot (Tk)","village":"Varagurpattanam","name":"Varagoorpattanam","area_type":"Rural","shop_code":"04DP037PN","search_string":"  arcot (tk) ranipet "},"bbox":[79.2466,12.8171,79.2466,12.8171]},{"type":"Feature","geometry":{"type":"Point","coordinates":[79.4298,12.8172]},"properties":{"district":"Ranipet","taluk":"Arcot (Tk)","village":"Mulluvadi","name":"Mulluvadi","area_type":"Rural","shop_code":"04DP021PY","search_string":"  arcot (tk) ranipet "},"bbox":[79.4298,12.8172,79.4298,12.8172]},{"type":"Feature","geometry":{"type":"Point","coordinates":[79.4526,12.8174]},"properties":{"district":"Ranipet","taluk":"Arcot (Tk)","village":"Arumbakkam","name":"Arumbakkam","area_type":"Rural","shop_code":"04DP019PY","search_string":"  arcot (tk) ranipet "},"bbox":[79.4526,12.8174,79.4526,12.8174]},{"type":"Feature","geometry":{"type":"Point","coordinates":[79.2915,12.818]},"properties":{"district":"Ranipet","taluk":"Arcot (Tk)","village":"Nambarai","name":"Nambarai","area_type":"Rural","shop_code":"04DP048PY","search_string":"  arcot (tk) ranipet "},"bbox":[79.2915,12.818,79.2915,12.818]},{"type":"Feature","geometry":{"type":"Point","coordinates":[79.4378,12.8214]},"properties":{"district":"Ranipet","taluk":"Arcot (Tk)","village":"Gurumudithangal","name":"Gurumudithangal","area_type":"Rural","shop_code":"04DP123PN","search_string":"  arcot (tk) ranipet "},"bbox":[79.4378,12.8214,79.4378,12.8214]},{"type":"Feature","geometry":{"type":"Point","coordinates":[79.402,12.822]},"properties":{"district":"Ranipet","taluk":"Arcot (Tk)","village":"Kirampadi","name":"Kirampaadi","area_type":"Rural","shop_code":"04DP058PN","search_string":"  arcot (tk) ranipet "},"bbox":[79.402,12.822,79.402,12.822]},{"type":"Feature","geometry":{"type":"Point","coordinates":[79.2429,12.8253]},"properties":{"district":"Ranipet","taluk":"Arcot (Tk)","village":"Poonganur","name":"Nayakanthoppu","area_type":"Rural","shop_code":"04DP031P3","search_string":"  arcot (tk) ranipet "},"bbox":[79.2429,12.8253,79.2429,12.8253]},{"type":"Feature","geometry":{"type":"Point","coordinates":[79.3791,12.8267]},"properties":{"district":"Ranipet","taluk":"Arcot (Tk)","village":"Karivadu","name":"Karivadu","area_type":"Rural","shop_code":"04DP056PN","search_string":"  arcot (tk) ranipet "},"bbox":[79.3791,12.8267,79.3791,12.8267]},{"type":"Feature","geometry":{"type":"Point","coordinates":[79.316,12.8277]},"properties":{"district":"Ranipet","taluk":"Arcot (Tk)","village":"Thimiri Town","name":"Raamapalayam","area_type":"Urban","shop_code":"04DP097P1","search_string":"  arcot (tk) ranipet "},"bbox":[79.316,12.8277,79.316,12.8277]},{"type":"Feature","geometry":{"type":"Point","coordinates":[79.3055,12.829]},"properties":{"district":"Ranipet","taluk":"Arcot (Tk)","village":"Thimiri Town","name":"Thimiri Co Operative 1","area_type":"Urban","shop_code":"04DP001PN","search_string":"  arcot (tk) ranipet "},"bbox":[79.3055,12.829,79.3055,12.829]},{"type":"Feature","geometry":{"type":"Point","coordinates":[79.3053,12.8295]},"properties":{"district":"Ranipet","taluk":"Arcot (Tk)","village":"Thimiri Town","name":"Thimiri Co Operative 2","area_type":"Urban","shop_code":"04DP002PN","search_string":"  arcot (tk) ranipet "},"bbox":[79.3053,12.8295,79.3053,12.8295]},{"type":"Feature","geometry":{"type":"Point","coordinates":[79.3453,12.8324]},"properties":{"district":"Ranipet","taluk":"Arcot (Tk)","village":"Punnapadi","name":"Punnapadi","area_type":"Rural","shop_code":"04DP024PN","search_string":"  arcot (tk) ranipet "},"bbox":[79.3453,12.8324,79.3453,12.8324]},{"type":"Feature","geometry":{"type":"Point","coordinates":[79.2246,12.8324]},"properties":{"district":"Ranipet","taluk":"Arcot (Tk)","village":"Poonganur","name":"Vellakulam","area_type":"Rural","shop_code":"04DP031P1","search_string":"  arcot (tk) ranipet "},"bbox":[79.2246,12.8324,79.2246,12.8324]},{"type":"Feature","geometry":{"type":"Point","coordinates":[79.2525,12.8362]},"properties":{"district":"Ranipet","taluk":"Arcot (Tk)","village":"Kavanur","name":"Kavanoor","area_type":"Rural","shop_code":"04DP030PY","search_string":"  arcot (tk) ranipet "},"bbox":[79.2525,12.8362,79.2525,12.8362]},{"type":"Feature","geometry":{"type":"Point","coordinates":[79.3613,12.8366]},"properties":{"district":"Ranipet","taluk":"Arcot (Tk)","village":"Ladavaram","name":"Pillare","area_type":"Rural","shop_code":"04DP025P1","search_string":"  arcot (tk) ranipet "},"bbox":[79.3613,12.8366,79.3613,12.8366]},{"type":"Feature","geometry":{"type":"Point","coordinates":[79.2767,12.8367]},"properties":{"district":"Ranipet","taluk":"Arcot (Tk)","village":"Aanimallur","name":"Aanimullur","area_type":"Rural","shop_code":"04DP047PN","search_string":"  arcot (tk) ranipet "},"bbox":[79.2767,12.8367,79.2767,12.8367]},{"type":"Feature","geometry":{"type":"Point","coordinates":[79.2526,12.8368]},"properties":{"district":"Ranipet","taluk":"Arcot (Tk)","village":"Thimiri Town","name":"Thimiri Pacb Hq 1","area_type":"Urban","shop_code":"04DP097PY","search_string":"  arcot (tk) ranipet "},"bbox":[79.2526,12.8368,79.2526,12.8368]},{"type":"Feature","geometry":{"type":"Point","coordinates":[79.4434,12.838]},"properties":{"district":"Ranipet","taluk":"Arcot (Tk)","village":"Essaiyanur","name":"Putheri","area_type":"Rural","shop_code":"04DP068P2","search_string":"  arcot (tk) ranipet "},"bbox":[79.4434,12.838,79.4434,12.838]},{"type":"Feature","geometry":{"type":"Point","coordinates":[79.24,12.8386]},"properties":{"district":"Ranipet","taluk":"Arcot (Tk)","village":"Poonganur","name":"Poonganur","area_type":"Rural","shop_code":"04DP031PY","search_string":"  arcot (tk) ranipet "},"bbox":[79.24,12.8386,79.24,12.8386]},{"type":"Feature","geometry":{"type":"Point","coordinates":[79.4381,12.8386]},"properties":{"district":"Ranipet","taluk":"Arcot (Tk)","village":"Arumbakkam","name":"Annathangal","area_type":"Rural","shop_code":"04DP019P1","search_string":"  arcot (tk) ranipet "},"bbox":[79.4381,12.8386,79.4381,12.8386]},{"type":"Feature","geometry":{"type":"Point","coordinates":[79.3209,12.8408]},"properties":{"district":"Ranipet","taluk":"Arcot (Tk)","village":"Veelari","name":"Veelari","area_type":"Rural","shop_code":"04DP041PN","search_string":"  arcot (tk) ranipet "},"bbox":[79.3209,12.8408,79.3209,12.8408]},{"type":"Feature","geometry":{"type":"Point","coordinates":[79.2181,12.8466]},"properties":{"district":"Ranipet","taluk":"Arcot (Tk)","village":"Poonganur","name":"Vandikkal","area_type":"Rural","shop_code":"04DP031P2","search_string":"  arcot (tk) ranipet "},"bbox":[79.2181,12.8466,79.2181,12.8466]},{"type":"Feature","geometry":{"type":"Point","coordinates":[79.4496,12.8499]},"properties":{"district":"Ranipet","taluk":"Arcot (Tk)","village":"Essaiyanur","name":"Malligapuram","area_type":"Rural","shop_code":"04DP068P1","search_string":"  arcot (tk) ranipet "},"bbox":[79.4496,12.8499,79.4496,12.8499]},{"type":"Feature","geometry":{"type":"Point","coordinates":[79.354,12.85]},"properties":{"district":"Ranipet","taluk":"Arcot (Tk)","village":"Pazya Mangadu","name":"Pudhu Mangadu","area_type":"Rural","shop_code":"04DP029P2","search_string":"  arcot (tk) ranipet "},"bbox":[79.354,12.85,79.354,12.85]},{"type":"Feature","geometry":{"type":"Point","coordinates":[79.2462,12.8507]},"properties":{"district":"Ranipet","taluk":"Arcot (Tk)","village":"Kavanur","name":"Kanadipalayam","area_type":"Rural","shop_code":"04DP030P1","search_string":"  arcot (tk) ranipet "},"bbox":[79.2462,12.8507,79.2462,12.8507]},{"type":"Feature","geometry":{"type":"Point","coordinates":[79.2938,12.8525]},"properties":{"district":"Ranipet","taluk":"Arcot (Tk)","village":"Thimiri Town","name":"Vilapakkam 2","area_type":"Urban","shop_code":"04DP101PN","search_string":"  arcot (tk) ranipet "},"bbox":[79.2938,12.8525,79.2938,12.8525]},{"type":"Feature","geometry":{"type":"Point","coordinates":[79.4559,12.8532]},"properties":{"district":"Ranipet","taluk":"Arcot (Tk)","village":"Essaiyanur Colony","name":"Essaiyanur Colony","area_type":"Rural","shop_code":"04DP068P3","search_string":"  arcot (tk) ranipet "},"bbox":[79.4559,12.8532,79.4559,12.8532]},{"type":"Feature","geometry":{"type":"Point","coordinates":[79.2971,12.8546]},"properties":{"district":"Ranipet","taluk":"Arcot (Tk)","village":"Thimiri Town","name":"Vilapakkam 1","area_type":"Urban","shop_code":"04DP100PY","search_string":"  arcot (tk) ranipet "},"bbox":[79.2971,12.8546,79.2971,12.8546]},{"type":"Feature","geometry":{"type":"Point","coordinates":[79.4665,12.8559]},"properties":{"district":"Ranipet","taluk":"Arcot (Tk)","village":"Valavanur","name":"Valavanoor","area_type":"Rural","shop_code":"04DP067PN","search_string":"  arcot (tk) ranipet "},"bbox":[79.4665,12.8559,79.4665,12.8559]},{"type":"Feature","geometry":{"type":"Point","coordinates":[79.4485,12.8589]},"properties":{"district":"Ranipet","taluk":"Arcot (Tk)","village":"Essaiyanur","name":"Essinoor","area_type":"Rural","shop_code":"04DP068PY","search_string":"  arcot (tk) ranipet "},"bbox":[79.4485,12.8589,79.4485,12.8589]},{"type":"Feature","geometry":{"type":"Point","coordinates":[79.4156,12.862]},"properties":{"district":"Ranipet","taluk":"Arcot (Tk)","village":"Chakkaramallur","name":"Chakkaramallur","area_type":"Rural","shop_code":"04DP066PN","search_string":"  arcot (tk) ranipet "},"bbox":[79.4156,12.862,79.4156,12.862]},{"type":"Feature","geometry":{"type":"Point","coordinates":[79.386,12.8645]},"properties":{"district":"Ranipet","taluk":"Arcot (Tk)","village":"Kilambadi","name":"Kilambadi","area_type":"Rural","shop_code":"04DP043PN","search_string":"  arcot (tk) ranipet "},"bbox":[79.386,12.8645,79.386,12.8645]},{"type":"Feature","geometry":{"type":"Point","coordinates":[79.37,12.867]},"properties":{"district":"Ranipet","taluk":"Arcot (Tk)","village":"Chennakukkundi","name":"Chennakukkundi","area_type":"Rural","shop_code":"04DP131PY","search_string":"  arcot (tk) ranipet "},"bbox":[79.37,12.867,79.37,12.867]},{"type":"Feature","geometry":{"type":"Point","coordinates":[79.4445,12.8678]},"properties":{"district":"Ranipet","taluk":"Arcot (Tk)","village":"Perungalmedu","name":"Perungalmedu","area_type":"Rural","shop_code":"04DP069PN","search_string":"  arcot (tk) ranipet "},"bbox":[79.4445,12.8678,79.4445,12.8678]},{"type":"Feature","geometry":{"type":"Point","coordinates":[79.343,12.868]},"properties":{"district":"Ranipet","taluk":"Arcot (Tk)","village":"Sathur","name":"Sathoor Adc","area_type":"Rural","shop_code":"04DP003P2","search_string":"  arcot (tk) ranipet "},"bbox":[79.343,12.868,79.343,12.868]},{"type":"Feature","geometry":{"type":"Point","coordinates":[79.331,12.8686]},"properties":{"district":"Ranipet","taluk":"Arcot (Tk)","village":"Sathur","name":"Sathoor","area_type":"Rural","shop_code":"04DP003PY","search_string":"  arcot (tk) ranipet "},"bbox":[79.331,12.8686,79.331,12.8686]},{"type":"Feature","geometry":{"type":"Point","coordinates":[79.3439,12.8805]},"properties":{"district":"Ranipet","taluk":"Arcot (Tk)","village":"Sathur","name":"Labbapatti","area_type":"Rural","shop_code":"04DP003P3","search_string":"  arcot (tk) ranipet "},"bbox":[79.3439,12.8805,79.3439,12.8805]},{"type":"Feature","geometry":{"type":"Point","coordinates":[79.3535,12.8819]},"properties":{"district":"Ranipet","taluk":"Arcot (Tk)","village":"Pazya Mangadu","name":"Pazya Mangadu","area_type":"Rural","shop_code":"04DP029PY","search_string":"  arcot (tk) ranipet "},"bbox":[79.3535,12.8819,79.3535,12.8819]},{"type":"Feature","geometry":{"type":"Point","coordinates":[79.3323,12.8831]},"properties":{"district":"Ranipet","taluk":"Arcot (Tk)","village":"Sathur","name":"Sathoor 2","area_type":"Rural","shop_code":"04DP003P1","search_string":"  arcot (tk) ranipet "},"bbox":[79.3323,12.8831,79.3323,12.8831]},{"type":"Feature","geometry":{"type":"Point","coordinates":[79.3305,12.8871]},"properties":{"district":"Ranipet","taluk":"Arcot (Tk)","village":"Tajpura","name":"Tajpura 1","area_type":"Rural","shop_code":"04DP115PY","search_string":"  arcot (tk) ranipet "},"bbox":[79.3305,12.8871,79.3305,12.8871]},{"type":"Feature","geometry":{"type":"Point","coordinates":[79.3127,12.8905]},"properties":{"district":"Ranipet","taluk":"Arcot (Tk)","village":"Tajpura","name":"Tajpura 2","area_type":"Rural","shop_code":"04DP115P1","search_string":"  arcot (tk) ranipet "},"bbox":[79.3127,12.8905,79.3127,12.8905]},{"type":"Feature","geometry":{"type":"Point","coordinates":[79.3202,12.8919]},"properties":{"district":"Ranipet","taluk":"Arcot (Tk)","village":"Tajpura","name":"Tajpura 3","area_type":"Rural","shop_code":"04DP115P2","search_string":"  arcot (tk) ranipet "},"bbox":[79.3202,12.8919,79.3202,12.8919]},{"type":"Feature","geometry":{"type":"Point","coordinates":[79.3507,12.8974]},"properties":{"district":"Ranipet","taluk":"Arcot (Tk)","village":"Poongodu","name":"Poongodu","area_type":"Rural","shop_code":"04DP121PN","search_string":"  arcot (tk) ranipet "},"bbox":[79.3507,12.8974,79.3507,12.8974]},{"type":"Feature","geometry":{"type":"Point","coordinates":[79.3303,12.8979]},"properties":{"district":"Ranipet","taluk":"Arcot (Tk)","village":"Arcot Town","name":"Arcot Acms 5","area_type":"Urban","shop_code":"04DC005PN","search_string":"  arcot (tk) ranipet "},"bbox":[79.3303,12.8979,79.3303,12.8979]},{"type":"Feature","geometry":{"type":"Point","coordinates":[79.3199,12.8997]},"properties":{"district":"Ranipet","taluk":"Arcot (Tk)","village":"Arcot Town","name":"Arcot Acms 1","area_type":"Urban","shop_code":"04DC001PN","search_string":"  arcot (tk) ranipet "},"bbox":[79.3199,12.8997,79.3199,12.8997]},{"type":"Feature","geometry":{"type":"Point","coordinates":[79.3178,12.9006]},"properties":{"district":"Ranipet","taluk":"Arcot (Tk)","village":"Arcot Town","name":"Arcot Acms 2","area_type":"Urban","shop_code":"04DC002PN","search_string":"  arcot (tk) ranipet "},"bbox":[79.3178,12.9006,79.3178,12.9006]},{"type":"Feature","geometry":{"type":"Point","coordinates":[79.3403,12.9017]},"properties":{"district":"Ranipet","taluk":"Arcot (Tk)","village":"Muppadhu Vetti","name":"Muppadhu Vetti 2","area_type":"Rural","shop_code":"04DP099P1","search_string":"  arcot (tk) ranipet "},"bbox":[79.3403,12.9017,79.3403,12.9017]},{"type":"Feature","geometry":{"type":"Point","coordinates":[79.3145,12.9017]},"properties":{"district":"Ranipet","taluk":"Arcot (Tk)","village":"Arcot Town","name":"Arcot Acms 4","area_type":"Urban","shop_code":"04DC004PN","search_string":"  arcot (tk) ranipet "},"bbox":[79.3145,12.9017,79.3145,12.9017]},{"type":"Feature","geometry":{"type":"Point","coordinates":[79.3372,12.9023]},"properties":{"district":"Ranipet","taluk":"Arcot (Tk)","village":"Kuppam","name":"Kuppam","area_type":"Rural","shop_code":"04DP033PN","search_string":"  arcot (tk) ranipet "},"bbox":[79.3372,12.9023,79.3372,12.9023]},{"type":"Feature","geometry":{"type":"Point","coordinates":[79.3373,12.9024]},"properties":{"district":"Ranipet","taluk":"Arcot (Tk)","village":"Ladavaram","name":"Ladavaram","area_type":"Rural","shop_code":"04DP025PY","search_string":"  arcot (tk) ranipet "},"bbox":[79.3373,12.9024,79.3373,12.9024]},{"type":"Feature","geometry":{"type":"Point","coordinates":[79.3372,12.9024]},"properties":{"district":"Ranipet","taluk":"Arcot (Tk)","village":"Arcot Town","name":"Muppadhu Vetti 1","area_type":"Urban","shop_code":"04DP099PY","search_string":"  arcot (tk) ranipet "},"bbox":[79.3372,12.9024,79.3372,12.9024]},{"type":"Feature","geometry":{"type":"Point","coordinates":[79.3251,12.9028]},"properties":{"district":"Ranipet","taluk":"Arcot (Tk)","village":"Arcot Town","name":"Arcot Cooperative 1","area_type":"Urban","shop_code":"04DD001PN","search_string":"  arcot (tk) ranipet "},"bbox":[79.3251,12.9028,79.3251,12.9028]},{"type":"Feature","geometry":{"type":"Point","coordinates":[79.3367,12.9031]},"properties":{"district":"Ranipet","taluk":"Arcot (Tk)","village":"Arcot Town","name":"Karpagam 2","area_type":"Urban","shop_code":"04DB002PN","search_string":"  arcot (tk) ranipet "},"bbox":[79.3367,12.9031,79.3367,12.9031]},{"type":"Feature","geometry":{"type":"Point","coordinates":[79.3193,12.9031]},"properties":{"district":"Ranipet","taluk":"Arcot (Tk)","village":"Arcot Town","name":"Karpagam 1","area_type":"Urban","shop_code":"04DB001PN","search_string":"  arcot (tk) ranipet "},"bbox":[79.3193,12.9031,79.3193,12.9031]},{"type":"Feature","geometry":{"type":"Point","coordinates":[79.3389,12.9037]},"properties":{"district":"Ranipet","taluk":"Arcot (Tk)","village":"M N Palayam","name":"M N Palayam","area_type":"Rural","shop_code":"04DP046PN","search_string":"  arcot (tk) ranipet "},"bbox":[79.3389,12.9037,79.3389,12.9037]},{"type":"Feature","geometry":{"type":"Point","coordinates":[79.3083,12.9038]},"properties":{"district":"Ranipet","taluk":"Arcot (Tk)","village":"Arcot Town","name":"Arcot Acms 4","area_type":"Urban","shop_code":"04DC006PN","search_string":"  arcot (tk) ranipet "},"bbox":[79.3083,12.9038,79.3083,12.9038]},{"type":"Feature","geometry":{"type":"Point","coordinates":[79.3234,12.9056]},"properties":{"district":"Ranipet","taluk":"Arcot (Tk)","village":"Arcot Town","name":"Arcot Cooperative 3","area_type":"Urban","shop_code":"04DD003PN","search_string":"  arcot (tk) ranipet "},"bbox":[79.3234,12.9056,79.3234,12.9056]},{"type":"Feature","geometry":{"type":"Point","coordinates":[79.321,12.9056]},"properties":{"district":"Ranipet","taluk":"Arcot (Tk)","village":"Arcot Town","name":"Arcot Pacb 1","area_type":"Rural","shop_code":"04DP093PN","search_string":"  arcot (tk) ranipet "},"bbox":[79.321,12.9056,79.321,12.9056]},{"type":"Feature","geometry":{"type":"Point","coordinates":[79.3293,12.9057]},"properties":{"district":"Ranipet","taluk":"Arcot (Tk)","village":"Arcot Town","name":"Karpagam 3","area_type":"Urban","shop_code":"04DB003PN","search_string":"  arcot (tk) ranipet "},"bbox":[79.3293,12.9057,79.3293,12.9057]},{"type":"Feature","geometry":{"type":"Point","coordinates":[79.3233,12.9057]},"properties":{"district":"Ranipet","taluk":"Arcot (Tk)","village":"Arcot Town","name":"Arcot Cooperative 2","area_type":"Urban","shop_code":"04DD002PN","search_string":"  arcot (tk) ranipet "},"bbox":[79.3233,12.9057,79.3233,12.9057]},{"type":"Feature","geometry":{"type":"Point","coordinates":[79.3161,12.9073]},"properties":{"district":"Ranipet","taluk":"Arcot (Tk)","village":"Arcot Town","name":"Arcot Pacb 2","area_type":"Rural","shop_code":"04DP094PN","search_string":"  arcot (tk) ranipet "},"bbox":[79.3161,12.9073,79.3161,12.9073]},{"type":"Feature","geometry":{"type":"Point","coordinates":[79.3298,12.908]},"properties":{"district":"Ranipet","taluk":"Arcot (Tk)","village":"Arcot Town","name":"Arcot Cooperative 4","area_type":"Urban","shop_code":"04DD004PN","search_string":"  arcot (tk) ranipet "},"bbox":[79.3298,12.908,79.3298,12.908]},{"type":"Feature","geometry":{"type":"Point","coordinates":[79.4113,12.9204]},"properties":{"district":"Ranipet","taluk":"Arcot (Tk)","village":"Kadapanthangal","name":"Kadapanthangal","area_type":"Rural","shop_code":"04DP133PN","search_string":"  arcot (tk) ranipet "},"bbox":[79.4113,12.9204,79.4113,12.9204]},{"type":"Feature","geometry":{"type":"Point","coordinates":[79.3838,12.6315]},"properties":{"district":"Ranipet","taluk":"Kalavai (TK)","village":"Vazyapandhal","name":"Vazyapandhal 1","area_type":"Rural","shop_code":"04DP006PN","search_string":"  kalavai (tk) ranipet "},"bbox":[79.3838,12.6315,79.3838,12.6315]},{"type":"Feature","geometry":{"type":"Point","coordinates":[79.3794,12.6325]},"properties":{"district":"Ranipet","taluk":"Kalavai (TK)","village":"Vazyapandhal","name":"Vazyapanthal 2","area_type":"Rural","shop_code":"04DP098PN","search_string":"  kalavai (tk) ranipet "},"bbox":[79.3794,12.6325,79.3794,12.6325]},{"type":"Feature","geometry":{"type":"Point","coordinates":[79.374,12.6528]},"properties":{"district":"Ranipet","taluk":"Kalavai (TK)","village":"Melpudupakkam","name":"Aayerpaadi","area_type":"Rural","shop_code":"04DP005P1","search_string":"  kalavai (tk) ranipet "},"bbox":[79.374,12.6528,79.374,12.6528]},{"type":"Feature","geometry":{"type":"Point","coordinates":[79.3934,12.6543]},"properties":{"district":"Ranipet","taluk":"Kalavai (TK)","village":"Melapayandhi","name":"Melapayandhi","area_type":"Rural","shop_code":"04DP007PN","search_string":"  kalavai (tk) ranipet "},"bbox":[79.3934,12.6543,79.3934,12.6543]},{"type":"Feature","geometry":{"type":"Point","coordinates":[79.3747,12.6602]},"properties":{"district":"Ranipet","taluk":"Kalavai (TK)","village":"Melpudupakkam","name":"Melpudupakkam","area_type":"Rural","shop_code":"04DP005PY","search_string":"  kalavai (tk) ranipet "},"bbox":[79.3747,12.6602,79.3747,12.6602]},{"type":"Feature","geometry":{"type":"Point","coordinates":[79.4135,12.6632]},"properties":{"district":"Ranipet","taluk":"Kalavai (TK)","village":"Soriyur","name":"Soraiyoor","area_type":"Rural","shop_code":"04DP008PN","search_string":"  kalavai (tk) ranipet "},"bbox":[79.4135,12.6632,79.4135,12.6632]},{"type":"Feature","geometry":{"type":"Point","coordinates":[79.4298,12.6735]},"properties":{"district":"Ranipet","taluk":"Kalavai (TK)","village":"Ponnambalam","name":"Ponnambalam","area_type":"Rural","shop_code":"04DP009PY","search_string":"  kalavai (tk) ranipet "},"bbox":[79.4298,12.6735,79.4298,12.6735]},{"type":"Feature","geometry":{"type":"Point","coordinates":[79.4193,12.674]},"properties":{"district":"Ranipet","taluk":"Kalavai (TK)","village":"Aaroor","name":"Aaroor","area_type":"Rural","shop_code":"04DP010PN","search_string":"  kalavai (tk) ranipet "},"bbox":[79.4193,12.674,79.4193,12.674]},{"type":"Feature","geometry":{"type":"Point","coordinates":[79.3972,12.6827]},"properties":{"district":"Ranipet","taluk":"Kalavai (TK)","village":"Mampakkam","name":"Mampakkam","area_type":"Rural","shop_code":"04DP004PN","search_string":"  kalavai (tk) ranipet "},"bbox":[79.3972,12.6827,79.3972,12.6827]},{"type":"Feature","geometry":{"type":"Point","coordinates":[79.4294,12.6854]},"properties":{"district":"Ranipet","taluk":"Kalavai (TK)","village":"Kannikapuram","name":"Kannikapuram","area_type":"Rural","shop_code":"04DP009P1","search_string":"  kalavai (tk) ranipet "},"bbox":[79.4294,12.6854,79.4294,12.6854]},{"type":"Feature","geometry":{"type":"Point","coordinates":[79.4433,12.694]},"properties":{"district":"Ranipet","taluk":"Kalavai (TK)","village":"Thattachare","name":"Thattachare","area_type":"Rural","shop_code":"04DP012PN","search_string":"  kalavai (tk) ranipet "},"bbox":[79.4433,12.694,79.4433,12.694]},{"type":"Feature","geometry":{"type":"Point","coordinates":[79.4021,12.6954]},"properties":{"district":"Ranipet","taluk":"Kalavai (TK)","village":"Kuppidisatham","name":"Kuppudisatham","area_type":"Rural","shop_code":"04DP016PN","search_string":"  kalavai (tk) ranipet "},"bbox":[79.4021,12.6954,79.4021,12.6954]},{"type":"Feature","geometry":{"type":"Point","coordinates":[79.4472,12.696]},"properties":{"district":"Ranipet","taluk":"Kalavai (TK)","village":"Irungur","name":"Irunggoor","area_type":"Rural","shop_code":"04DP013PY","search_string":"  kalavai (tk) ranipet "},"bbox":[79.4472,12.696,79.4472,12.696]},{"type":"Feature","geometry":{"type":"Point","coordinates":[79.4217,12.7042]},"properties":{"district":"Ranipet","taluk":"Kalavai (TK)","village":"Thonimedu","name":"Thonimedu","area_type":"Rural","shop_code":"04DP011PN","search_string":"  kalavai (tk) ranipet "},"bbox":[79.4217,12.7042,79.4217,12.7042]},{"type":"Feature","geometry":{"type":"Point","coordinates":[79.4379,12.7062]},"properties":{"district":"Ranipet","taluk":"Kalavai (TK)","village":"Marudham","name":"Marudham","area_type":"Rural","shop_code":"04DP013P1","search_string":"  kalavai (tk) ranipet "},"bbox":[79.4379,12.7062,79.4379,12.7062]},{"type":"Feature","geometry":{"type":"Point","coordinates":[79.3456,12.7069]},"properties":{"district":"Ranipet","taluk":"Kalavai (TK)","village":"Aayeramangalam","name":"Seeyambadi","area_type":"Rural","shop_code":"04DP085P1","search_string":"  kalavai (tk) ranipet "},"bbox":[79.3456,12.7069,79.3456,12.7069]},{"type":"Feature","geometry":{"type":"Point","coordinates":[79.3899,12.7093]},"properties":{"district":"Ranipet","taluk":"Kalavai (TK)","village":"Pariyamangalam","name":"Pariyamangalam","area_type":"Rural","shop_code":"04DP017PN","search_string":"  kalavai (tk) ranipet "},"bbox":[79.3899,12.7093,79.3899,12.7093]},{"type":"Feature","geometry":{"type":"Point","coordinates":[79.402,12.7141]},"properties":{"district":"Ranipet","taluk":"Kalavai (TK)","village":"Pennagar","name":"Pennagar Colony","area_type":"Rural","shop_code":"04DP073P1","search_string":"  kalavai (tk) ranipet "},"bbox":[79.402,12.7141,79.402,12.7141]},{"type":"Feature","geometry":{"type":"Point","coordinates":[79.4284,12.7145]},"properties":{"district":"Ranipet","taluk":"Kalavai (TK)","village":"Paali","name":"Paali","area_type":"Rural","shop_code":"04DP077PN","search_string":"  kalavai (tk) ranipet "},"bbox":[79.4284,12.7145,79.4284,12.7145]},{"type":"Feature","geometry":{"type":"Point","coordinates":[79.4032,12.7189]},"properties":{"district":"Ranipet","taluk":"Kalavai (TK)","village":"Pennagar","name":"Pennagar","area_type":"Rural","shop_code":"04DP073PY","search_string":"  kalavai (tk) ranipet "},"bbox":[79.4032,12.7189,79.4032,12.7189]},{"type":"Feature","geometry":{"type":"Point","coordinates":[79.37,12.7285]},"properties":{"district":"Ranipet","taluk":"Kalavai (TK)","village":"Senganavaram","name":"Senganavaram","area_type":"Rural","shop_code":"04DP076PN","search_string":"  kalavai (tk) ranipet "},"bbox":[79.37,12.7285,79.37,12.7285]},{"type":"Feature","geometry":{"type":"Point","coordinates":[79.4307,12.7286]},"properties":{"district":"Ranipet","taluk":"Kalavai (TK)","village":"Kodali","name":"Kodali","area_type":"Rural","shop_code":"04DP092P1","search_string":"  kalavai (tk) ranipet "},"bbox":[79.4307,12.7286,79.4307,12.7286]},{"type":"Feature","geometry":{"type":"Point","coordinates":[79.4516,12.7297]},"properties":{"district":"Ranipet","taluk":"Kalavai (TK)","village":"Melnelli","name":"Melnelli","area_type":"Rural","shop_code":"04DP015PN","search_string":"  kalavai (tk) ranipet "},"bbox":[79.4516,12.7297,79.4516,12.7297]},{"type":"Feature","geometry":{"type":"Point","coordinates":[79.3519,12.7297]},"properties":{"district":"Ranipet","taluk":"Kalavai (TK)","village":"Aayeramangalam","name":"Aayeramangalam","area_type":"Rural","shop_code":"04DP085PY","search_string":"  kalavai (tk) ranipet "},"bbox":[79.3519,12.7297,79.3519,12.7297]},{"type":"Feature","geometry":{"type":"Point","coordinates":[79.4071,12.7301]},"properties":{"district":"Ranipet","taluk":"Kalavai (TK)","village":"Melpulam","name":"Melpulam","area_type":"Rural","shop_code":"04DP071PN","search_string":"  kalavai (tk) ranipet "},"bbox":[79.4071,12.7301,79.4071,12.7301]},{"type":"Feature","geometry":{"type":"Point","coordinates":[79.3663,12.7314]},"properties":{"district":"Ranipet","taluk":"Kalavai (TK)","village":"Vellambi","name":"Vellambi","area_type":"Rural","shop_code":"04DP075PN","search_string":"  kalavai (tk) ranipet "},"bbox":[79.3663,12.7314,79.3663,12.7314]},{"type":"Feature","geometry":{"type":"Point","coordinates":[79.4081,12.7323]},"properties":{"district":"Ranipet","taluk":"Kalavai (TK)","village":"Vembi","name":"Vembi","area_type":"Rural","shop_code":"04DP070PY","search_string":"  kalavai (tk) ranipet "},"bbox":[79.4081,12.7323,79.4081,12.7323]},{"type":"Feature","geometry":{"type":"Point","coordinates":[79.417,12.7324]},"properties":{"district":"Ranipet","taluk":"Kalavai (TK)","village":"Vembi","name":"Vembi Colony","area_type":"Rural","shop_code":"04DP070P1","search_string":"  kalavai (tk) ranipet "},"bbox":[79.417,12.7324,79.417,12.7324]},{"type":"Feature","geometry":{"type":"Point","coordinates":[79.3888,12.7343]},"properties":{"district":"Ranipet","taluk":"Kalavai (TK)","village":"Athiyanam","name":"Athiyanam","area_type":"Rural","shop_code":"04DP072PN","search_string":"  kalavai (tk) ranipet "},"bbox":[79.3888,12.7343,79.3888,12.7343]},{"type":"Feature","geometry":{"type":"Point","coordinates":[79.3396,12.7348]},"properties":{"district":"Ranipet","taluk":"Kalavai (TK)","village":"Perumandhangal","name":"Perumandhangal","area_type":"Rural","shop_code":"04DP079PN","search_string":"  kalavai (tk) ranipet "},"bbox":[79.3396,12.7348,79.3396,12.7348]},{"type":"Feature","geometry":{"type":"Point","coordinates":[79.4233,12.7389]},"properties":{"district":"Ranipet","taluk":"Kalavai (TK)","village":"Chettanthangal","name":"Chettanthangal","area_type":"Rural","shop_code":"04DP092PY","search_string":"  kalavai (tk) ranipet "},"bbox":[79.4233,12.7389,79.4233,12.7389]},{"type":"Feature","geometry":{"type":"Point","coordinates":[79.4275,12.7451]},"properties":{"district":"Ranipet","taluk":"Kalavai (TK)","village":"Nellur","name":"Nelloor 2","area_type":"Rural","shop_code":"04DP087P1","search_string":"  kalavai (tk) ranipet "},"bbox":[79.4275,12.7451,79.4275,12.7451]},{"type":"Feature","geometry":{"type":"Point","coordinates":[79.3718,12.7471]},"properties":{"district":"Ranipet","taluk":"Kalavai (TK)","village":"Kuttiyam","name":"Kuttiyam","area_type":"Rural","shop_code":"04DP074PN","search_string":"  kalavai (tk) ranipet "},"bbox":[79.3718,12.7471,79.3718,12.7471]},{"type":"Feature","geometry":{"type":"Point","coordinates":[79.4527,12.7471]},"properties":{"district":"Ranipet","taluk":"Kalavai (TK)","village":"Chennasamuthiram","name":"Manthangal","area_type":"Rural","shop_code":"04DP086P2","search_string":"  kalavai (tk) ranipet "},"bbox":[79.4527,12.7471,79.4527,12.7471]},{"type":"Feature","geometry":{"type":"Point","coordinates":[79.3925,12.7498]},"properties":{"district":"Ranipet","taluk":"Kalavai (TK)","village":"Pinnathangal","name":"Pinnathangal","area_type":"Rural","shop_code":"04DP090PN","search_string":"  kalavai (tk) ranipet "},"bbox":[79.3925,12.7498,79.3925,12.7498]},{"type":"Feature","geometry":{"type":"Point","coordinates":[79.3199,12.7507]},"properties":{"district":"Ranipet","taluk":"Kalavai (TK)","village":"Nangamangalam","name":"Nangamangalam","area_type":"Rural","shop_code":"04DP078P1","search_string":"  kalavai (tk) ranipet "},"bbox":[79.3199,12.7507,79.3199,12.7507]},{"type":"Feature","geometry":{"type":"Point","coordinates":[79.3478,12.752]},"properties":{"district":"Ranipet","taluk":"Kalavai (TK)","village":"Valaiyathur","name":"Pallavarayan Kulam","area_type":"Rural","shop_code":"04DP084P2","search_string":"  kalavai (tk) ranipet "},"bbox":[79.3478,12.752,79.3478,12.752]},{"type":"Feature","geometry":{"type":"Point","coordinates":[79.4332,12.7534]},"properties":{"district":"Ranipet","taluk":"Kalavai (TK)","village":"Nellur","name":"Nelloor 1","area_type":"Rural","shop_code":"04DP087PY","search_string":"  kalavai (tk) ranipet "},"bbox":[79.4332,12.7534,79.4332,12.7534]},{"type":"Feature","geometry":{"type":"Point","coordinates":[79.335,12.7542]},"properties":{"district":"Ranipet","taluk":"Kalavai (TK)","village":"Valaiyathur","name":"Valaiyathur","area_type":"Rural","shop_code":"04DP084PY","search_string":"  kalavai (tk) ranipet "},"bbox":[79.335,12.7542,79.335,12.7542]},{"type":"Feature","geometry":{"type":"Point","coordinates":[79.4036,12.7613]},"properties":{"district":"Ranipet","taluk":"Kalavai (TK)","village":"Kalaviputhur","name":"Kalavaiputthur","area_type":"Rural","shop_code":"04DP089PN","search_string":"  kalavai (tk) ranipet "},"bbox":[79.4036,12.7613,79.4036,12.7613]},{"type":"Feature","geometry":{"type":"Point","coordinates":[79.4439,12.7648]},"properties":{"district":"Ranipet","taluk":"Kalavai (TK)","village":"Chennasamuthiram","name":"Chennasamuthiram","area_type":"Rural","shop_code":"04DP086PY","search_string":"  kalavai (tk) ranipet "},"bbox":[79.4439,12.7648,79.4439,12.7648]},{"type":"Feature","geometry":{"type":"Point","coordinates":[79.4556,12.7653]},"properties":{"district":"Ranipet","taluk":"Kalavai (TK)","village":"Chennasamuthiram","name":"Chennasamuthiram 2","area_type":"Rural","shop_code":"04DP086P1","search_string":"  kalavai (tk) ranipet "},"bbox":[79.4556,12.7653,79.4556,12.7653]},{"type":"Feature","geometry":{"type":"Point","coordinates":[79.344,12.7665]},"properties":{"district":"Ranipet","taluk":"Kalavai (TK)","village":"Valaiyathur","name":"Varatharajapuram","area_type":"Rural","shop_code":"04DP084P1","search_string":"  kalavai (tk) ranipet "},"bbox":[79.344,12.7665,79.344,12.7665]},{"type":"Feature","geometry":{"type":"Point","coordinates":[79.4182,12.767]},"properties":{"district":"Ranipet","taluk":"Kalavai (TK)","village":"Kalavai Town","name":"Kalavai Kamathanu Hq","area_type":"Urban","shop_code":"04DP104PN","search_string":"  kalavai (tk) ranipet "},"bbox":[79.4182,12.767,79.4182,12.767]},{"type":"Feature","geometry":{"type":"Point","coordinates":[79.4207,12.767]},"properties":{"district":"Ranipet","taluk":"Kalavai (TK)","village":"Kalavai Town","name":"Kalavai Pacb 2","area_type":"Urban","shop_code":"04DP096PY","search_string":"  kalavai (tk) ranipet "},"bbox":[79.4207,12.767,79.4207,12.767]},{"type":"Feature","geometry":{"type":"Point","coordinates":[79.4243,12.7692]},"properties":{"district":"Ranipet","taluk":"Kalavai (TK)","village":"Kalavai Town","name":"Kalavai Pacb 3","area_type":"Urban","shop_code":"04DP096P1","search_string":"  kalavai (tk) ranipet "},"bbox":[79.4243,12.7692,79.4243,12.7692]},{"type":"Feature","geometry":{"type":"Point","coordinates":[79.4153,12.7716]},"properties":{"district":"Ranipet","taluk":"Kalavai (TK)","village":"Kalavai Town","name":"Kalavai Pacb 1","area_type":"Urban","shop_code":"04DP095PN","search_string":"  kalavai (tk) ranipet "},"bbox":[79.4153,12.7716,79.4153,12.7716]},{"type":"Feature","geometry":{"type":"Point","coordinates":[79.415,12.772]},"properties":{"district":"Ranipet","taluk":"Kalavai (TK)","village":"Cheruvedagam","name":"Siruvidagam","area_type":"Rural","shop_code":"04DP113PN","search_string":"  kalavai (tk) ranipet "},"bbox":[79.415,12.772,79.415,12.772]},{"type":"Feature","geometry":{"type":"Point","coordinates":[79.408,12.774]},"properties":{"district":"Ranipet","taluk":"Kalavai (TK)","village":"Agaram","name":"Agaram","area_type":"Rural","shop_code":"04DP091PN","search_string":"  kalavai (tk) ranipet "},"bbox":[79.408,12.774,79.408,12.774]},{"type":"Feature","geometry":{"type":"Point","coordinates":[79.4339,12.7792]},"properties":{"district":"Ranipet","taluk":"Kalavai (TK)","village":"Barikalpattu","name":"Barikalpattu","area_type":"Rural","shop_code":"04DP061PY","search_string":"  kalavai (tk) ranipet "},"bbox":[79.4339,12.7792,79.4339,12.7792]},{"type":"Feature","geometry":{"type":"Point","coordinates":[79.4154,12.7831]},"properties":{"district":"Ranipet","taluk":"Kalavai (TK)","village":"Allalacheri","name":"Allalacheri","area_type":"Rural","shop_code":"04DP059PY","search_string":"  kalavai (tk) ranipet "},"bbox":[79.4154,12.7831,79.4154,12.7831]},{"type":"Feature","geometry":{"type":"Point","coordinates":[79.4318,12.7834]},"properties":{"district":"Ranipet","taluk":"Kalavai (TK)","village":"Chennalare","name":"Chennalare","area_type":"Rural","shop_code":"04DP061P1","search_string":"  kalavai (tk) ranipet "},"bbox":[79.4318,12.7834,79.4318,12.7834]},{"type":"Feature","geometry":{"type":"Point","coordinates":[79.4217,12.7881]},"properties":{"district":"Ranipet","taluk":"Kalavai (TK)","village":"Mettu Nagaleri","name":"Mettu Nagaleri","area_type":"Rural","shop_code":"04DP060P1","search_string":"  kalavai (tk) ranipet "},"bbox":[79.4217,12.7881,79.4217,12.7881]},{"type":"Feature","geometry":{"type":"Point","coordinates":[79.4274,12.7887]},"properties":{"district":"Ranipet","taluk":"Kalavai (TK)","village":"Nagalari","name":"Nagalari","area_type":"Rural","shop_code":"04DP060PY","search_string":"  kalavai (tk) ranipet "},"bbox":[79.4274,12.7887,79.4274,12.7887]},{"type":"Feature","geometry":{"type":"Point","coordinates":[79.3911,12.7917]},"properties":{"district":"Ranipet","taluk":"Kalavai (TK)","village":"Mel Neathapakkam","name":"Mel Neathapakkam","area_type":"Rural","shop_code":"04DP088PN","search_string":"  kalavai (tk) ranipet "},"bbox":[79.3911,12.7917,79.3911,12.7917]},{"type":"Feature","geometry":{"type":"Point","coordinates":[79.3504,12.802]},"properties":{"district":"Ranipet","taluk":"Kalavai (TK)","village":"Kaniyanur","name":"Kaniyanur","area_type":"Rural","shop_code":"04DP062PY","search_string":"  kalavai (tk) ranipet "},"bbox":[79.3504,12.802,79.3504,12.802]},{"type":"Feature","geometry":{"type":"Point","coordinates":[79.4169,12.8044]},"properties":{"district":"Ranipet","taluk":"Kalavai (TK)","village":"Allalacheri","name":"Kalavai Kuutroad","area_type":"Rural","shop_code":"04DP059P1","search_string":"  kalavai (tk) ranipet "},"bbox":[79.4169,12.8044,79.4169,12.8044]},{"type":"Feature","geometry":{"type":"Point","coordinates":[79.3438,12.8102]},"properties":{"district":"Ranipet","taluk":"Kalavai (TK)","village":"Kezypadi","name":"Kezypaadi","area_type":"Rural","shop_code":"04DP130PN","search_string":"  kalavai (tk) ranipet "},"bbox":[79.3438,12.8102,79.3438,12.8102]},{"type":"Feature","geometry":{"type":"Point","coordinates":[79.3291,12.8119]},"properties":{"district":"Ranipet","taluk":"Kalavai (TK)","village":"Maruthamangalam","name":"Maruthamangalam","area_type":"Rural","shop_code":"04DP039PN","search_string":"  kalavai (tk) ranipet "},"bbox":[79.3291,12.8119,79.3291,12.8119]},{"type":"Feature","geometry":{"type":"Point","coordinates":[79.329,12.813]},"properties":{"district":"Ranipet","taluk":"Kalavai (TK)","village":"Paziyanur","name":"Pazyanoor","area_type":"Rural","shop_code":"04DP040PN","search_string":"  kalavai (tk) ranipet "},"bbox":[79.329,12.813,79.329,12.813]},{"type":"Feature","geometry":{"type":"Point","coordinates":[79.5592,12.8603]},"properties":{"district":"Ranipet","taluk":"Nemili","village":"Sankaranpadi","name":"Sankaranpadi","area_type":"Rural","shop_code":"04LP056PN","search_string":"  nemili ranipet "},"bbox":[79.5592,12.8603,79.5592,12.8603]},{"type":"Feature","geometry":{"type":"Point","coordinates":[79.5403,12.8731]},"properties":{"district":"Ranipet","taluk":"Nemili","village":"Kalathur","name":"Kalathur","area_type":"Rural","shop_code":"04LP053PN","search_string":"  nemili ranipet "},"bbox":[79.5403,12.8731,79.5403,12.8731]},{"type":"Feature","geometry":{"type":"Point","coordinates":[79.4914,12.8763]},"properties":{"district":"Ranipet","taluk":"Nemili","village":"Vegamangalam","name":"Vegamangalam","area_type":"Rural","shop_code":"04LP024PN","search_string":"  nemili ranipet "},"bbox":[79.4914,12.8763,79.4914,12.8763]},{"type":"Feature","geometry":{"type":"Point","coordinates":[79.5041,12.8778]},"properties":{"district":"Ranipet","taluk":"Nemili","village":"Mamandur","name":"Mamandur","area_type":"Rural","shop_code":"04LP026PN","search_string":"  nemili ranipet "},"bbox":[79.5041,12.8778,79.5041,12.8778]},{"type":"Feature","geometry":{"type":"Point","coordinates":[79.5294,12.8916]},"properties":{"district":"Ranipet","taluk":"Nemili","village":"Chittanji","name":"Chittanji","area_type":"Rural","shop_code":"04LP066P3","search_string":"  nemili ranipet "},"bbox":[79.5294,12.8916,79.5294,12.8916]},{"type":"Feature","geometry":{"type":"Point","coordinates":[79.5134,12.8916]},"properties":{"district":"Ranipet","taluk":"Nemili","village":"Karivedu","name":"karivedu","area_type":"Rural","shop_code":"04LP027PY","search_string":"  nemili ranipet "},"bbox":[79.5134,12.8916,79.5134,12.8916]},{"type":"Feature","geometry":{"type":"Point","coordinates":[79.4895,12.8926]},"properties":{"district":"Ranipet","taluk":"Nemili","village":"Sirukarumbur","name":"Sirukarumbur","area_type":"Rural","shop_code":"04LP023PN","search_string":"  nemili ranipet "},"bbox":[79.4895,12.8926,79.4895,12.8926]},{"type":"Feature","geometry":{"type":"Point","coordinates":[79.5566,12.8948]},"properties":{"district":"Ranipet","taluk":"Nemili","village":"Perumpulipakkam","name":"Perumpulipakkam","area_type":"Rural","shop_code":"04LP055PY","search_string":"  nemili ranipet "},"bbox":[79.5566,12.8948,79.5566,12.8948]},{"type":"Feature","geometry":{"type":"Point","coordinates":[79.5435,12.8964]},"properties":{"district":"Ranipet","taluk":"Nemili","village":"Avalur","name":"Avalur","area_type":"Rural","shop_code":"04LP054PN","search_string":"  nemili ranipet "},"bbox":[79.5435,12.8964,79.5435,12.8964]},{"type":"Feature","geometry":{"type":"Point","coordinates":[79.5539,12.8979]},"properties":{"district":"Ranipet","taluk":"Nemili","village":"Nangamangalam","name":"Nangamangalam","area_type":"Rural","shop_code":"04LP064PN","search_string":"  nemili ranipet "},"bbox":[79.5539,12.8979,79.5539,12.8979]},{"type":"Feature","geometry":{"type":"Point","coordinates":[79.5569,12.8987]},"properties":{"district":"Ranipet","taluk":"Nemili","village":"Samathuvapuram","name":"Samathuvpuram","area_type":"Rural","shop_code":"04LP055P1","search_string":"  nemili ranipet "},"bbox":[79.5569,12.8987,79.5569,12.8987]},{"type":"Feature","geometry":{"type":"Point","coordinates":[79.5079,12.8988]},"properties":{"district":"Ranipet","taluk":"Nemili","village":"Ocheri","name":"Ocheri","area_type":"Rural","shop_code":"04LP017PN","search_string":"  nemili ranipet "},"bbox":[79.5079,12.8988,79.5079,12.8988]},{"type":"Feature","geometry":{"type":"Point","coordinates":[79.4584,12.8998]},"properties":{"district":"Ranipet","taluk":"Nemili","village":"Veliyanallur","name":"Velliyanalur","area_type":"Rural","shop_code":"04LP028PY","search_string":"  nemili ranipet "},"bbox":[79.4584,12.8998,79.4584,12.8998]},{"type":"Feature","geometry":{"type":"Point","coordinates":[79.4584,12.8998]},"properties":{"district":"Ranipet","taluk":"Nemili","village":"Uthirampattu","name":"Uthirampattu","area_type":"Rural","shop_code":"04LP019PN","search_string":"  nemili ranipet "},"bbox":[79.4584,12.8998,79.4584,12.8998]},{"type":"Feature","geometry":{"type":"Point","coordinates":[79.5095,12.9002]},"properties":{"district":"Ranipet","taluk":"Nemili","village":"Ayarpadi","name":"Ayarpadi","area_type":"Rural","shop_code":"04LP016PN","search_string":"  nemili ranipet "},"bbox":[79.5095,12.9002,79.5095,12.9002]},{"type":"Feature","geometry":{"type":"Point","coordinates":[79.458,12.9027]},"properties":{"district":"Ranipet","taluk":"Nemili","village":"Kondapuram","name":"Roadshop","area_type":"Urban","shop_code":"04LP013P1","search_string":"  nemili ranipet "},"bbox":[79.458,12.9027,79.458,12.9027]},{"type":"Feature","geometry":{"type":"Point","coordinates":[79.4631,12.9031]},"properties":{"district":"Ranipet","taluk":"Nemili","village":"Kondapuram","name":"Kondapuram","area_type":"Urban","shop_code":"04LP013PY","search_string":"  nemili ranipet "},"bbox":[79.4631,12.9031,79.4631,12.9031]},{"type":"Feature","geometry":{"type":"Point","coordinates":[79.5618,12.9054]},"properties":{"district":"Ranipet","taluk":"Nemili","village":"Poigainallur","name":"Poigainallur","area_type":"Rural","shop_code":"04LP061PN","search_string":"  nemili ranipet "},"bbox":[79.5618,12.9054,79.5618,12.9054]},{"type":"Feature","geometry":{"type":"Point","coordinates":[79.4628,12.9062]},"properties":{"district":"Ranipet","taluk":"Nemili","village":"Kaveripakkam","name":"Karpagam-016","area_type":"Rural","shop_code":"04LB001PN","search_string":"  nemili ranipet "},"bbox":[79.4628,12.9062,79.4628,12.9062]},{"type":"Feature","geometry":{"type":"Point","coordinates":[79.5812,12.9068]},"properties":{"district":"Ranipet","taluk":"Nemili","village":"Pillaipakkam","name":"Pillaipakkam","area_type":"Rural","shop_code":"04LP028P1","search_string":"  nemili ranipet "},"bbox":[79.5812,12.9068,79.5812,12.9068]},{"type":"Feature","geometry":{"type":"Point","coordinates":[79.4623,12.9071]},"properties":{"district":"Ranipet","taluk":"Nemili","village":"Kaveripakkam","name":"Karpagam-017","area_type":"Rural","shop_code":"04LB002PN","search_string":"  nemili ranipet "},"bbox":[79.4623,12.9071,79.4623,12.9071]},{"type":"Feature","geometry":{"type":"Point","coordinates":[79.4908,12.9073]},"properties":{"district":"Ranipet","taluk":"Nemili","village":"Eralacheri","name":"Eralacheri","area_type":"Rural","shop_code":"04LP025PN","search_string":"  nemili ranipet "},"bbox":[79.4908,12.9073,79.4908,12.9073]},{"type":"Feature","geometry":{"type":"Point","coordinates":[79.4613,12.9084]},"properties":{"district":"Ranipet","taluk":"Nemili","village":"Kaveripakkam","name":"Kaveripakkam-1","area_type":"Urban","shop_code":"04LP012PN","search_string":"  nemili ranipet "},"bbox":[79.4613,12.9084,79.4613,12.9084]},{"type":"Feature","geometry":{"type":"Point","coordinates":[79.5256,12.91]},"properties":{"district":"Ranipet","taluk":"Nemili","village":"Dharmanidhi","name":"Dharmanidhi","area_type":"Rural","shop_code":"04LP018PN","search_string":"  nemili ranipet "},"bbox":[79.5256,12.91,79.5256,12.91]},{"type":"Feature","geometry":{"type":"Point","coordinates":[79.6013,12.9122]},"properties":{"district":"Ranipet","taluk":"Nemili","village":"Jagirthandalam","name":"Jagirthandalam","area_type":"Rural","shop_code":"04CP070PY","search_string":"  nemili ranipet "},"bbox":[79.6013,12.9122,79.6013,12.9122]},{"type":"Feature","geometry":{"type":"Point","coordinates":[79.6083,12.9128]},"properties":{"district":"Ranipet","taluk":"Nemili","village":"Melvenbakkam","name":"Melvenbakkam","area_type":"Rural","shop_code":"04CP072PN","search_string":"  nemili ranipet "},"bbox":[79.6083,12.9128,79.6083,12.9128]},{"type":"Feature","geometry":{"type":"Point","coordinates":[79.5441,12.913]},"properties":{"district":"Ranipet","taluk":"Nemili","village":"Melapulam","name":"Melapulam","area_type":"Rural","shop_code":"04LP062PN","search_string":"  nemili ranipet "},"bbox":[79.5441,12.913,79.5441,12.913]},{"type":"Feature","geometry":{"type":"Point","coordinates":[79.5646,12.9208]},"properties":{"district":"Ranipet","taluk":"Nemili","village":"Panapakkam","name":"Panapakkam - 3","area_type":"Urban","shop_code":"04LP065PN","search_string":"  nemili ranipet "},"bbox":[79.5646,12.9208,79.5646,12.9208]},{"type":"Feature","geometry":{"type":"Point","coordinates":[79.5673,12.921]},"properties":{"district":"Ranipet","taluk":"Nemili","village":"Panapakkam","name":"Panapakkam -1","area_type":"Urban","shop_code":"04LP058PN","search_string":"  nemili ranipet "},"bbox":[79.5673,12.921,79.5673,12.921]},{"type":"Feature","geometry":{"type":"Point","coordinates":[79.5735,12.9222]},"properties":{"district":"Ranipet","taluk":"Nemili","village":"Panapakkam","name":"Panapakkam-2","area_type":"Urban","shop_code":"04LP059PN","search_string":"  nemili ranipet "},"bbox":[79.5735,12.9222,79.5735,12.9222]},{"type":"Feature","geometry":{"type":"Point","coordinates":[79.5828,12.924]},"properties":{"district":"Ranipet","taluk":"Nemili","village":"Thenmambakkam","name":"Thenmambakkam","area_type":"Urban","shop_code":"04LP063PN","search_string":"  nemili ranipet "},"bbox":[79.5828,12.924,79.5828,12.924]},{"type":"Feature","geometry":{"type":"Point","coordinates":[79.6315,12.925]},"properties":{"district":"Ranipet","taluk":"Nemili","village":"Kilvenbakkam","name":"Kilvenbakkam","area_type":"Rural","shop_code":"04CP073PN","search_string":"  nemili ranipet "},"bbox":[79.6315,12.925,79.6315,12.925]},{"type":"Feature","geometry":{"type":"Point","coordinates":[79.46,12.9254]},"properties":{"district":"Ranipet","taluk":"Nemili","village":"Kattalai","name":"Kattalai","area_type":"Urban","shop_code":"04LP015PN","search_string":"  nemili ranipet "},"bbox":[79.46,12.9254,79.46,12.9254]},{"type":"Feature","geometry":{"type":"Point","coordinates":[79.5701,12.9263]},"properties":{"district":"Ranipet","taluk":"Nemili","village":"Nedumpuli","name":"Nedumpuli","area_type":"Rural","shop_code":"04LP057PN","search_string":"  nemili ranipet "},"bbox":[79.5701,12.9263,79.5701,12.9263]},{"type":"Feature","geometry":{"type":"Point","coordinates":[79.6038,12.9289]},"properties":{"district":"Ranipet","taluk":"Nemili","village":"Jagirthandalam","name":"Jagirthandalam Kandigai","area_type":"Rural","shop_code":"04CP070P1","search_string":"  nemili ranipet "},"bbox":[79.6038,12.9289,79.6038,12.9289]},{"type":"Feature","geometry":{"type":"Point","coordinates":[79.4853,12.9298]},"properties":{"district":"Ranipet","taluk":"Nemili","village":"Thuraiperumbakkam","name":"Thuraiperumbakkam","area_type":"Urban","shop_code":"04LP014PN","search_string":"  nemili ranipet "},"bbox":[79.4853,12.9298,79.4853,12.9298]},{"type":"Feature","geometry":{"type":"Point","coordinates":[79.6128,12.9357]},"properties":{"district":"Ranipet","taluk":"Nemili","village":"Periya Thennal","name":"Periya Thennal","area_type":"Rural","shop_code":"04CP130P1","search_string":"  nemili ranipet "},"bbox":[79.6128,12.9357,79.6128,12.9357]},{"type":"Feature","geometry":{"type":"Point","coordinates":[79.591,12.9364]},"properties":{"district":"Ranipet","taluk":"Nemili","village":"Reddivalam","name":"Reddivalam","area_type":"Rural","shop_code":"04LP060PN","search_string":"  nemili ranipet "},"bbox":[79.591,12.9364,79.591,12.9364]},{"type":"Feature","geometry":{"type":"Point","coordinates":[79.642,12.937]},"properties":{"district":"Ranipet","taluk":"Nemili","village":"Thirumalpur","name":"Tirumalpur -2","area_type":"Rural","shop_code":"04CP191PN","search_string":"  nemili ranipet "},"bbox":[79.642,12.937,79.642,12.937]},{"type":"Feature","geometry":{"type":"Point","coordinates":[79.6274,12.9371]},"properties":{"district":"Ranipet","taluk":"Nemili","village":"Skolathur","name":"S.Kulathur","area_type":"Rural","shop_code":"04CP074PN","search_string":"  nemili ranipet "},"bbox":[79.6274,12.9371,79.6274,12.9371]},{"type":"Feature","geometry":{"type":"Point","coordinates":[79.4664,12.9382]},"properties":{"district":"Ranipet","taluk":"Nemili","village":"T Cherry","name":"T.Cherry 2","area_type":"Rural","shop_code":"04LP066P2","search_string":"  nemili ranipet "},"bbox":[79.4664,12.9382,79.4664,12.9382]},{"type":"Feature","geometry":{"type":"Point","coordinates":[79.6415,12.939]},"properties":{"district":"Ranipet","taluk":"Nemili","village":"Thirumalpur","name":"Thirumalpur","area_type":"Rural","shop_code":"04CP129PN","search_string":"  nemili ranipet "},"bbox":[79.6415,12.939,79.6415,12.939]},{"type":"Feature","geometry":{"type":"Point","coordinates":[79.5265,12.9395]},"properties":{"district":"Ranipet","taluk":"Nemili","village":"Peruvalaiyam","name":"Peruvaliyam","area_type":"Rural","shop_code":"04LP038PY","search_string":"  nemili ranipet "},"bbox":[79.5265,12.9395,79.5265,12.9395]},{"type":"Feature","geometry":{"type":"Point","coordinates":[79.4689,12.9403]},"properties":{"district":"Ranipet","taluk":"Nemili","village":"Pudupattu","name":"Pilliyar Kuppam","area_type":"Rural","shop_code":"04LP069P1","search_string":"  nemili ranipet "},"bbox":[79.4689,12.9403,79.4689,12.9403]},{"type":"Feature","geometry":{"type":"Point","coordinates":[79.6384,12.9423]},"properties":{"district":"Ranipet","taluk":"Nemili","village":"Nelvoy","name":"Nelvoy","area_type":"Rural","shop_code":"04CP130PY","search_string":"  nemili ranipet "},"bbox":[79.6384,12.9423,79.6384,12.9423]},{"type":"Feature","geometry":{"type":"Point","coordinates":[79.4758,12.9435]},"properties":{"district":"Ranipet","taluk":"Nemili","village":"Manganipattu","name":"Maganipattu","area_type":"Rural","shop_code":"04LP068PN","search_string":"  nemili ranipet "},"bbox":[79.4758,12.9435,79.4758,12.9435]},{"type":"Feature","geometry":{"type":"Point","coordinates":[79.5026,12.9446]},"properties":{"district":"Ranipet","taluk":"Nemili","village":"Alapakkam","name":"Alapakkam","area_type":"Rural","shop_code":"04LP070PN","search_string":"  nemili ranipet "},"bbox":[79.5026,12.9446,79.5026,12.9446]},{"type":"Feature","geometry":{"type":"Point","coordinates":[79.5946,12.9448]},"properties":{"district":"Ranipet","taluk":"Nemili","village":"Agavalam","name":"Agavalam","area_type":"Rural","shop_code":"04LP082PY","search_string":"  nemili ranipet "},"bbox":[79.5946,12.9448,79.5946,12.9448]},{"type":"Feature","geometry":{"type":"Point","coordinates":[79.4675,12.9506]},"properties":{"district":"Ranipet","taluk":"Nemili","village":"T Cherry","name":"Upparan Thangal","area_type":"Rural","shop_code":"04LP066P1","search_string":"  nemili ranipet "},"bbox":[79.4675,12.9506,79.4675,12.9506]},{"type":"Feature","geometry":{"type":"Point","coordinates":[79.6257,12.9509]},"properties":{"district":"Ranipet","taluk":"Nemili","village":"Kattukandigai","name":"Kattukandigai","area_type":"Rural","shop_code":"04CP104P2","search_string":"  nemili ranipet "},"bbox":[79.6257,12.9509,79.6257,12.9509]},{"type":"Feature","geometry":{"type":"Point","coordinates":[79.5335,12.9536]},"properties":{"district":"Ranipet","taluk":"Nemili","village":"Lakshmipuram","name":"Lakshipuram","area_type":"Rural","shop_code":"04LP035P1","search_string":"  nemili ranipet "},"bbox":[79.5335,12.9536,79.5335,12.9536]},{"type":"Feature","geometry":{"type":"Point","coordinates":[79.5622,12.9563]},"properties":{"district":"Ranipet","taluk":"Nemili","village":"Thuraiyur","name":"Thuriur","area_type":"Rural","shop_code":"04LP039PN","search_string":"  nemili ranipet "},"bbox":[79.5622,12.9563,79.5622,12.9563]},{"type":"Feature","geometry":{"type":"Point","coordinates":[79.5933,12.9592]},"properties":{"district":"Ranipet","taluk":"Nemili","village":"Mettuvettankulam","name":"Mettuvettankulam","area_type":"Rural","shop_code":"04LP082P1","search_string":"  nemili ranipet "},