{"type":"FeatureCollection","features":[{"type":"Feature","geometry":{"type":"Point","coordinates":[78.0469,11.806]},"properties":{"district":"Salem","taluk":"Kadayampatti","village":"Kalarkadu","name":"Kalarkadu","area_type":"Rural","shop_code":"07MP108P1","search_string":"  kadayampatti salem "},"bbox":[78.0469,11.806,78.0469,11.806]},{"type":"Feature","geometry":{"type":"Point","coordinates":[78.1704,11.6792]},"properties":{"district":"Salem","taluk":"Salem (Tk)","village":"Salem","name":"Erikkadu","area_type":"Urban","shop_code":"07AC011PN","search_string":"  salem (tk) salem "},"bbox":[78.1704,11.6792,78.1704,11.6792]},{"type":"Feature","geometry":{"type":"Point","coordinates":[78.1703,11.6801]},"properties":{"district":"Salem","taluk":"Salem (Tk)","village":"Salem","name":"Gandhinagar","area_type":"Urban","shop_code":"07AC178PN","search_string":"  salem (tk) salem "},"bbox":[78.1703,11.6801,78.1703,11.6801]},{"type":"Feature","geometry":{"type":"Point","coordinates":[78.17,11.6801]},"properties":{"district":"Salem","taluk":"Salem (Tk)","village":"Salem","name":"Kumarasamypatty","area_type":"Urban","shop_code":"07AC010PN","search_string":"  salem (tk) salem "},"bbox":[78.17,11.6801,78.17,11.6801]},{"type":"Feature","geometry":{"type":"Point","coordinates":[78.165,11.6804]},"properties":{"district":"Salem","taluk":"Salem (Tk)","village":"Salem","name":"Bharathi Nagar","area_type":"Urban","shop_code":"07AE004PN","search_string":"  salem (tk) salem "},"bbox":[78.165,11.6804,78.165,11.6804]},{"type":"Feature","geometry":{"type":"Point","coordinates":[77.8743,11.4229]},"properties":{"district":"Salem","taluk":"Sankagiri (Tk)","village":"Morur","name":"Morur -2","area_type":"Rural","shop_code":"07GP012PN","search_string":"  sankagiri (tk) salem "},"bbox":[77.8743,11.4229,77.8743,11.4229]},{"type":"Feature","geometry":{"type":"Point","coordinates":[77.8857,11.4297]},"properties":{"district":"Salem","taluk":"Sankagiri (Tk)","village":"Morur","name":"Pullipalayam","area_type":"Rural","shop_code":"07GP013P1","search_string":"  sankagiri (tk) salem "},"bbox":[77.8857,11.4297,77.8857,11.4297]},{"type":"Feature","geometry":{"type":"Point","coordinates":[78.588,11.4894]},"properties":{"district":"Salem","taluk":"Attur (Tk)","village":"Paithur","name":"Koolamedu","area_type":"Rural","shop_code":"07BP148PN","search_string":"  attur (tk) salem "},"bbox":[78.588,11.4894,78.588,11.4894]},{"type":"Feature","geometry":{"type":"Point","coordinates":[78.558,11.5049]},"properties":{"district":"Salem","taluk":"Attur (Tk)","village":"Paithur","name":"Thavalapatti","area_type":"Rural","shop_code":"07BP074P1","search_string":"  attur (tk) salem "},"bbox":[78.558,11.5049,78.558,11.5049]},{"type":"Feature","geometry":{"type":"Point","coordinates":[78.5169,11.5138]},"properties":{"district":"Salem","taluk":"Attur (Tk)","village":"Keeripatti","name":"Keelthombai","area_type":"Urban","shop_code":"07BP053PN","search_string":"  attur (tk) salem "},"bbox":[78.5169,11.5138,78.5169,11.5138]},{"type":"Feature","geometry":{"type":"Point","coordinates":[78.488,11.5208]},"properties":{"district":"Salem","taluk":"Attur (Tk)","village":"Keeripatti","name":"Koranikaradu","area_type":"Urban","shop_code":"07BP117PN","search_string":"  attur (tk) salem "},"bbox":[78.488,11.5208,78.488,11.5208]},{"type":"Feature","geometry":{"type":"Point","coordinates":[78.6151,11.5282]},"properties":{"district":"Salem","taluk":"Attur (Tk)","village":"Pungavadi","name":"Pungavaadi","area_type":"Rural","shop_code":"07BP072PY","search_string":"  attur (tk) salem "},"bbox":[78.6151,11.5282,78.6151,11.5282]},{"type":"Feature","geometry":{"type":"Point","coordinates":[78.6174,11.5287]},"properties":{"district":"Salem","taluk":"Attur (Tk)","village":"Pungavadi","name":"MGR Colony","area_type":"Rural","shop_code":"07BP150PN","search_string":"  attur (tk) salem "},"bbox":[78.6174,11.5287,78.6174,11.5287]},{"type":"Feature","geometry":{"type":"Point","coordinates":[78.601,11.5293]},"properties":{"district":"Salem","taluk":"Attur (Tk)","village":"Pungavadi","name":"Pungavaadi Puthur","area_type":"Rural","shop_code":"07BP072P1","search_string":"  attur (tk) salem "},"bbox":[78.601,11.5293,78.601,11.5293]},{"type":"Feature","geometry":{"type":"Point","coordinates":[78.4894,11.5332]},"properties":{"district":"Salem","taluk":"Attur (Tk)","village":"Keeripatti","name":"Keeripatti 3","area_type":"Urban","shop_code":"07BP158PN","search_string":"  attur (tk) salem "},"bbox":[78.4894,11.5332,78.4894,11.5332]},{"type":"Feature","geometry":{"type":"Point","coordinates":[78.4895,11.5376]},"properties":{"district":"Salem","taluk":"Attur (Tk)","village":"Keeripatti","name":"Kiripatti 2","area_type":"Urban","shop_code":"07BP052PN","search_string":"  attur (tk) salem "},"bbox":[78.4895,11.5376,78.4895,11.5376]},{"type":"Feature","geometry":{"type":"Point","coordinates":[78.4924,11.54]},"properties":{"district":"Salem","taluk":"Attur (Tk)","village":"Keeripatti","name":"Kiripatti 1","area_type":"Urban","shop_code":"07BP051PN","search_string":"  attur (tk) salem "},"bbox":[78.4924,11.54,78.4924,11.54]},{"type":"Feature","geometry":{"type":"Point","coordinates":[78.578,11.5409]},"properties":{"district":"Salem","taluk":"Attur (Tk)","village":"Paithur","name":"Paithur 2","area_type":"Rural","shop_code":"07BP074PY","search_string":"  attur (tk) salem "},"bbox":[78.578,11.5409,78.578,11.5409]},{"type":"Feature","geometry":{"type":"Point","coordinates":[78.4851,11.5504]},"properties":{"district":"Salem","taluk":"Attur (Tk)","village":"Arasanatham","name":"Kanthasaamy Puthur","area_type":"Rural","shop_code":"07BP060PN","search_string":"  attur (tk) salem "},"bbox":[78.4851,11.5504,78.4851,11.5504]},{"type":"Feature","geometry":{"type":"Point","coordinates":[78.594,11.552]},"properties":{"district":"Salem","taluk":"Attur (Tk)","village":"Paithur","name":"Paithur 1","area_type":"Rural","shop_code":"07BP073PY","search_string":"  attur (tk) salem "},"bbox":[78.594,11.552,78.594,11.552]},{"type":"Feature","geometry":{"type":"Point","coordinates":[78.6333,11.5569]},"properties":{"district":"Salem","taluk":"Attur (Tk)","village":"Manjini","name":"Manjini Angaadi 2","area_type":"Rural","shop_code":"07BP076PN","search_string":"  attur (tk) salem "},"bbox":[78.6333,11.5569,78.6333,11.5569]},{"type":"Feature","geometry":{"type":"Point","coordinates":[78.6333,11.557]},"properties":{"district":"Salem","taluk":"Attur (Tk)","village":"Manjini","name":"Manjini Angaadi 1","area_type":"Rural","shop_code":"07BP075PN","search_string":"  attur (tk) salem "},"bbox":[78.6333,11.557,78.6333,11.557]},{"type":"Feature","geometry":{"type":"Point","coordinates":[78.4709,11.5597]},"properties":{"district":"Salem","taluk":"Attur (Tk)","village":"Arasanatham","name":"Arasanatham","area_type":"Rural","shop_code":"07BP059PY","search_string":"  attur (tk) salem "},"bbox":[78.4709,11.5597,78.4709,11.5597]},{"type":"Feature","geometry":{"type":"Point","coordinates":[78.5191,11.5627]},"properties":{"district":"Salem","taluk":"Attur (Tk)","village":"Keeripatti","name":"Malaiyampatti","area_type":"Rural","shop_code":"07BP122PN","search_string":"  attur (tk) salem "},"bbox":[78.5191,11.5627,78.5191,11.5627]},{"type":"Feature","geometry":{"type":"Point","coordinates":[78.5912,11.5628]},"properties":{"district":"Salem","taluk":"Attur (Tk)","village":"Paithur","name":"Murugan Nagar","area_type":"Rural","shop_code":"07BP073P1","search_string":"  attur (tk) salem "},"bbox":[78.5912,11.5628,78.5912,11.5628]},{"type":"Feature","geometry":{"type":"Point","coordinates":[78.4897,11.5633]},"properties":{"district":"Salem","taluk":"Attur (Tk)","village":"Arasanatham","name":"Arasanatham - 2","area_type":"Rural","shop_code":"07BP059P1","search_string":"  attur (tk) salem "},"bbox":[78.4897,11.5633,78.4897,11.5633]},{"type":"Feature","geometry":{"type":"Point","coordinates":[78.4946,11.5699]},"properties":{"district":"Salem","taluk":"Attur (Tk)","village":"Malliyakarai","name":"Malliyakarai","area_type":"Rural","shop_code":"07BP061PY","search_string":"  attur (tk) salem "},"bbox":[78.4946,11.5699,78.4946,11.5699]},{"type":"Feature","geometry":{"type":"Point","coordinates":[78.4998,11.5704]},"properties":{"district":"Salem","taluk":"Attur (Tk)","village":"Malliyakarai","name":"Malliyakarai 2","area_type":"Rural","shop_code":"07BP156PN","search_string":"  attur (tk) salem "},"bbox":[78.4998,11.5704,78.4998,11.5704]},{"type":"Feature","geometry":{"type":"Point","coordinates":[78.6485,11.5706]},"properties":{"district":"Salem","taluk":"Attur (Tk)","village":"Valaiyamadevi","name":"ValaiyamaDevi","area_type":"Rural","shop_code":"07BP062PN","search_string":"  attur (tk) salem "},"bbox":[78.6485,11.5706,78.6485,11.5706]},{"type":"Feature","geometry":{"type":"Point","coordinates":[78.5306,11.5708]},"properties":{"district":"Salem","taluk":"Attur (Tk)","village":"Seeliapatty","name":"Siliyampatti Puthur","area_type":"Rural","shop_code":"07BP067PN","search_string":"  attur (tk) salem "},"bbox":[78.5306,11.5708,78.5306,11.5708]},{"type":"Feature","geometry":{"type":"Point","coordinates":[78.5205,11.5708]},"properties":{"district":"Salem","taluk":"Attur (Tk)","village":"Seeliapatty","name":"Siliyampatti","area_type":"Rural","shop_code":"07BP066PN","search_string":"  attur (tk) salem "},"bbox":[78.5205,11.5708,78.5205,11.5708]},{"type":"Feature","geometry":{"type":"Point","coordinates":[78.6045,11.5716]},"properties":{"district":"Salem","taluk":"Attur (Tk)","village":"Attur","name":"TherkkuKaadu 2","area_type":"Urban","shop_code":"07BC009P1","search_string":"  attur (tk) salem "},"bbox":[78.6045,11.5716,78.6045,11.5716]},{"type":"Feature","geometry":{"type":"Point","coordinates":[78.4814,11.5725]},"properties":{"district":"Salem","taluk":"Attur (Tk)","village":"Malliyakarai","name":"KaruthaRajaPalayam","area_type":"Rural","shop_code":"07BP061P1","search_string":"  attur (tk) salem "},"bbox":[78.4814,11.5725,78.4814,11.5725]},{"type":"Feature","geometry":{"type":"Point","coordinates":[78.6433,11.5733]},"properties":{"district":"Salem","taluk":"Attur (Tk)","village":"Valaiyamadevi","name":"ValaiyamaDevi - 2","area_type":"Rural","shop_code":"07BP125PN","search_string":"  attur (tk) salem "},"bbox":[78.6433,11.5733,78.6433,11.5733]},{"type":"Feature","geometry":{"type":"Point","coordinates":[78.5156,11.5786]},"properties":{"district":"Salem","taluk":"Attur (Tk)","village":"Echampatti","name":"Ichampatti","area_type":"Rural","shop_code":"07BP068PN","search_string":"  attur (tk) salem "},"bbox":[78.5156,11.5786,78.5156,11.5786]},{"type":"Feature","geometry":{"type":"Point","coordinates":[78.6225,11.5844]},"properties":{"district":"Salem","taluk":"Attur (Tk)","village":"Thulakkanur","name":"Thulakkanur 2","area_type":"Rural","shop_code":"07BB010P1","search_string":"  attur (tk) salem "},"bbox":[78.6225,11.5844,78.6225,11.5844]},{"type":"Feature","geometry":{"type":"Point","coordinates":[78.5521,11.5903]},"properties":{"district":"Salem","taluk":"Attur (Tk)","village":"Thandavarayapuram","name":"ThaandavarayaPuram 1","area_type":"Rural","shop_code":"07BP064PN","search_string":"  attur (tk) salem "},"bbox":[78.5521,11.5903,78.5521,11.5903]},{"type":"Feature","geometry":{"type":"Point","coordinates":[78.595,11.5905]},"properties":{"district":"Salem","taluk":"Attur (Tk)","village":"Attur","name":"ATCS Therkku kaadu 1","area_type":"Urban","shop_code":"07BC009PY","search_string":"  attur (tk) salem "},"bbox":[78.595,11.5905,78.595,11.5905]},{"type":"Feature","geometry":{"type":"Point","coordinates":[78.5573,11.5914]},"properties":{"district":"Salem","taluk":"Attur (Tk)","village":"Thandavarayapuram","name":"ThaandavarayaPuram 2","area_type":"Rural","shop_code":"07BP065PY","search_string":"  attur (tk) salem "},"bbox":[78.5573,11.5914,78.5573,11.5914]},{"type":"Feature","geometry":{"type":"Point","coordinates":[78.6086,11.5916]},"properties":{"district":"Salem","taluk":"Attur (Tk)","village":"Attur","name":"ATCS V.O.C Nagar","area_type":"Urban","shop_code":"07BC008PN","search_string":"  attur (tk) salem "},"bbox":[78.6086,11.5916,78.6086,11.5916]},{"type":"Feature","geometry":{"type":"Point","coordinates":[78.6339,11.5919]},"properties":{"district":"Salem","taluk":"Attur (Tk)","village":"Ammampalayam","name":"ATCS Amman Nagar","area_type":"Rural","shop_code":"07BC006PY","search_string":"  attur (tk) salem "},"bbox":[78.6339,11.5919,78.6339,11.5919]},{"type":"Feature","geometry":{"type":"Point","coordinates":[78.5365,11.5927]},"properties":{"district":"Salem","taluk":"Attur (Tk)","village":"Chokkanathapuram","name":"SokkanathaPuram","area_type":"Rural","shop_code":"07BP063PY","search_string":"  attur (tk) salem "},"bbox":[78.5365,11.5927,78.5365,11.5927]},{"type":"Feature","geometry":{"type":"Point","coordinates":[78.6502,11.5929]},"properties":{"district":"Salem","taluk":"Attur (Tk)","village":"Ammampalayam","name":"GandhiPuram","area_type":"Rural","shop_code":"07BC006P1","search_string":"  attur (tk) salem "},"bbox":[78.6502,11.5929,78.6502,11.5929]},{"type":"Feature","geometry":{"type":"Point","coordinates":[78.6044,11.5937]},"properties":{"district":"Salem","taluk":"Attur (Tk)","village":"Attur","name":"Bharathiyar Theru","area_type":"Urban","shop_code":"07BB016PN","search_string":"  attur (tk) salem "},"bbox":[78.6044,11.5937,78.6044,11.5937]},{"type":"Feature","geometry":{"type":"Point","coordinates":[78.6059,11.5945]},"properties":{"district":"Salem","taluk":"Attur (Tk)","village":"Attur","name":"Puthupettai 2","area_type":"Urban","shop_code":"07BP003PN","search_string":"  attur (tk) salem "},"bbox":[78.6059,11.5945,78.6059,11.5945]},{"type":"Feature","geometry":{"type":"Point","coordinates":[78.6002,11.5945]},"properties":{"district":"Salem","taluk":"Attur (Tk)","village":"Attur","name":"Jhothi Nagar","area_type":"Urban","shop_code":"07BB004PN","search_string":"  attur (tk) salem "},"bbox":[78.6002,11.5945,78.6002,11.5945]},{"type":"Feature","geometry":{"type":"Point","coordinates":[78.6061,11.5947]},"properties":{"district":"Salem","taluk":"Attur (Tk)","village":"Attur","name":"Puthupettai","area_type":"Urban","shop_code":"07BB008PN","search_string":"  attur (tk) salem "},"bbox":[78.6061,11.5947,78.6061,11.5947]},{"type":"Feature","geometry":{"type":"Point","coordinates":[78.605,11.5951]},"properties":{"district":"Salem","taluk":"Attur (Tk)","village":"Attur","name":"Grain Bazaar Ponni","area_type":"Urban","shop_code":"07BB007PN","search_string":"  attur (tk) salem "},"bbox":[78.605,11.5951,78.605,11.5951]},{"type":"Feature","geometry":{"type":"Point","coordinates":[78.608,11.5955]},"properties":{"district":"Salem","taluk":"Attur (Tk)","village":"Attur","name":"Puthupettai 1","area_type":"Urban","shop_code":"07BP002PN","search_string":"  attur (tk) salem "},"bbox":[78.608,11.5955,78.608,11.5955]},{"type":"Feature","geometry":{"type":"Point","coordinates":[78.5981,11.5956]},"properties":{"district":"Salem","taluk":"Attur (Tk)","village":"Attur","name":"Rajaji Colony","area_type":"Urban","shop_code":"07BB005P1","search_string":"  attur (tk) salem "},"bbox":[78.5981,11.5956,78.5981,11.5956]},{"type":"Feature","geometry":{"type":"Point","coordinates":[78.6049,11.5957]},"properties":{"district":"Salem","taluk":"Attur (Tk)","village":"Attur","name":"ATCS Periyar","area_type":"Urban","shop_code":"07BC001PN","search_string":"  attur (tk) salem "},"bbox":[78.6049,11.5957,78.6049,11.5957]},{"type":"Feature","geometry":{"type":"Point","coordinates":[78.593,11.5963]},"properties":{"district":"Salem","taluk":"Attur (Tk)","village":"Attur","name":"Gandhi Nagar Ponni","area_type":"Urban","shop_code":"07BB005PY","search_string":"  attur (tk) salem "},"bbox":[78.593,11.5963,78.593,11.5963]},{"type":"Feature","geometry":{"type":"Point","coordinates":[78.6044,11.5963]},"properties":{"district":"Salem","taluk":"Attur (Tk)","village":"Attur","name":"ATCS Mettutheru","area_type":"Urban","shop_code":"07BC002PN","search_string":"  attur (tk) salem "},"bbox":[78.6044,11.5963,78.6044,11.5963]},{"type":"Feature","geometry":{"type":"Point","coordinates":[78.5921,11.5971]},"properties":{"district":"Salem","taluk":"Attur (Tk)","village":"Attur","name":"Gandhi Road","area_type":"Urban","shop_code":"07BB015PN","search_string":"  attur (tk) salem "},"bbox":[78.5921,11.5971,78.5921,11.5971]},{"type":"Feature","geometry":{"type":"Point","coordinates":[78.5851,11.5978]},"properties":{"district":"Salem","taluk":"Attur (Tk)","village":"Narasingapuram","name":"Vinayagapuram Ponni","area_type":"Urban","shop_code":"07BB017PN","search_string":"  attur (tk) salem "},"bbox":[78.5851,11.5978,78.5851,11.5978]},{"type":"Feature","geometry":{"type":"Point","coordinates":[78.5993,11.598]},"properties":{"district":"Salem","taluk":"Attur (Tk)","village":"Attur","name":"Ranipettai","area_type":"Urban","shop_code":"07BP001PN","search_string":"  attur (tk) salem "},"bbox":[78.5993,11.598,78.5993,11.598]},{"type":"Feature","geometry":{"type":"Point","coordinates":[78.6005,11.5982]},"properties":{"district":"Salem","taluk":"Attur (Tk)","village":"Attur","name":"ATCS Maatha Kovil","area_type":"Urban","shop_code":"07BC004PN","search_string":"  attur (tk) salem "},"bbox":[78.6005,11.5982,78.6005,11.5982]},{"type":"Feature","geometry":{"type":"Point","coordinates":[78.5786,11.5983]},"properties":{"district":"Salem","taluk":"Attur (Tk)","village":"Narasingapuram","name":"Veettu Vasathi Vaariyam","area_type":"Urban","shop_code":"07BP115PN","search_string":"  attur (tk) salem "},"bbox":[78.5786,11.5983,78.5786,11.5983]},{"type":"Feature","geometry":{"type":"Point","coordinates":[78.6027,11.5983]},"properties":{"district":"Salem","taluk":"Attur (Tk)","village":"Attur","name":"ATCS Main","area_type":"Urban","shop_code":"07BC003PN","search_string":"  attur (tk) salem "},"bbox":[78.6027,11.5983,78.6027,11.5983]},{"type":"Feature","geometry":{"type":"Point","coordinates":[78.6076,11.5986]},"properties":{"district":"Salem","taluk":"Attur (Tk)","village":"Attur","name":"Mullaivaadi Agrahaaram","area_type":"Urban","shop_code":"07BB003PN","search_string":"  attur (tk) salem "},"bbox":[78.6076,11.5986,78.6076,11.5986]},{"type":"Feature","geometry":{"type":"Point","coordinates":[78.5941,11.5987]},"properties":{"district":"Salem","taluk":"Attur (Tk)","village":"Attur","name":"Udaiyaar Palayam","area_type":"Urban","shop_code":"07BB006PN","search_string":"  attur (tk) salem "},"bbox":[78.5941,11.5987,78.5941,11.5987]},{"type":"Feature","geometry":{"type":"Point","coordinates":[78.5856,11.5988]},"properties":{"district":"Salem","taluk":"Attur (Tk)","village":"Narasingapuram","name":"NarasingaPuram Ponni 1","area_type":"Urban","shop_code":"07BB011PN","search_string":"  attur (tk) salem "},"bbox":[78.5856,11.5988,78.5856,11.5988]},{"type":"Feature","geometry":{"type":"Point","coordinates":[78.5853,11.5988]},"properties":{"district":"Salem","taluk":"Attur (Tk)","village":"Narasingapuram","name":"NarasingaPuram Ponni 2","area_type":"Urban","shop_code":"07BB012PN","search_string":"  attur (tk) salem "},"bbox":[78.5853,11.5988,78.5853,11.5988]},{"type":"Feature","geometry":{"type":"Point","coordinates":[78.6392,11.5995]},"properties":{"district":"Salem","taluk":"Attur (Tk)","village":"Ammampalayam","name":"AmmamPalayam","area_type":"Rural","shop_code":"07BB009PY","search_string":"  attur (tk) salem "},"bbox":[78.6392,11.5995,78.6392,11.5995]},{"type":"Feature","geometry":{"type":"Point","coordinates":[78.6089,11.6007]},"properties":{"district":"Salem","taluk":"Attur (Tk)","village":"Attur","name":"ATCS Mullaivaadi 3","area_type":"Urban","shop_code":"07BC007PY","search_string":"  attur (tk) salem "},"bbox":[78.6089,11.6007,78.6089,11.6007]},{"type":"Feature","geometry":{"type":"Point","coordinates":[78.6258,11.6008]},"properties":{"district":"Salem","taluk":"Attur (Tk)","village":"Thulakkanur","name":"Thulakkanur 1","area_type":"Rural","shop_code":"07BB010PY","search_string":"  attur (tk) salem "},"bbox":[78.6258,11.6008,78.6258,11.6008]},{"type":"Feature","geometry":{"type":"Point","coordinates":[78.5803,11.6012]},"properties":{"district":"Salem","taluk":"Attur (Tk)","village":"Narasingapuram","name":"NarasingaPuram","area_type":"Urban","shop_code":"07BP047PN","search_string":"  attur (tk) salem "},"bbox":[78.5803,11.6012,78.5803,11.6012]},{"type":"Feature","geometry":{"type":"Point","coordinates":[78.6067,11.6021]},"properties":{"district":"Salem","taluk":"Attur (Tk)","village":"Attur","name":"Mullaivaadi  2","area_type":"Urban","shop_code":"07BB002PY","search_string":"  attur (tk) salem "},"bbox":[78.6067,11.6021,78.6067,11.6021]},{"type":"Feature","geometry":{"type":"Point","coordinates":[78.5909,11.603]},"properties":{"district":"Salem","taluk":"Attur (Tk)","village":"Attur","name":"ATCS Nehru Nagar","area_type":"Urban","shop_code":"07BC005PN","search_string":"  attur (tk) salem "},"bbox":[78.5909,11.603,78.5909,11.603]},{"type":"Feature","geometry":{"type":"Point","coordinates":[78.6017,11.6034]},"properties":{"district":"Salem","taluk":"Attur (Tk)","village":"Attur","name":"Mullaivaadi  1","area_type":"Urban","shop_code":"07BB001PN","search_string":"  attur (tk) salem "},"bbox":[78.6017,11.6034,78.6017,11.6034]},{"type":"Feature","geometry":{"type":"Point","coordinates":[78.558,11.6035]},"properties":{"district":"Salem","taluk":"Attur (Tk)","village":"Thennagudipalayam","name":"Mariyamman Nagar","area_type":"Rural","shop_code":"07BP050P1","search_string":"  attur (tk) salem "},"bbox":[78.558,11.6035,78.558,11.6035]},{"type":"Feature","geometry":{"type":"Point","coordinates":[77.8592,11.4326]},"properties":{"district":"Salem","taluk":"Sankagiri (Tk)","village":"Morur","name":"Morur - 1","area_type":"Rural","shop_code":"07GP011PY","search_string":"  sankagiri (tk) salem "},"bbox":[77.8592,11.4326,77.8592,11.4326]},{"type":"Feature","geometry":{"type":"Point","coordinates":[78.6288,11.6043]},"properties":{"district":"Salem","taluk":"Attur (Tk)","village":"Kallanatham","name":"Kallaanatham","area_type":"Rural","shop_code":"07BP077PN","search_string":"  attur (tk) salem "},"bbox":[78.6288,11.6043,78.6288,11.6043]},{"type":"Feature","geometry":{"type":"Point","coordinates":[78.5715,11.6049]},"properties":{"district":"Salem","taluk":"Attur (Tk)","village":"Narasingapuram","name":"Udaiyampatti","area_type":"Urban","shop_code":"07BP048PN","search_string":"  attur (tk) salem "},"bbox":[78.5715,11.6049,78.5715,11.6049]},{"type":"Feature","geometry":{"type":"Point","coordinates":[78.5777,11.6057]},"properties":{"district":"Salem","taluk":"Attur (Tk)","village":"Narasingapuram","name":"Mariyamman Kovil","area_type":"Urban","shop_code":"07BP116PN","search_string":"  attur (tk) salem "},"bbox":[78.5777,11.6057,78.5777,11.6057]},{"type":"Feature","geometry":{"type":"Point","coordinates":[78.5439,11.6061]},"properties":{"district":"Salem","taluk":"Attur (Tk)","village":"Akkichettipalayam","name":"Akkichetti Palayam","area_type":"Rural","shop_code":"07BP057PN","search_string":"  attur (tk) salem "},"bbox":[78.5439,11.6061,78.5439,11.6061]},{"type":"Feature","geometry":{"type":"Point","coordinates":[78.5733,11.6095]},"properties":{"district":"Salem","taluk":"Attur (Tk)","village":"Appamasamudram","name":"AppamaSamuthiram - 2","area_type":"Rural","shop_code":"07BP049P1","search_string":"  attur (tk) salem "},"bbox":[78.5733,11.6095,78.5733,11.6095]},{"type":"Feature","geometry":{"type":"Point","coordinates":[78.6185,11.6095]},"properties":{"district":"Salem","taluk":"Attur (Tk)","village":"Attur","name":"Santhanagiri","area_type":"Urban","shop_code":"07BC007P1","search_string":"  attur (tk) salem "},"bbox":[78.6185,11.6095,78.6185,11.6095]},{"type":"Feature","geometry":{"type":"Point","coordinates":[78.57,11.611]},"properties":{"district":"Salem","taluk":"Attur (Tk)","village":"Narasingapuram","name":"Puthu Udaiyampatti","area_type":"Rural","shop_code":"07BP054P1","search_string":"  attur (tk) salem "},"bbox":[78.57,11.611,78.57,11.611]},{"type":"Feature","geometry":{"type":"Point","coordinates":[78.5878,11.613]},"properties":{"district":"Salem","taluk":"Attur (Tk)","village":"Thennagudipalayam","name":"ThennagudiPalayam","area_type":"Rural","shop_code":"07BP050PY","search_string":"  attur (tk) salem "},"bbox":[78.5878,11.613,78.5878,11.613]},{"type":"Feature","geometry":{"type":"Point","coordinates":[78.643,11.6131]},"properties":{"district":"Salem","taluk":"Attur (Tk)","village":"Ammampalayam","name":"Narikkuravar Colony","area_type":"Rural","shop_code":"07BB009P1","search_string":"  attur (tk) salem "},"bbox":[78.643,11.6131,78.643,11.6131]},{"type":"Feature","geometry":{"type":"Point","coordinates":[78.5608,11.6143]},"properties":{"district":"Salem","taluk":"Attur (Tk)","village":"Narasingapuram","name":"LakshmanaSamuthiram","area_type":"Urban","shop_code":"07BP054PY","search_string":"  attur (tk) salem "},"bbox":[78.5608,11.6143,78.5608,11.6143]},{"type":"Feature","geometry":{"type":"Point","coordinates":[78.6002,11.616]},"properties":{"district":"Salem","taluk":"Attur (Tk)","village":"Attur","name":"Uppodai","area_type":"Urban","shop_code":"07BB002P1","search_string":"  attur (tk) salem "},"bbox":[78.6002,11.616,78.6002,11.616]},{"type":"Feature","geometry":{"type":"Point","coordinates":[78.5501,11.6174]},"properties":{"district":"Salem","taluk":"Attur (Tk)","village":"Alagapuram","name":"Azhagapuram","area_type":"Rural","shop_code":"07BP058PN","search_string":"  attur (tk) salem "},"bbox":[78.5501,11.6174,78.5501,11.6174]},{"type":"Feature","geometry":{"type":"Point","coordinates":[78.6309,11.6229]},"properties":{"district":"Salem","taluk":"Attur (Tk)","village":"Kallanatham","name":"VaithiyanathaPuram","area_type":"Rural","shop_code":"07BP078PY","search_string":"  attur (tk) salem "},"bbox":[78.6309,11.6229,78.6309,11.6229]},{"type":"Feature","geometry":{"type":"Point","coordinates":[78.5346,11.6241]},"properties":{"district":"Salem","taluk":"Attur (Tk)","village":"Jarikothambadi","name":"Puthu Kothampaadi","area_type":"Rural","shop_code":"07BP070P1","search_string":"  attur (tk) salem "},"bbox":[78.5346,11.6241,78.5346,11.6241]},{"type":"Feature","geometry":{"type":"Point","coordinates":[78.5701,11.6259]},"properties":{"district":"Salem","taluk":"Attur (Tk)","village":"Appamasamudram","name":"AppamaSamuthiram","area_type":"Rural","shop_code":"07BP049PY","search_string":"  attur (tk) salem "},"bbox":[78.5701,11.6259,78.5701,11.6259]},{"type":"Feature","geometry":{"type":"Point","coordinates":[78.5402,11.6274]},"properties":{"district":"Salem","taluk":"Attur (Tk)","village":"Jarikothambadi","name":"Kothampaadi","area_type":"Rural","shop_code":"07BP070PY","search_string":"  attur (tk) salem "},"bbox":[78.5402,11.6274,78.5402,11.6274]},{"type":"Feature","geometry":{"type":"Point","coordinates":[78.5599,11.6287]},"properties":{"district":"Salem","taluk":"Attur (Tk)","village":"Ramanayakkanpalayam","name":"Ramanayakkan Palayam 1","area_type":"Rural","shop_code":"07BP055PN","search_string":"  attur (tk) salem "},"bbox":[78.5599,11.6287,78.5599,11.6287]},{"type":"Feature","geometry":{"type":"Point","coordinates":[78.5582,11.6297]},"properties":{"district":"Salem","taluk":"Attur (Tk)","village":"Ramanayakkanpalayam","name":"Ramanayakkanpalayam - 3","area_type":"Rural","shop_code":"07BP151PN","search_string":"  attur (tk) salem "},"bbox":[78.5582,11.6297,78.5582,11.6297]},{"type":"Feature","geometry":{"type":"Point","coordinates":[78.5405,11.6347]},"properties":{"district":"Salem","taluk":"Attur (Tk)","village":"Kalpaganur","name":"Kalpaganoor","area_type":"Rural","shop_code":"07BP069PY","search_string":"  attur (tk) salem "},"bbox":[78.5405,11.6347,78.5405,11.6347]},{"type":"Feature","geometry":{"type":"Point","coordinates":[78.5357,11.639]},"properties":{"district":"Salem","taluk":"Attur (Tk)","village":"Kalpaganur","name":"Kalpaganoor Puthur","area_type":"Rural","shop_code":"07BP069P1","search_string":"  attur (tk) salem "},"bbox":[78.5357,11.639,78.5357,11.639]},{"type":"Feature","geometry":{"type":"Point","coordinates":[78.5671,11.6527]},"properties":{"district":"Salem","taluk":"Attur (Tk)","village":"Ramanayakkanpalayam","name":"Kamaraj Nagar","area_type":"Rural","shop_code":"07BP056P1","search_string":"  attur (tk) salem "},"bbox":[78.5671,11.6527,78.5671,11.6527]},{"type":"Feature","geometry":{"type":"Point","coordinates":[78.5604,11.6615]},"properties":{"district":"Salem","taluk":"Attur (Tk)","village":"Ramanayakkanpalayam","name":"Ramanayakkan Palayam 2","area_type":"Rural","shop_code":"07BP056PY","search_string":"  attur (tk) salem "},"bbox":[78.5604,11.6615,78.5604,11.6615]},{"type":"Feature","geometry":{"type":"Point","coordinates":[78.5507,11.6657]},"properties":{"district":"Salem","taluk":"Attur (Tk)","village":"Kalpaganur","name":"SivagangaiPuram","area_type":"Rural","shop_code":"07BP071PY","search_string":"  attur (tk) salem "},"bbox":[78.5507,11.6657,78.5507,11.6657]},{"type":"Feature","geometry":{"type":"Point","coordinates":[78.5444,11.669]},"properties":{"district":"Salem","taluk":"Attur (Tk)","village":"Kalpaganur","name":"Ilango Nagar","area_type":"Rural","shop_code":"07BP071P2","search_string":"  attur (tk) salem "},"bbox":[78.5444,11.669,78.5444,11.669]},{"type":"Feature","geometry":{"type":"Point","coordinates":[78.5397,11.688]},"properties":{"district":"Salem","taluk":"Attur (Tk)","village":"Kalpaganur","name":"Oothumedu","area_type":"Rural","shop_code":"07BP071P1","search_string":"  attur (tk) salem "},"bbox":[78.5397,11.688,78.5397,11.688]},{"type":"Feature","geometry":{"type":"Point","coordinates":[78.5589,11.6885]},"properties":{"district":"Salem","taluk":"Attur (Tk)","village":"Kalpaganur","name":"Ramamoorthi Nagar","area_type":"Rural","shop_code":"07BP071P3","search_string":"  attur (tk) salem "},"bbox":[78.5589,11.6885,78.5589,11.6885]},{"type":"Feature","geometry":{"type":"Point","coordinates":[77.8883,11.5257]},"properties":{"district":"Salem","taluk":"Edappadi (Tk)","village":"Thangayur","name":"Thangayur -2","area_type":"Rural","shop_code":"07HP050PY","search_string":"  edappadi (tk) salem "},"bbox":[77.8883,11.5257,77.8883,11.5257]},{"type":"Feature","geometry":{"type":"Point","coordinates":[77.8664,11.534]},"properties":{"district":"Salem","taluk":"Edappadi (Tk)","village":"Thangayur","name":"Thangayur -1","area_type":"Rural","shop_code":"07HC014PY","search_string":"  edappadi (tk) salem "},"bbox":[77.8664,11.534,77.8664,11.534]},{"type":"Feature","geometry":{"type":"Point","coordinates":[77.8896,11.5492]},"properties":{"district":"Salem","taluk":"Edappadi (Tk)","village":"Thangayur","name":"Kothukadu","area_type":"Rural","shop_code":"07HP050P1","search_string":"  edappadi (tk) salem "},"bbox":[77.8896,11.5492,77.8896,11.5492]},{"type":"Feature","geometry":{"type":"Point","coordinates":[77.877,11.5555]},"properties":{"district":"Salem","taluk":"Edappadi (Tk)","village":"Thangayur","name":"Kavadikaranur","area_type":"Rural","shop_code":"07HC014P1","search_string":"  edappadi (tk) salem "},"bbox":[77.877,11.5555,77.877,11.5555]},{"type":"Feature","geometry":{"type":"Point","coordinates":[77.9161,11.56]},"properties":{"district":"Salem","taluk":"Edappadi (Tk)","village":"Eirumaipatti","name":"Erumaipatti-1","area_type":"Rural","shop_code":"07HC010PY","search_string":"  edappadi (tk) salem "},"bbox":[77.9161,11.56,77.9161,11.56]},{"type":"Feature","geometry":{"type":"Point","coordinates":[77.9168,11.5607]},"properties":{"district":"Salem","taluk":"Edappadi (Tk)","village":"Eirumaipatti","name":"Erumaipatti-2","area_type":"Rural","shop_code":"07HC011PN","search_string":"  edappadi (tk) salem "},"bbox":[77.9168,11.5607,77.9168,11.5607]},{"type":"Feature","geometry":{"type":"Point","coordinates":[77.7497,11.5616]},"properties":{"district":"Salem","taluk":"Edappadi (Tk)","village":"Nedugulam","name":"Kottayaur","area_type":"Rural","shop_code":"07HP041P1","search_string":"  edappadi (tk) salem "},"bbox":[77.7497,11.5616,77.7497,11.5616]},{"type":"Feature","geometry":{"type":"Point","coordinates":[77.9027,11.5629]},"properties":{"district":"Salem","taluk":"Edappadi (Tk)","village":"Eirumaipatti","name":"Mdathur","area_type":"Rural","shop_code":"07HC009PN","search_string":"  edappadi (tk) salem "},"bbox":[77.9027,11.5629,77.9027,11.5629]},{"type":"Feature","geometry":{"type":"Point","coordinates":[77.8961,11.5673]},"properties":{"district":"Salem","taluk":"Edappadi (Tk)","village":"Konganapuram","name":"Konganapuram","area_type":"Urban","shop_code":"07HC007PN","search_string":"  edappadi (tk) salem "},"bbox":[77.8961,11.5673,77.8961,11.5673]},{"type":"Feature","geometry":{"type":"Point","coordinates":[77.9014,11.571]},"properties":{"district":"Salem","taluk":"Edappadi (Tk)","village":"Konganapuram","name":"Bazzer Street Konganapuram","area_type":"Urban","shop_code":"07HC017PN","search_string":"  edappadi (tk) salem "},"bbox":[77.9014,11.571,77.9014,11.571]},{"type":"Feature","geometry":{"type":"Point","coordinates":[77.9225,11.5715]},"properties":{"district":"Salem","taluk":"Edappadi (Tk)","village":"Eirumaipatti","name":"Maittampatti","area_type":"Rural","shop_code":"07HC010P1","search_string":"  edappadi (tk) salem "},"bbox":[77.9225,11.5715,77.9225,11.5715]},{"type":"Feature","geometry":{"type":"Point","coordinates":[77.8788,11.5736]},"properties":{"district":"Salem","taluk":"Edappadi (Tk)","village":"Kurumapatti","name":"Kurumapatti","area_type":"Rural","shop_code":"07HC012PY","search_string":"  edappadi (tk) salem "},"bbox":[77.8788,11.5736,77.8788,11.5736]},{"type":"Feature","geometry":{"type":"Point","coordinates":[77.8913,11.5745]},"properties":{"district":"Salem","taluk":"Edappadi (Tk)","village":"Konganapuram","name":"Rakeyampati","area_type":"Urban","shop_code":"07HC008PN","search_string":"  edappadi (tk) salem "},"bbox":[77.8913,11.5745,77.8913,11.5745]},{"type":"Feature","geometry":{"type":"Point","coordinates":[77.8559,11.5763]},"properties":{"district":"Salem","taluk":"Edappadi (Tk)","village":"Chinnamanali","name":"Veerappampalay","area_type":"Urban","shop_code":"07HC006P1","search_string":"  edappadi (tk) salem "},"bbox":[77.8559,11.5763,77.8559,11.5763]},{"type":"Feature","geometry":{"type":"Point","coordinates":[77.8318,11.5765]},"properties":{"district":"Salem","taluk":"Edappadi (Tk)","village":"Chinnamanali","name":"Old Edappadi","area_type":"Urban","shop_code":"07HC016PN","search_string":"  edappadi (tk) salem "},"bbox":[77.8318,11.5765,77.8318,11.5765]},{"type":"Feature","geometry":{"type":"Point","coordinates":[77.9454,11.5772]},"properties":{"district":"Salem","taluk":"Edappadi (Tk)","village":"Kachchippalli","name":"Karattur","area_type":"Rural","shop_code":"07HP012P2","search_string":"  edappadi (tk) salem "},"bbox":[77.9454,11.5772,77.9454,11.5772]},{"type":"Feature","geometry":{"type":"Point","coordinates":[77.8184,11.5789]},"properties":{"district":"Salem","taluk":"Edappadi (Tk)","village":"Edappadi","name":"Alachsampalayam-2","area_type":"Urban","shop_code":"07HP004PN","search_string":"  edappadi (tk) salem "},"bbox":[77.8184,11.5789,77.8184,11.5789]},{"type":"Feature","geometry":{"type":"Point","coordinates":[77.8183,11.5791]},"properties":{"district":"Salem","taluk":"Edappadi (Tk)","village":"Edappadi","name":"Alachsampalayam-1","area_type":"Urban","shop_code":"07HP003PY","search_string":"  edappadi (tk) salem "},"bbox":[77.8183,11.5791,77.8183,11.5791]},{"type":"Feature","geometry":{"type":"Point","coordinates":[77.8327,11.5799]},"properties":{"district":"Salem","taluk":"Edappadi (Tk)","village":"Edappadi","name":"A.K.Street","area_type":"Urban","shop_code":"07HC002PN","search_string":"  edappadi (tk) salem "},"bbox":[77.8327,11.5799,77.8327,11.5799]},{"type":"Feature","geometry":{"type":"Point","coordinates":[77.8406,11.58]},"properties":{"district":"Salem","taluk":"Edappadi (Tk)","village":"Chinnamanali","name":"Gowndampatti New Street","area_type":"Urban","shop_code":"07HC015PN","search_string":"  edappadi (tk) salem "},"bbox":[77.8406,11.58,77.8406,11.58]},{"type":"Feature","geometry":{"type":"Point","coordinates":[77.8409,11.5803]},"properties":{"district":"Salem","taluk":"Edappadi (Tk)","village":"Chinnamanali","name":"Gowndampatti","area_type":"Urban","shop_code":"07HC003PN","search_string":"  edappadi (tk) salem "},"bbox":[77.8409,11.5803,77.8409,11.5803]},{"type":"Feature","geometry":{"type":"Point","coordinates":[77.8632,11.5807]},"properties":{"district":"Salem","taluk":"Edappadi (Tk)","village":"Kurumapatti","name":"Thanamoorthiyur","area_type":"Rural","shop_code":"07HC012P1","search_string":"  edappadi (tk) salem "},"bbox":[77.8632,11.5807,77.8632,11.5807]},{"type":"Feature","geometry":{"type":"Point","coordinates":[77.8348,11.5808]},"properties":{"district":"Salem","taluk":"Edappadi (Tk)","village":"Chinnamanali","name":"Chinnamanali","area_type":"Urban","shop_code":"07HC004PN","search_string":"  edappadi (tk) salem "},"bbox":[77.8348,11.5808,77.8348,11.5808]},{"type":"Feature","geometry":{"type":"Point","coordinates":[77.7489,11.5822]},"properties":{"district":"Salem","taluk":"Edappadi (Tk)","village":"Nedugulam","name":"Konerpatti","area_type":"Rural","shop_code":"07HP041PY","search_string":"  edappadi (tk) salem "},"bbox":[77.7489,11.5822,77.7489,11.5822]},{"type":"Feature","geometry":{"type":"Point","coordinates":[77.8495,11.5828]},"properties":{"district":"Salem","taluk":"Edappadi (Tk)","village":"Chinnamanali","name":"Vellandivalasau-2","area_type":"Urban","shop_code":"07HC006PY","search_string":"  edappadi (tk) salem "},"bbox":[77.8495,11.5828,77.8495,11.5828]},{"type":"Feature","geometry":{"type":"Point","coordinates":[77.8496,11.583]},"properties":{"district":"Salem","taluk":"Edappadi (Tk)","village":"Chinnamanali","name":"Vellandivalasau-1","area_type":"Urban","shop_code":"07HC005PN","search_string":"  edappadi (tk) salem "},"bbox":[77.8496,11.583,77.8496,11.583]},{"type":"Feature","geometry":{"type":"Point","coordinates":[77.8334,11.5838]},"properties":{"district":"Salem","taluk":"Edappadi (Tk)","village":"Edappadi","name":"Ponni-2","area_type":"Urban","shop_code":"07HB002PY","search_string":"  edappadi (tk) salem "},"bbox":[77.8334,11.5838,77.8334,11.5838]},{"type":"Feature","geometry":{"type":"Point","coordinates":[77.8338,11.5841]},"properties":{"district":"Salem","taluk":"Edappadi (Tk)","village":"Edappadi","name":"Ponni-3","area_type":"Urban","shop_code":"07HB003PN","search_string":"  edappadi (tk) salem "},"bbox":[77.8338,11.5841,77.8338,11.5841]},{"type":"Feature","geometry":{"type":"Point","coordinates":[77.8338,11.5841]},"properties":{"district":"Salem","taluk":"Edappadi (Tk)","village":"Edappadi","name":"Ponni-1","area_type":"Urban","shop_code":"07HB001PN","search_string":"  edappadi (tk) salem "},"bbox":[77.8338,11.5841,77.8338,11.5841]},{"type":"Feature","geometry":{"type":"Point","coordinates":[77.8223,11.5856]},"properties":{"district":"Salem","taluk":"Edappadi (Tk)","village":"Edappadi","name":"Kattur","area_type":"Urban","shop_code":"07HP003P1","search_string":"  edappadi (tk) salem "},"bbox":[77.8223,11.5856,77.8223,11.5856]},{"type":"Feature","geometry":{"type":"Point","coordinates":[77.944,11.5857]},"properties":{"district":"Salem","taluk":"Edappadi (Tk)","village":"Kachchippalli","name":"Alagappmpalayam","area_type":"Rural","shop_code":"07HP012PY","search_string":"  edappadi (tk) salem "},"bbox":[77.944,11.5857,77.944,11.5857]},{"type":"Feature","geometry":{"type":"Point","coordinates":[77.802,11.5867]},"properties":{"district":"Salem","taluk":"Edappadi (Tk)","village":"Vellarivelli","name":"Kunchyampalayam","area_type":"Rural","shop_code":"07HP064P1","search_string":"  edappadi (tk) salem "},"bbox":[77.802,11.5867,77.802,11.5867]},{"type":"Feature","geometry":{"type":"Point","coordinates":[77.8559,11.5872]},"properties":{"district":"Salem","taluk":"Edappadi (Tk)","village":"Kurumapatti","name":"Pareyanaichur","area_type":"Rural","shop_code":"07HC013P1","search_string":"  edappadi (tk) salem "},"bbox":[77.8559,11.5872,77.8559,11.5872]},{"type":"Feature","geometry":{"type":"Point","coordinates":[77.8412,11.5883]},"properties":{"district":"Salem","taluk":"Edappadi (Tk)","village":"Edappadi","name":"Bazzer Street","area_type":"Urban","shop_code":"07HC001PN","search_string":"  edappadi (tk) salem "},"bbox":[77.8412,11.5883,77.8412,11.5883]},{"type":"Feature","geometry":{"type":"Point","coordinates":[77.9269,11.5893]},"properties":{"district":"Salem","taluk":"Edappadi (Tk)","village":"Kachchippalli","name":"Kovalankadu","area_type":"Rural","shop_code":"07HP011P2","search_string":"  edappadi (tk) salem "},"bbox":[77.9269,11.5893,77.9269,11.5893]},{"type":"Feature","geometry":{"type":"Point","coordinates":[77.8309,11.5899]},"properties":{"district":"Salem","taluk":"Edappadi (Tk)","village":"Avaniperur West","name":"A.P.Main","area_type":"Urban","shop_code":"07HP067PN","search_string":"  edappadi (tk) salem "},"bbox":[77.8309,11.5899,77.8309,11.5899]},{"type":"Feature","geometry":{"type":"Point","coordinates":[77.8447,11.5904]},"properties":{"district":"Salem","taluk":"Edappadi (Tk)","village":"Avaniperur East","name":"Masaiyam Street","area_type":"Rural","shop_code":"07HP066PN","search_string":"  edappadi (tk) salem "},"bbox":[77.8447,11.5904,77.8447,11.5904]},{"type":"Feature","geometry":{"type":"Point","coordinates":[77.7442,11.5928]},"properties":{"district":"Salem","taluk":"Edappadi (Tk)","village":"Nedugulam","name":"Seluvamopalayam","area_type":"Rural","shop_code":"07HP020P1","search_string":"  edappadi (tk) salem "},"bbox":[77.7442,11.5928,77.7442,11.5928]},{"type":"Feature","geometry":{"type":"Point","coordinates":[77.8257,11.593]},"properties":{"district":"Salem","taluk":"Edappadi (Tk)","village":"Avaniperur West","name":"A.P.Main","area_type":"Urban","shop_code":"07HP001PN","search_string":"  edappadi (tk) salem "},"bbox":[77.8257,11.593,77.8257,11.593]},{"type":"Feature","geometry":{"type":"Point","coordinates":[77.8767,11.5935]},"properties":{"district":"Salem","taluk":"Edappadi (Tk)","village":"Kurumapatti","name":"Varakkadu","area_type":"Rural","shop_code":"07HC013PY","search_string":"  edappadi (tk) salem "},"bbox":[77.8767,11.5935,77.8767,11.5935]},{"type":"Feature","geometry":{"type":"Point","coordinates":[77.9534,11.595]},"properties":{"district":"Salem","taluk":"Edappadi (Tk)","village":"Kachchippalli","name":"Vadugapatti","area_type":"Rural","shop_code":"07HP012P1","search_string":"  edappadi (tk) salem "},"bbox":[77.9534,11.595,77.9534,11.595]},{"type":"Feature","geometry":{"type":"Point","coordinates":[77.8472,11.5955]},"properties":{"district":"Salem","taluk":"Edappadi (Tk)","village":"Avaniperur East","name":"Bodinakkapatti","area_type":"Rural","shop_code":"07HP037PN","search_string":"  edappadi (tk) salem "},"bbox":[77.8472,11.5955,77.8472,11.5955]},{"type":"Feature","geometry":{"type":"Point","coordinates":[77.9154,11.5956]},"properties":{"district":"Salem","taluk":"Edappadi (Tk)","village":"Kachchippalli","name":"Kaichpalli","area_type":"Rural","shop_code":"07HP011PY","search_string":"  edappadi (tk) salem "},"bbox":[77.9154,11.5956,77.9154,11.5956]},{"type":"Feature","geometry":{"type":"Point","coordinates":[77.8866,11.5957]},"properties":{"district":"Salem","taluk":"Edappadi (Tk)","village":"Koranampatti","name":"Sanarappatti","area_type":"Rural","shop_code":"07HP010P1","search_string":"  edappadi (tk) salem "},"bbox":[77.8866,11.5957,77.8866,11.5957]},{"type":"Feature","geometry":{"type":"Point","coordinates":[77.8096,11.596]},"properties":{"district":"Salem","taluk":"Edappadi (Tk)","village":"Vellarivelli","name":"Kallapalyam","area_type":"Rural","shop_code":"07HP064PY","search_string":"  edappadi (tk) salem "},"bbox":[77.8096,11.596,77.8096,11.596]},{"type":"Feature","geometry":{"type":"Point","coordinates":[77.9069,11.5985]},"properties":{"district":"Salem","taluk":"Edappadi (Tk)","village":"Koranampatti","name":"Koranampatti-2","area_type":"Rural","shop_code":"07HP010PY","search_string":"  edappadi (tk) salem "},"bbox":[77.9069,11.5985,77.9069,11.5985]},{"type":"Feature","geometry":{"type":"Point","coordinates":[77.8549,11.5991]},"properties":{"district":"Salem","taluk":"Edappadi (Tk)","village":"Avaniperur East","name":"Manthiyanvalavu","area_type":"Rural","shop_code":"07HP038PY","search_string":"  edappadi (tk) salem "},"bbox":[77.8549,11.5991,77.8549,11.5991]},{"type":"Feature","geometry":{"type":"Point","coordinates":[77.8397,11.6004]},"properties":{"district":"Salem","taluk":"Edappadi (Tk)","village":"Avaniperur West","name":"Avaniyur","area_type":"Urban","shop_code":"07HB002P1","search_string":"  edappadi (tk) salem "},"bbox":[77.8397,11.6004,77.8397,11.6004]},{"type":"Feature","geometry":{"type":"Point","coordinates":[77.7939,11.602]},"properties":{"district":"Salem","taluk":"Edappadi (Tk)","village":"Vellarivelli","name":"Vellarivelli","area_type":"Rural","shop_code":"07HP034PN","search_string":"  edappadi (tk) salem "},"bbox":[77.7939,11.602,77.7939,11.602]},{"type":"Feature","geometry":{"type":"Point","coordinates":[77.7777,11.6033]},"properties":{"district":"Salem","taluk":"Edappadi (Tk)","village":"Vellarivelli","name":"Vettuvapatti","area_type":"Rural","shop_code":"07HP035P2","search_string":"  edappadi (tk) salem "},"bbox":[77.7777,11.6033,77.7777,11.6033]},{"type":"Feature","geometry":{"type":"Point","coordinates":[77.9336,11.6038]},"properties":{"district":"Salem","taluk":"Edappadi (Tk)","village":"Kachchippalli","name":"Pallipatti","area_type":"Rural","shop_code":"07HP013PY","search_string":"  edappadi (tk) salem "},"bbox":[77.9336,11.6038,77.9336,11.6038]},{"type":"Feature","geometry":{"type":"Point","coordinates":[77.8841,11.6042]},"properties":{"district":"Salem","taluk":"Edappadi (Tk)","village":"Koranampatti","name":"Ko. Mottur","area_type":"Rural","shop_code":"07HP009P2","search_string":"  edappadi (tk) salem "},"bbox":[77.8841,11.6042,77.8841,11.6042]},{"type":"Feature","geometry":{"type":"Point","coordinates":[77.9386,11.6051]},"properties":{"district":"Salem","taluk":"Edappadi (Tk)","village":"Kachchippalli","name":"Elavampalayam","area_type":"Rural","shop_code":"07HP013P2","search_string":"  edappadi (tk) salem "},"bbox":[77.9386,11.6051,77.9386,11.6051]},{"type":"Feature","geometry":{"type":"Point","coordinates":[77.7568,11.6051]},"properties":{"district":"Salem","taluk":"Edappadi (Tk)","village":"Nedugulam","name":"Nedugulam","area_type":"Rural","shop_code":"07HP020PY","search_string":"  edappadi (tk) salem "},"bbox":[77.7568,11.6051,77.7568,11.6051]},{"type":"Feature","geometry":{"type":"Point","coordinates":[77.8411,11.6072]},"properties":{"district":"Salem","taluk":"Edappadi (Tk)","village":"Avaniperur West","name":"Kottai","area_type":"Urban","shop_code":"07HB002P2","search_string":"  edappadi (tk) salem "},"bbox":[77.8411,11.6072,77.8411,11.6072]},{"type":"Feature","geometry":{"type":"Point","coordinates":[77.8133,11.6078]},"properties":{"district":"Salem","taluk":"Edappadi (Tk)","village":"Vellarivelli","name":"Kannakadu","area_type":"Rural","shop_code":"07HP036PY","search_string":"  edappadi (tk) salem "},"bbox":[77.8133,11.6078,77.8133,11.6078]},{"type":"Feature","geometry":{"type":"Point","coordinates":[77.8835,11.6118]},"properties":{"district":"Salem","taluk":"Edappadi (Tk)","village":"Dathapuram","name":"Meyyampalayam","area_type":"Rural","shop_code":"07HP021P1","search_string":"  edappadi (tk) salem "},"bbox":[77.8835,11.6118,77.8835,11.6118]},{"type":"Feature","geometry":{"type":"Point","coordinates":[77.8403,11.6134]},"properties":{"district":"Salem","taluk":"Edappadi (Tk)","village":"Avaniperur West","name":"V.N.Palayam","area_type":"Urban","shop_code":"07HP002PY","search_string":"  edappadi (tk) salem "},"bbox":[77.8403,11.6134,77.8403,11.6134]},{"type":"Feature","geometry":{"type":"Point","coordinates":[77.9407,11.6138]},"properties":{"district":"Salem","taluk":"Edappadi (Tk)","village":"Kachchippalli","name":"Konagyur","area_type":"Rural","shop_code":"07HP013P1","search_string":"  edappadi (tk) salem "},"bbox":[77.9407,11.6138,77.9407,11.6138]},{"type":"Feature","geometry":{"type":"Point","coordinates":[77.8962,11.6141]},"properties":{"district":"Salem","taluk":"Edappadi (Tk)","village":"Koranampatti","name":"Koranampatti-1","area_type":"Rural","shop_code":"07HP009PY","search_string":"  edappadi (tk) salem "},"bbox":[77.8962,11.6141,77.8962,11.6141]},{"type":"Feature","geometry":{"type":"Point","coordinates":[77.7675,11.6148]},"properties":{"district":"Salem","taluk":"Edappadi (Tk)","village":"Vellarivelli","name":"Pudupatti","area_type":"Rural","shop_code":"07HP035P1","search_string":"  edappadi (tk) salem "},"bbox":[77.7675,11.6148,77.7675,11.6148]},{"type":"Feature","geometry":{"type":"Point","coordinates":[77.9202,11.6152]},"properties":{"district":"Salem","taluk":"Edappadi (Tk)","village":"Koranampatti","name":"Thoppakadu","area_type":"Rural","shop_code":"07HP009P1","search_string":"  edappadi (tk) salem "},"bbox":[77.9202,11.6152,77.9202,11.6152]},{"type":"Feature","geometry":{"type":"Point","coordinates":[77.9104,11.6163]},"properties":{"district":"Salem","taluk":"Edappadi (Tk)","village":"Koranampatti","name":"Rayanampatti","area_type":"Rural","shop_code":"07HP051PN","search_string":"  edappadi (tk) salem "},"bbox":[77.9104,11.6163,77.9104,11.6163]},{"type":"Feature","geometry":{"type":"Point","coordinates":[77.7827,11.6169]},"properties":{"district":"Salem","taluk":"Edappadi (Tk)","village":"Vellarivelli","name":"Sullemullur","area_type":"Rural","shop_code":"07HP035PY","search_string":"  edappadi (tk) salem "},"bbox":[77.7827,11.6169,77.7827,11.6169]},{"type":"Feature","geometry":{"type":"Point","coordinates":[77.755,11.6189]},"properties":{"district":"Salem","taluk":"Edappadi (Tk)","village":"Nedugulam","name":"Naveethankuittyur","area_type":"Rural","shop_code":"07HP020P2","search_string":"  edappadi (tk) salem "},"bbox":[77.755,11.6189,77.755,11.6189]},{"type":"Feature","geometry":{"type":"Point","coordinates":[77.8044,11.6199]},"properties":{"district":"Salem","taluk":"Edappadi (Tk)","village":"Vellarivelli","name":"Nadupatti","area_type":"Rural","shop_code":"07HP036P1","search_string":"  edappadi (tk) salem "},"bbox":[77.8044,11.6199,77.8044,11.6199]},{"type":"Feature","geometry":{"type":"Point","coordinates":[77.8315,11.6202]},"properties":{"district":"Salem","taluk":"Edappadi (Tk)","village":"Avaniperur West","name":"Muppanur","area_type":"Urban","shop_code":"07HP002P1","search_string":"  edappadi (tk) salem "},"bbox":[77.8315,11.6202,77.8315,11.6202]},{"type":"Feature","geometry":{"type":"Point","coordinates":[77.8779,11.6214]},"properties":{"district":"Salem","taluk":"Edappadi (Tk)","village":"Dathapuram","name":"Dathapuram","area_type":"Rural","shop_code":"07HP021PY","search_string":"  edappadi (tk) salem "},"bbox":[77.8779,11.6214,77.8779,11.6214]},{"type":"Feature","geometry":{"type":"Point","coordinates":[77.8983,11.6235]},"properties":{"district":"Salem","taluk":"Edappadi (Tk)","village":"Konasamuthram","name":"Konasamuthram","area_type":"Rural","shop_code":"07HP008PY","search_string":"  edappadi (tk) salem "},"bbox":[77.8983,11.6235,77.8983,11.6235]},{"type":"Feature","geometry":{"type":"Point","coordinates":[77.8397,11.6238]},"properties":{"district":"Salem","taluk":"Edappadi (Tk)","village":"Avaniperur West","name":"Naichpalayam","area_type":"Urban","shop_code":"07HP002P2","search_string":"  edappadi (tk) salem "},"bbox":[77.8397,11.6238,77.8397,11.6238]},{"type":"Feature","geometry":{"type":"Point","coordinates":[77.9202,11.624]},"properties":{"district":"Salem","taluk":"Edappadi (Tk)","village":"Vellapuram","name":"Vell. Mottur","area_type":"Rural","shop_code":"07HP053P1","search_string":"  edappadi (tk) salem "},"bbox":[77.9202,11.624,77.9202,11.624]},{"type":"Feature","geometry":{"type":"Point","coordinates":[77.8283,11.6266]},"properties":{"district":"Salem","taluk":"Edappadi (Tk)","village":"Chittur","name":"Vedikarampalyam","area_type":"Rural","shop_code":"07HP032P2","search_string":"  edappadi (tk) salem "},"bbox":[77.8283,11.6266,77.8283,11.6266]},{"type":"Feature","geometry":{"type":"Point","coordinates":[77.9282,11.6269]},"properties":{"district":"Salem","taluk":"Edappadi (Tk)","village":"Vellapuram","name":"Ayamarthur","area_type":"Rural","shop_code":"07HP053PY","search_string":"  edappadi (tk) salem "},"bbox":[77.9282,11.6269,77.9282,11.6269]},{"type":"Feature","geometry":{"type":"Point","coordinates":[77.8572,11.627]},"properties":{"district":"Salem","taluk":"Edappadi (Tk)","village":"Chettimakuruchi","name":"Motta Kadu","area_type":"Rural","shop_code":"07HP024P1","search_string":"  edappadi (tk) salem "},"bbox":[77.8572,11.627,77.8572,11.627]},{"type":"Feature","geometry":{"type":"Point","coordinates":[77.812,11.6276]},"properties":{"district":"Salem","taluk":"Edappadi (Tk)","village":"Chittur","name":"Ellakuitur","area_type":"Rural","shop_code":"07HP040PN","search_string":"  edappadi (tk) salem "},"bbox":[77.812,11.6276,77.812,11.6276]},{"type":"Feature","geometry":{"type":"Point","coordinates":[77.941,11.6292]},"properties":{"district":"Salem","taluk":"Edappadi (Tk)","village":"Vellapuram","name":"Mettupalayam","area_type":"Rural","shop_code":"07HP015PN","search_string":"  edappadi (tk) salem "},"bbox":[77.941,11.6292,77.941,11.6292]},{"type":"Feature","geometry":{"type":"Point","coordinates":[77.9157,11.6293]},"properties":{"district":"Salem","taluk":"Edappadi (Tk)","village":"Konasamuthram","name":"Kannaiyampatti","area_type":"Rural","shop_code":"07HP008P1","search_string":"  edappadi (tk) salem "},"bbox":[77.9157,11.6293,77.9157,11.6293]},{"type":"Feature","geometry":{"type":"Point","coordinates":[77.7993,11.6303]},"properties":{"district":"Salem","taluk":"Edappadi (Tk)","village":"Chittur","name":"Morasampatti","area_type":"Rural","shop_code":"07HP032P1","search_string":"  edappadi (tk) salem "},"bbox":[77.7993,11.6303,77.7993,11.6303]},{"type":"Feature","geometry":{"type":"Point","coordinates":[77.841,11.6311]},"properties":{"district":"Salem","taluk":"Edappadi (Tk)","village":"Chettimakuruchi","name":"Ottapatti","area_type":"Rural","shop_code":"07HP024PY","search_string":"  edappadi (tk) salem "},"bbox":[77.841,11.6311,77.841,11.6311]},{"type":"Feature","geometry":{"type":"Point","coordinates":[77.8723,11.6316]},"properties":{"district":"Salem","taluk":"Edappadi (Tk)","village":"Dathapuram","name":"Karithkannakkanur","area_type":"Rural","shop_code":"07HP022PN","search_string":"  edappadi (tk) salem "},"bbox":[77.8723,11.6316,77.8723,11.6316]},{"type":"Feature","geometry":{"type":"Point","coordinates":[77.8829,11.6365]},"properties":{"district":"Salem","taluk":"Edappadi (Tk)","village":"Vembaneri","name":"Vembaneri","area_type":"Rural","shop_code":"07HP019PY","search_string":"  edappadi (tk) salem "},"bbox":[77.8829,11.6365,77.8829,11.6365]},{"type":"Feature","geometry":{"type":"Point","coordinates":[77.784,11.6368]},"properties":{"district":"Salem","taluk":"Edappadi (Tk)","village":"Poolampatti","name":"Pillukuruchi","area_type":"Urban","shop_code":"07HP007PN","search_string":"  edappadi (tk) salem "},"bbox":[77.784,11.6368,77.784,11.6368]},{"type":"Feature","geometry":{"type":"Point","coordinates":[77.8994,11.6373]},"properties":{"district":"Salem","taluk":"Edappadi (Tk)","village":"Samutharam","name":"Karaikadu","area_type":"Rural","shop_code":"07HP068PN","search_string":"  edappadi (tk) salem "},"bbox":[77.8994,11.6373,77.8994,11.6373]},{"type":"Feature","geometry":{"type":"Point","coordinates":[77.9402,11.6374]},"properties":{"district":"Salem","taluk":"Edappadi (Tk)","village":"Vellapuram","name":"Akkaripatti","area_type":"Rural","shop_code":"07HP014P1","search_string":"  edappadi (tk) salem "},"bbox":[77.9402,11.6374,77.9402,11.6374]},{"type":"Feature","geometry":{"type":"Point","coordinates":[77.7617,11.6381]},"properties":{"district":"Salem","taluk":"Edappadi (Tk)","village":"Poolampatti","name":"Molapparai","area_type":"Urban","shop_code":"07HP042PN","search_string":"  edappadi (tk) salem "},"bbox":[77.7617,11.6381,77.7617,11.6381]},{"type":"Feature","geometry":{"type":"Point","coordinates":[77.824,11.6404]},"properties":{"district":"Salem","taluk":"Edappadi (Tk)","village":"Chittur","name":"Nathapatti","area_type":"Rural","shop_code":"07HP032PY","search_string":"  edappadi (tk) salem "},"bbox":[77.824,11.6404,77.824,11.6404]},{"type":"Feature","geometry":{"type":"Point","coordinates":[77.8703,11.6405]},"properties":{"district":"Salem","taluk":"Edappadi (Tk)","village":"Chettimakuruchi","name":"Areyampalayam","area_type":"Rural","shop_code":"07HP023P1","search_string":"  edappadi (tk) salem "},"bbox":[77.8703,11.6405,77.8703,11.6405]},{"type":"Feature","geometry":{"type":"Point","coordinates":[77.849,11.6423]},"properties":{"district":"Salem","taluk":"Edappadi (Tk)","village":"Chettimakuruchi","name":"Chetimakuruchi","area_type":"Rural","shop_code":"07HP023PY","search_string":"  edappadi (tk) salem "},"bbox":[77.849,11.6423,77.849,11.6423]},{"type":"Feature","geometry":{"type":"Point","coordinates":[77.803,11.6431]},"properties":{"district":"Salem","taluk":"Edappadi (Tk)","village":"Chittur","name":"Savadipalyam","area_type":"Rural","shop_code":"07HP031P1","search_string":"  edappadi (tk) salem "},"bbox":[77.803,11.6431,77.803,11.6431]},{"type":"Feature","geometry":{"type":"Point","coordinates":[77.8443,11.6451]},"properties":{"district":"Salem","taluk":"Edappadi (Tk)","village":"Chettimakuruchi","name":"Kunndanoor","area_type":"Rural","shop_code":"07HP023P2","search_string":"  edappadi (tk) salem "},"bbox":[77.8443,11.6451,77.8443,11.6451]},{"type":"Feature","geometry":{"type":"Point","coordinates":[77.9021,11.6451]},"properties":{"district":"Salem","taluk":"Edappadi (Tk)","village":"Samutharam","name":"Pudupalayam","area_type":"Rural","shop_code":"07HP018PY","search_string":"  edappadi (tk) salem "},"bbox":[77.9021,11.6451,77.9021,11.6451]},{"type":"Feature","geometry":{"type":"Point","coordinates":[77.9273,11.646]},"properties":{"district":"Salem","taluk":"Edappadi (Tk)","village":"Vellapuram","name":"Ellanur","area_type":"Rural","shop_code":"07HP016P1","search_string":"  edappadi (tk) salem "},"bbox":[77.9273,11.646,77.9273,11.646]},{"type":"Feature","geometry":{"type":"Point","coordinates":[77.9402,11.6466]},"properties":{"district":"Salem","taluk":"Edappadi (Tk)","village":"Vellapuram","name":"Vellapuram","area_type":"Rural","shop_code":"07HP014PY","search_string":"  edappadi (tk) salem "},"bbox":[77.9402,11.6466,77.9402,11.6466]},{"type":"Feature","geometry":{"type":"Point","coordinates":[77.8247,11.6482]},"properties":{"district":"Salem","taluk":"Edappadi (Tk)","village":"Chittur","name":"Chittur","area_type":"Rural","shop_code":"07HP031PY","search_string":"  edappadi (tk) salem "},"bbox":[77.8247,11.6482,77.8247,11.6482]},{"type":"Feature","geometry":{"type":"Point","coordinates":[77.8915,11.6488]},"properties":{"district":"Salem","taluk":"Edappadi (Tk)","village":"Samutharam","name":"Mutheyampatti","area_type":"Rural","shop_code":"07HP018P1","search_string":"  edappadi (tk) salem "},"bbox":[77.8915,11.6488,77.8915,11.6488]},{"type":"Feature","geometry":{"type":"Point","coordinates":[77.8804,11.65]},"properties":{"district":"Salem","taluk":"Edappadi (Tk)","village":"Vembaneri","name":"Manmathanvalavu","area_type":"Rural","shop_code":"07HP019P1","search_string":"  edappadi (tk) salem "},"bbox":[77.8804,11.65,77.8804,11.65]},{"type":"Feature","geometry":{"type":"Point","coordinates":[77.8386,11.6533]},"properties":{"district":"Salem","taluk":"Edappadi (Tk)","village":"Chittur","name":"Pudhur","area_type":"Rural","shop_code":"07HP031P2","search_string":"  edappadi (tk) salem "},"bbox":[77.8386,11.6533,77.8386,11.6533]},{"type":"Feature","geometry":{"type":"Point","coordinates":[77.906,11.6541]},"properties":{"district":"Salem","taluk":"Edappadi (Tk)","village":"Samutharam","name":"Samuthram","area_type":"Rural","shop_code":"07HP017PN","search_string":"  edappadi (tk) salem "},"bbox":[77.906,11.6541,77.906,11.6541]},{"type":"Feature","geometry":{"type":"Point","coordinates":[77.7875,11.6546]},"properties":{"district":"Salem","taluk":"Edappadi (Tk)","village":"Poolampatti","name":"Valayachettiyur","area_type":"Urban","shop_code":"07HP005P1","search_string":"  edappadi (tk) salem "},"bbox":[77.7875,11.6546,77.7875,11.6546]},{"type":"Feature","geometry":{"type":"Point","coordinates":[77.764,11.6549]},"properties":{"district":"Salem","taluk":"Edappadi (Tk)","village":"Poolampatti","name":"Poolampati","area_type":"Urban","shop_code":"07HP005PY","search_string":"  edappadi (tk) salem "},"bbox":[77.764,11.6549,77.764,11.6549]},{"type":"Feature","geometry":{"type":"Point","coordinates":[77.8839,11.656]},"properties":{"district":"Salem","taluk":"Edappadi (Tk)","village":"Samutharam","name":"K.Koil.Mulakkadi","area_type":"Rural","shop_code":"07HP043PN","search_string":"  edappadi (tk) salem "},"bbox":[77.8839,11.656,77.8839,11.656]},{"type":"Feature","geometry":{"type":"Point","coordinates":[77.9349,11.6587]},"properties":{"district":"Salem","taluk":"Edappadi (Tk)","village":"Vellapuram","name":"Muniyampatti","area_type":"Rural","shop_code":"07HP016PY","search_string":"  edappadi (tk) salem "},"bbox":[77.9349,11.6587,77.9349,11.6587]},{"type":"Feature","geometry":{"type":"Point","coordinates":[77.8659,11.6591]},"properties":{"district":"Salem","taluk":"Edappadi (Tk)","village":"Irupaali","name":"Kurukkupatti","area_type":"Rural","shop_code":"07HP025PY","search_string":"  edappadi (tk) salem "},"bbox":[77.8659,11.6591,77.8659,11.6591]},{"type":"Feature","geometry":{"type":"Point","coordinates":[77.8437,11.6592]},"properties":{"district":"Salem","taluk":"Edappadi (Tk)","village":"Irupaali","name":"Irupaali","area_type":"Rural","shop_code":"07HP026PY","search_string":"  edappadi (tk) salem "},"bbox":[77.8437,11.6592,77.8437,11.6592]},{"type":"Feature","geometry":{"type":"Point","coordinates":[77.8542,11.6598]},"properties":{"district":"Salem","taluk":"Edappadi (Tk)","village":"Irupaali","name":"Moolpathai","area_type":"Rural","shop_code":"07HP026P2","search_string":"  edappadi (tk) salem "},"bbox":[77.8542,11.6598,77.8542,11.6598]},{"type":"Feature","geometry":{"type":"Point","coordinates":[77.822,11.6611]},"properties":{"district":"Salem","taluk":"Edappadi (Tk)","village":"Chittur","name":"Oruvapatti","area_type":"Rural","shop_code":"07HP039PN","search_string":"  edappadi (tk) salem "},"bbox":[77.822,11.6611,77.822,11.6611]},{"type":"Feature","geometry":{"type":"Point","coordinates":[77.7907,11.6638]},"properties":{"district":"Salem","taluk":"Edappadi (Tk)","village":"Chittur","name":"Anikattampudur","area_type":"Rural","shop_code":"07HP033P1","search_string":"  edappadi (tk) salem "},"bbox":[77.7907,11.6638,77.7907,11.6638]},{"type":"Feature","geometry":{"type":"Point","coordinates":[77.8001,11.6649]},"properties":{"district":"Salem","taluk":"Edappadi (Tk)","village":"Chittur","name":"Puleyampatti","area_type":"Rural","shop_code":"07HP033PY","search_string":"  edappadi (tk) salem "},"bbox":[77.8001,11.6649,77.8001,11.6649]},{"type":"Feature","geometry":{"type":"Point","coordinates":[77.7746,11.6675]},"properties":{"district":"Salem","taluk":"Edappadi (Tk)","village":"Poolampatti","name":"Kuppanur","area_type":"Urban","shop_code":"07HP006PY","search_string":"  edappadi (tk) salem "},"bbox":[77.7746,11.6675,77.7746,11.6675]},{"type":"Feature","geometry":{"type":"Point","coordinates":[77.7875,11.67]},"properties":{"district":"Salem","taluk":"Edappadi (Tk)","village":"Poolampatti","name":"Vanniyanagar","area_type":"Urban","shop_code":"07HP006P1","search_string":"  edappadi (tk) salem "},"bbox":[77.7875,11.67,77.7875,11.67]},{"type":"Feature","geometry":{"type":"Point","coordinates":[77.8603,11.6734]},"properties":{"district":"Salem","taluk":"Edappadi (Tk)","village":"Irupaali","name":"Kalarpatti","area_type":"Rural","shop_code":"07HP046PY","search_string":"  edappadi (tk) salem "},"bbox":[77.8603,11.6734,77.8603,11.6734]},{"type":"Feature","geometry":{"type":"Point","coordinates":[77.8753,11.674]},"properties":{"district":"Salem","taluk":"Edappadi (Tk)","village":"Irupaali","name":"Kattupalym","area_type":"Rural","shop_code":"07HP025P1","search_string":"  edappadi (tk) salem "},"bbox":[77.8753,11.674,77.8753,11.674]},{"type":"Feature","geometry":{"type":"Point","coordinates":[77.8458,11.6771]},"properties":{"district":"Salem","taluk":"Edappadi (Tk)","village":"Irupaali","name":"Naikarevalavu","area_type":"Rural","shop_code":"07HP027PY","search_string":"  edappadi (tk) salem "},"bbox":[77.8458,11.6771,77.8458,11.6771]},{"type":"Feature","geometry":{"type":"Point","coordinates":[77.87,11.678]},"properties":{"district":"Salem","taluk":"Edappadi (Tk)","village":"Irupaali","name":"Sevedanuur","area_type":"Rural","shop_code":"07HP046P1","search_string":"  edappadi (tk) salem "},"bbox":[77.87,11.678,77.87,11.678]},{"type":"Feature","geometry":{"type":"Point","coordinates":[77.7996,11.6852]},"properties":{"district":"Salem","taluk":"Edappadi (Tk)","village":"Pakkanadu","name":"Ammankolikadu","area_type":"Rural","shop_code":"07HP029P1","search_string":"  edappadi (tk) salem "},"bbox":[77.7996,11.6852,77.7996,11.6852]},{"type":"Feature","geometry":{"type":"Point","coordinates":[77.8473,11.6902]},"properties":{"district":"Salem","taluk":"Edappadi (Tk)","village":"Irupaali","name":"Ramagowndanur","area_type":"Rural","shop_code":"07HP027P1","search_string":"  edappadi (tk) salem "},"bbox":[77.8473,11.6902,77.8473,11.6902]},{"type":"Feature","geometry":{"type":"Point","coordinates":[77.8306,11.6915]},"properties":{"district":"Salem","taluk":"Edappadi (Tk)","village":"Adaiyur","name":"Kelakkukadu","area_type":"Rural","shop_code":"07HP028P1","search_string":"  edappadi (tk) salem "},"bbox":[77.8306,11.6915,77.8306,11.6915]},{"type":"Feature","geometry":{"type":"Point","coordinates":[77.8197,11.6938]},"properties":{"district":"Salem","taluk":"Edappadi (Tk)","village":"Adaiyur","name":"Adaiyur","area_type":"Rural","shop_code":"07HP028PY","search_string":"  edappadi (tk) salem "},"bbox":[77.8197,11.6938,77.8197,11.6938]},{"type":"Feature","geometry":{"type":"Point","coordinates":[77.82,11.7003]},"properties":{"district":"Salem","taluk":"Edappadi (Tk)","village":"Pakkanadu","name":"Pakkanadu","area_type":"Rural","shop_code":"07HP029PY","search_string":"  edappadi (tk) salem "},"bbox":[77.82,11.7003,77.82,11.7003]},{"type":"Feature","geometry":{"type":"Point","coordinates":[77.8315,11.709]},"properties":{"district":"Salem","taluk":"Edappadi (Tk)","village":"Pakkanadu","name":"Mettustreet","area_type":"Rural","shop_code":"07HP030PY","search_string":"  edappadi (tk) salem "},"bbox":[77.8315,11.709,77.8315,11.709]},{"type":"Feature","geometry":{"type":"Point","coordinates":[77.822,11.7111]},"properties":{"district":"Salem","taluk":"Edappadi (Tk)","village":"Pakkanadu","name":"Aduvapatti","area_type":"Rural","shop_code":"07HP058PN","search_string":"  edappadi (tk) salem "},"bbox":[77.822,11.7111,77.822,11.7111]},{"type":"Feature","geometry":{"type":"Point","coordinates":[77.8371,11.7201]},"properties":{"district":"Salem","taluk":"Edappadi (Tk)","village":"Pakkanadu","name":"Aanaipallam","area_type":"Rural","shop_code":"07HP030P1","search_string":"  edappadi (tk) salem "},"bbox":[77.8371,11.7201,77.8371,11.7201]},{"type":"Feature","geometry":{"type":"Point","coordinates":[78.5648,11.3283]},"properties":{"district":"Salem","taluk":"Gangavalli (tk)","village":"Pachimalai","name":"Periyapakkalam","area_type":"Rural","shop_code":"07DE005PN","search_string":"  gangavalli (tk) salem "},"bbox":[78.5648,11.3283,78.5648,11.3283]},{"type":"Feature","geometry":{"type":"Point","coordinates":[78.5855,11.3415]},"properties":{"district":"Salem","taluk":"Gangavalli (tk)","village":"Pachimalai","name":"Oodaikkattupudhur","area_type":"Rural","shop_code":"07DE004PN","search_string":"  gangavalli (tk) salem "},"bbox":[78.5855,11.3415,78.5855,11.3415]},{"type":"Feature","geometry":{"type":"Point","coordinates":[78.6178,11.3537]},"properties":{"district":"Salem","taluk":"Gangavalli (tk)","village":"Pachimalai","name":"Nallamaathi","area_type":"Rural","shop_code":"07DE007PN","search_string":"  gangavalli (tk) salem "},"bbox":[78.6178,11.3537,78.6178,11.3537]},{"type":"Feature","geometry":{"type":"Point","coordinates":[78.571,11.3698]},"properties":{"district":"Salem","taluk":"Gangavalli (tk)","village":"Pachimalai","name":"Mayampady","area_type":"Rural","shop_code":"07DE003PN","search_string":"  gangavalli (tk) salem "},"bbox":[78.571,11.3698,78.571,11.3698]},{"type":"Feature","geometry":{"type":"Point","coordinates":[78.6455,11.383]},"properties":{"district":"Salem","taluk":"Gangavalli (tk)","village":"Pachimalai","name":"Veppady","area_type":"Rural","shop_code":"07DE001PN","search_string":"  gangavalli (tk) salem "},"bbox":[78.6455,11.383,78.6455,11.383]},{"type":"Feature","geometry":{"type":"Point","coordinates":[78.6537,11.3967]},"properties":{"district":"Salem","taluk":"Gangavalli (tk)","village":"Pachimalai","name":"Paalakkadu","area_type":"Rural","shop_code":"07DE002PN","search_string":"  gangavalli (tk) salem "},"bbox":[78.6537,11.3967,78.6537,11.3967]},{"type":"Feature","geometry":{"type":"Point","coordinates":[78.5239,11.4018]},"properties":{"district":"Salem","taluk":"Gangavalli (tk)","village":"Manmalai","name":"ManMalai","area_type":"Rural","shop_code":"07DP030P1","search_string":"  gangavalli (tk) salem "},"bbox":[78.5239,11.4018,78.5239,11.4018]},{"type":"Feature","geometry":{"type":"Point","coordinates":[78.4591,11.4106]},"properties":{"district":"Salem","taluk":"Gangavalli (tk)","village":"Valagombai","name":"Vazlakombai","area_type":"Rural","shop_code":"07DP018PN","search_string":"  gangavalli (tk) salem "},"bbox":[78.4591,11.4106,78.4591,11.4106]},{"type":"Feature","geometry":{"type":"Point","coordinates":[78.4899,11.4235]},"properties":{"district":"Salem","taluk":"Gangavalli (tk)","village":"Thammampatty Town","name":"Panathoppu","area_type":"Urban","shop_code":"07DP067PN","search_string":"  gangavalli (tk) salem "},"bbox":[78.4899,11.4235,78.4899,11.4235]},{"type":"Feature","geometry":{"type":"Point","coordinates":[78.577,11.4281]},"properties":{"district":"Salem","taluk":"Gangavalli (tk)","village":"Belur","name":"95-Belur","area_type":"Rural","shop_code":"07DP026PY","search_string":"  gangavalli (tk) salem "},"bbox":[78.577,11.4281,78.577,11.4281]},{"type":"Feature","geometry":{"type":"Point","coordinates":[78.4601,11.4319]},"properties":{"district":"Salem","taluk":"Gangavalli (tk)","village":"Jangamasamuthiram","name":"Sengadu","area_type":"Rural","shop_code":"07DP017P1","search_string":"  gangavalli (tk) salem "},"bbox":[78.4601,11.4319,78.4601,11.4319]},{"type":"Feature","geometry":{"type":"Point","coordinates":[78.521,11.4357]},"properties":{"district":"Salem","taluk":"Gangavalli (tk)","village":"Sentharapatti Town","name":"Sentharappatti-3","area_type":"Urban","shop_code":"07DP011PN","search_string":"  gangavalli (tk) salem "},"bbox":[78.521,11.4357,78.521,11.4357]},{"type":"Feature","geometry":{"type":"Point","coordinates":[78.5174,11.4366]},"properties":{"district":"Salem","taluk":"Gangavalli (tk)","village":"Sentharapatti Town","name":"Sentharappatti-1","area_type":"Urban","shop_code":"07DP009PN","search_string":"  gangavalli (tk) salem "},"bbox":[78.5174,11.4366,78.5174,11.4366]},{"type":"Feature","geometry":{"type":"Point","coordinates":[78.5175,11.437]},"properties":{"district":"Salem","taluk":"Gangavalli (tk)","village":"Sentharapatti Town","name":"Sentharappatti-2","area_type":"Urban","shop_code":"07DP010PN","search_string":"  gangavalli (tk) salem "},"bbox":[78.5175,11.437,78.5175,11.437]},{"type":"Feature","geometry":{"type":"Point","coordinates":[78.5216,11.437]},"properties":{"district":"Salem","taluk":"Gangavalli (tk)","village":"Sentharapatti Town","name":"Sentharappatti -4","area_type":"Urban","shop_code":"07DB003PN","search_string":"  gangavalli (tk) salem "},"bbox":[78.5216,11.437,78.5216,11.437]},{"type":"Feature","geometry":{"type":"Point","coordinates":[78.5252,11.4378]},"properties":{"district":"Salem","taluk":"Gangavalli (tk)","village":"Sentharapatti Town","name":"Sentharappatti -5","area_type":"Urban","shop_code":"07DB004PY","search_string":"  gangavalli (tk) salem "},"bbox":[78.5252,11.4378,78.5252,11.4378]},{"type":"Feature","geometry":{"type":"Point","coordinates":[78.4857,11.4382]},"properties":{"district":"Salem","taluk":"Gangavalli (tk)","village":"Thammampatty Town","name":"Thammampatti-2","area_type":"Urban","shop_code":"07DP013PN","search_string":"  gangavalli (tk) salem "},"bbox":[78.4857,11.4382,78.4857,11.4382]},{"type":"Feature","geometry":{"type":"Point","coordinates":[78.4907,11.4388]},"properties":{"district":"Salem","taluk":"Gangavalli (tk)","village":"Sentharapatti Town","name":"S. Thammampatti -1","area_type":"Urban","shop_code":"07DB001PN","search_string":"  gangavalli (tk) salem "},"bbox":[78.4907,11.4388,78.4907,11.4388]},{"type":"Feature","geometry":{"type":"Point","coordinates":[78.5499,11.4412]},"properties":{"district":"Salem","taluk":"Gangavalli (tk)","village":"Manmalai","name":"ManMalai","area_type":"Rural","shop_code":"07DP030PY","search_string":"  gangavalli (tk) salem "},"bbox":[78.5499,11.4412,78.5499,11.4412]},{"type":"Feature","geometry":{"type":"Point","coordinates":[78.4876,11.4417]},"properties":{"district":"Salem","taluk":"Gangavalli (tk)","village":"Sentharapatti Town","name":"S. Thammampatti -2","area_type":"Urban","shop_code":"07DB002PN","search_string":"  gangavalli (tk) salem "},"bbox":[78.4876,11.4417,78.4876,11.4417]},{"type":"Feature","geometry":{"type":"Point","coordinates":[78.4934,11.4439]},"properties":{"district":"Salem","taluk":"Gangavalli (tk)","village":"Thammampatty Town","name":"Thammampatti-3","area_type":"Urban","shop_code":"07DP047PN","search_string":"  gangavalli (tk) salem "},"bbox":[78.4934,11.4439,78.4934,11.4439]},{"type":"Feature","geometry":{"type":"Point","coordinates":[78.4724,11.4455]},"properties":{"district":"Salem","taluk":"Gangavalli (tk)","village":"Jangamasamuthiram","name":"Jangamasamudram","area_type":"Rural","shop_code":"07DP017PY","search_string":"  gangavalli (tk) salem "},"bbox":[78.4724,11.4455,78.4724,11.4455]},{"type":"Feature","geometry":{"type":"Point","coordinates":[78.485,11.4463]},"properties":{"district":"Salem","taluk":"Gangavalli (tk)","village":"Thammampatty Town","name":"Thammampatti-1","area_type":"Urban","shop_code":"07DP012PN","search_string":"  gangavalli (tk) salem "},"bbox":[78.485,11.4463,78.485,11.4463]},{"type":"Feature","geometry":{"type":"Point","coordinates":[78.4791,11.4469]},"properties":{"district":"Salem","taluk":"Gangavalli (tk)","village":"Thammampatty Town","name":"Gandhi Nagar","area_type":"Urban","shop_code":"07DP066PN","search_string":"  gangavalli (tk) salem "},"bbox":[78.4791,11.4469,78.4791,11.4469]},{"type":"Feature","geometry":{"type":"Point","coordinates":[78.506,11.4488]},"properties":{"district":"Salem","taluk":"Gangavalli (tk)","village":"Koneripatty","name":"Koneripatti","area_type":"Urban","shop_code":"07DP014PY","search_string":"  gangavalli (tk) salem "},"bbox":[78.506,11.4488,78.506,11.4488]},{"type":"Feature","geometry":{"type":"Point","coordinates":[78.6378,11.4516]},"properties":{"district":"Salem","taluk":"Gangavalli (tk)","village":"Pachimalai","name":"Edapady","area_type":"Rural","shop_code":"07DE006PN","search_string":"  gangavalli (tk) salem "},"bbox":[78.6378,11.4516,78.6378,11.4516]},{"type":"Feature","geometry":{"type":"Point","coordinates":[78.5272,11.4571]},"properties":{"district":"Salem","taluk":"Gangavalli (tk)","village":"Kondaiyampalli","name":"Kondayampalli-1","area_type":"Rural","shop_code":"07DP027PY","search_string":"  gangavalli (tk) salem "},"bbox":[78.5272,11.4571,78.5272,11.4571]},{"type":"Feature","geometry":{"type":"Point","coordinates":[78.5447,11.4575]},"properties":{"district":"Salem","taluk":"Gangavalli (tk)","village":"Thagarapudhur","name":"Thagarapudhur","area_type":"Rural","shop_code":"07DP027P1","search_string":"  gangavalli (tk) salem "},"bbox":[78.5447,11.4575,78.5447,11.4575]},{"type":"Feature","geometry":{"type":"Point","coordinates":[78.5224,11.4584]},"properties":{"district":"Salem","taluk":"Gangavalli (tk)","village":"Kondaiyampalli","name":"Kondayampalli-2","area_type":"Rural","shop_code":"07DP028PN","search_string":"  gangavalli (tk) salem "},"bbox":[78.5224,11.4584,78.5224,11.4584]},{"type":"Feature","geometry":{"type":"Point","coordinates":[78.5626,11.4588]},"properties":{"district":"Salem","taluk":"Gangavalli (tk)","village":"Gudamalai","name":"Othalakadu","area_type":"Rural","shop_code":"07DP025P1","search_string":"  gangavalli (tk) salem "},"bbox":[78.5626,11.4588,78.5626,11.4588]},{"type":"Feature","geometry":{"type":"Point","coordinates":[78.4706,11.4596]},"properties":{"district":"Salem","taluk":"Gangavalli (tk)","village":"Nagiyampatty","name":"N.Kalipatti","area_type":"Rural","shop_code":"07DP016P1","search_string":"  gangavalli (tk) salem "},"bbox":[78.4706,11.4596,78.4706,11.4596]},{"type":"Feature","geometry":{"type":"Point","coordinates":[78.5924,11.4601]},"properties":{"district":"Salem","taluk":"Gangavalli (tk)","village":"Gudamalai","name":"Gudamalai-2","area_type":"Rural","shop_code":"07DP025PY","search_string":"  gangavalli (tk) salem "},"bbox":[78.5924,11.4601,78.5924,11.4601]},{"type":"Feature","geometry":{"type":"Point","coordinates":[78.5924,11.4604]},"properties":{"district":"Salem","taluk":"Gangavalli (tk)","village":"Gudamalai","name":"Gudamalai-1","area_type":"Rural","shop_code":"07DP024PN","search_string":"  gangavalli (tk) salem "},"bbox":[78.5924,11.4604,78.5924,11.4604]},{"type":"Feature","geometry":{"type":"Point","coordinates":[78.4812,11.4618]},"properties":{"district":"Salem","taluk":"Gangavalli (tk)","village":"Nagiyampatty","name":"Nagiyampatti-1","area_type":"Rural","shop_code":"07DP015PN","search_string":"  gangavalli (tk) salem "},"bbox":[78.4812,11.4618,78.4812,11.4618]},{"type":"Feature","geometry":{"type":"Point","coordinates":[78.5425,11.4637]},"properties":{"district":"Salem","taluk":"Gangavalli (tk)","village":"Moolappudhur Vilage","name":"Moolapudhur","area_type":"Rural","shop_code":"07DP029PN","search_string":"  gangavalli (tk) salem "},"bbox":[78.5425,11.4637,78.5425,11.4637]},{"type":"Feature","geometry":{"type":"Point","coordinates":[78.4808,11.4644]},"properties":{"district":"Salem","taluk":"Gangavalli (tk)","village":"Nagiyampatty","name":"Nagiyampatti-2","area_type":"Rural","shop_code":"07DP016PY","search_string":"  gangavalli (tk) salem "},"bbox":[78.4808,11.4644,78.4808,11.4644]},{"type":"Feature","geometry":{"type":"Point","coordinates":[78.458,11.467]},"properties":{"district":"Salem","taluk":"Gangavalli (tk)","village":"Ulipuram Vilage","name":"Ulipuram-1","area_type":"Rural","shop_code":"07DP031PN","search_string":"  gangavalli (tk) salem "},"bbox":[78.458,11.467,78.458,11.467]},{"type":"Feature","geometry":{"type":"Point","coordinates":[78.4585,11.4675]},"properties":{"district":"Salem","taluk":"Gangavalli (tk)","village":"Ulipuram Vilage","name":"Ulipuram - 4","area_type":"Rural","shop_code":"07DP069PN","search_string":"  gangavalli (tk) salem "},"bbox":[78.4585,11.4675,78.4585,11.4675]},{"type":"Feature","geometry":{"type":"Point","coordinates":[78.4577,11.468]},"properties":{"district":"Salem","taluk":"Gangavalli (tk)","village":"Ulipuram Vilage","name":"Ulipuram - 3","area_type":"Rural","shop_code":"07DP068PN","search_string":"  gangavalli (tk) salem "},"bbox":[78.4577,11.468,78.4577,11.468]},{"type":"Feature","geometry":{"type":"Point","coordinates":[78.5083,11.4692]},"properties":{"district":"Salem","taluk":"Gangavalli (tk)","village":"Koneripatty","name":"Bharathipuram","area_type":"Urban","shop_code":"07DP014P1","search_string":"  gangavalli (tk) salem "},"bbox":[78.5083,11.4692,78.5083,11.4692]},{"type":"Feature","geometry":{"type":"Point","coordinates":[78.6169,11.4701]},"properties":{"district":"Salem","taluk":"Gangavalli (tk)","village":"Kirushnapuram","name":"74-Krishnapuram","area_type":"Rural","shop_code":"07DP006PY","search_string":"  gangavalli (tk) salem "},"bbox":[78.6169,11.4701,78.6169,11.4701]},{"type":"Feature","geometry":{"type":"Point","coordinates":[78.4585,11.4705]},"properties":{"district":"Salem","taluk":"Gangavalli (tk)","village":"Ulipuram Vilage","name":"Ulipuram-2","area_type":"Rural","shop_code":"07DP032PY","search_string":"  gangavalli (tk) salem "},"bbox":[78.4585,11.4705,78.4585,11.4705]},{"type":"Feature","geometry":{"type":"Point","coordinates":[78.628,11.472]},"properties":{"district":"Salem","taluk":"Gangavalli (tk)","village":"Valasakalpatty","name":"Gansapuram","area_type":"Urban","shop_code":"07DP003P1","search_string":"  gangavalli (tk) salem "},"bbox":[78.628,11.472,78.628,11.472]},{"type":"Feature","geometry":{"type":"Point","coordinates":[78.6177,11.4767]},"properties":{"district":"Salem","taluk":"Gangavalli (tk)","village":"Kirushnapuram","name":"Thanneer pandal","area_type":"Rural","shop_code":"07DP006P1","search_string":"  gangavalli (tk) salem "},"bbox":[78.6177,11.4767,78.6177,11.4767]},{"type":"Feature","geometry":{"type":"Point","coordinates":[78.623,11.4808]},"properties":{"district":"Salem","taluk":"Gangavalli (tk)","village":"Valasakalpatty","name":"Valasakkalpatti","area_type":"Urban","shop_code":"07DP003PY","search_string":"  gangavalli (tk) salem "},"bbox":[78.623,11.4808,78.623,11.4808]},{"type":"Feature","geometry":{"type":"Point","coordinates":[78.7016,11.4926]},"properties":{"district":"Salem","taluk":"Gangavalli (tk)","village":"Thedavur Town","name":"Thedavur Ambethkar nagar","area_type":"Urban","shop_code":"07DP007P1","search_string":"  gangavalli (tk) salem "},"bbox":[78.7016,11.4926,78.7016,11.4926]},{"type":"Feature","geometry":{"type":"Point","coordinates":[78.6968,11.4934]},"properties":{"district":"Salem","taluk":"Gangavalli (tk)","village":"Thedavur Town","name":"Thedavur-2","area_type":"Urban","shop_code":"07DP008PN","search_string":"  gangavalli (tk) salem "},"bbox":[78.6968,11.4934,78.6968,11.4934]},{"type":"Feature","geometry":{"type":"Point","coordinates":[78.6851,11.4935]},"properties":{"district":"Salem","taluk":"Gangavalli (tk)","village":"Thedavur Town","name":"Thedavur pudhur","area_type":"Rural","shop_code":"07DP046PN","search_string":"  gangavalli (tk) salem "},"bbox":[78.6851,11.4935,78.6851,11.4935]},{"type":"Feature","geometry":{"type":"Point","coordinates":[78.6981,11.4935]},"properties":{"district":"Salem","taluk":"Gangavalli (tk)","village":"Thedavur Town","name":"Thedavur-1","area_type":"Urban","shop_code":"07DP007PY","search_string":"  gangavalli (tk) salem "},"bbox":[78.6981,11.4935,78.6981,11.4935]},{"type":"Feature","geometry":{"type":"Point","coordinates":[78.6824,11.4947]},"properties":{"district":"Salem","taluk":"Gangavalli (tk)","village":"Aniyampatti","name":"Aanayampatti Pudhur","area_type":"Rural","shop_code":"07DP005P1","search_string":"  gangavalli (tk) salem "},"bbox":[78.6824,11.4947,78.6824,11.4947]},{"type":"Feature","geometry":{"type":"Point","coordinates":[78.6541,11.4959]},"properties":{"district":"Salem","taluk":"Gangavalli (tk)","village":"Aniyampatti","name":"Aanayampatti-1","area_type":"Rural","shop_code":"07DP004PN","search_string":"  gangavalli (tk) salem "},"bbox":[78.6541,11.4959,78.6541,11.4959]},{"type":"Feature","geometry":{"type":"Point","coordinates":[78.6571,11.4965]},"properties":{"district":"Salem","taluk":"Gangavalli (tk)","village":"Aniyampatti","name":"Aanayampatti-2","area_type":"Rural","shop_code":"07DP005PY","search_string":"  gangavalli (tk) salem "},"bbox":[78.6571,11.4965,78.6571,11.4965]},{"type":"Feature","geometry":{"type":"Point","coordinates":[78.6465,11.4974]},"properties":{"district":"Salem","taluk":"Gangavalli (tk)","village":"Gangavalli Town","name":"Gangavalli-1","area_type":"Urban","shop_code":"07DP001PN","search_string":"  gangavalli (tk) salem "},"bbox":[78.6465,11.4974,78.6465,11.4974]},{"type":"Feature","geometry":{"type":"Point","coordinates":[78.6463,11.4974]},"properties":{"district":"Salem","taluk":"Gangavalli (tk)","village":"Gangavalli Town","name":"Gangavalli-2","area_type":"Urban","shop_code":"07DP002PN","search_string":"  gangavalli (tk) salem "},"bbox":[78.6463,11.4974,78.6463,11.4974]},{"type":"Feature","geometry":{"type":"Point","coordinates":[78.6063,11.5017]},"properties":{"district":"Salem","taluk":"Gangavalli (tk)","village":"Kadambur","name":"Kadampur-1","area_type":"Rural","shop_code":"07DP022PN","search_string":"  gangavalli (tk) salem "},"bbox":[78.6063,11.5017,78.6063,11.5017]},{"type":"Feature","geometry":{"type":"Point","coordinates":[78.6043,11.5023]},"properties":{"district":"Salem","taluk":"Gangavalli (tk)","village":"Kadambur","name":"Kadampur-3","area_type":"Rural","shop_code":"07DP071PN","search_string":"  gangavalli (tk) salem "},"bbox":[78.6043,11.5023,78.6043,11.5023]},{"type":"Feature","geometry":{"type":"Point","coordinates":[78.6012,11.5029]},"properties":{"district":"Salem","taluk":"Gangavalli (tk)","village":"Kadambur","name":"Kadampur-2","area_type":"Rural","shop_code":"07DP023PY","search_string":"  gangavalli (tk) salem "},"bbox":[78.6012,11.5029,78.6012,11.5029]},{"type":"Feature","geometry":{"type":"Point","coordinates":[78.6431,11.5041]},"properties":{"district":"Salem","taluk":"Gangavalli (tk)","village":"Gangavalli Town","name":"Gangavalli-3","area_type":"Urban","shop_code":"07DP064PN","search_string":"  gangavalli (tk) salem "},"bbox":[78.6431,11.5041,78.6431,11.5041]},{"type":"Feature","geometry":{"type":"Point","coordinates":[78.584,11.5134]},"properties":{"district":"Salem","taluk":"Gangavalli (tk)","village":"Kadambur","name":"Ka-Ramanathpuram","area_type":"Rural","shop_code":"07DP023P1","search_string":"  gangavalli (tk) salem "},"bbox":[78.584,11.5134,78.584,11.5134]},{"type":"Feature","geometry":{"type":"Point","coordinates":[78.6641,11.52]},"properties":{"district":"Salem","taluk":"Gangavalli (tk)","village":"Naduvalur","name":"Naduvalur-1","area_type":"Rural","shop_code":"07DP020PN","search_string":"  gangavalli (tk) salem "},"bbox":[78.6641,11.52,78.6641,11.52]},{"type":"Feature","geometry":{"type":"Point","coordinates":[78.6629,11.522]},"properties":{"district":"Salem","taluk":"Gangavalli (tk)","village":"Naduvalur","name":"Naduvalur-2","area_type":"Rural","shop_code":"07DP065PN","search_string":"  gangavalli (tk) salem "},"bbox":[78.6629,11.522,78.6629,11.522]},{"type":"Feature","geometry":{"type":"Point","coordinates":[78.6414,11.5226]},"properties":{"district":"Salem","taluk":"Gangavalli (tk)","village":"Naduvalur","name":"Samathuvapuram","area_type":"Rural","shop_code":"07DP021P1","search_string":"  gangavalli (tk) salem "},"bbox":[78.6414,11.5226,78.6414,11.5226]},{"type":"Feature","geometry":{"type":"Point","coordinates":[78.6509,11.5284]},"properties":{"district":"Salem","taluk":"Gangavalli (tk)","village":"Pallakadu","name":"Pallakkadu","area_type":"Rural","shop_code":"07DP021PY","search_string":"  gangavalli (tk) salem "},"bbox":[78.6509,11.5284,78.6509,11.5284]},{"type":"Feature","geometry":{"type":"Point","coordinates":[78.6594,11.546]},"properties":{"district":"Salem","taluk":"Gangavalli (tk)","village":"Othiyathur","name":"Othiyathur","area_type":"Rural","shop_code":"07DP019PN","search_string":"  gangavalli (tk) salem "},"bbox":[78.6594,11.546,78.6594,11.546]},{"type":"Feature","geometry":{"type":"Point","coordinates":[78.0513,11.7754]},"properties":{"district":"Salem","taluk":"Kadayampatti","village":"Thathiyampatty","name":"Thathiyampatty","area_type":"Rural","shop_code":"07MP021PN","search_string":"  kadayampatti salem "},"bbox":[78.0513,11.7754,78.0513,11.7754]},{"type":"Feature","geometry":{"type":"Point","coordinates":[78.0713,11.7774]},"properties":{"district":"Salem","taluk":"Kadayampatti","village":"Pottiapuram Kalani","name":"Pottipuram","area_type":"Rural","shop_code":"07MP036PY","search_string":"  kadayampatti salem "},"bbox":[78.0713,11.7774,78.0713,11.7774]},{"type":"Feature","geometry":{"type":"Point","coordinates":[78.0838,11.7817]},"properties":{"district":"Salem","taluk":"Kadayampatti","village":"Karuthanoor","name":"Karuthanoor","area_type":"Rural","shop_code":"07MP037PY","search_string":"  kadayampatti salem "},"bbox":[78.0838,11.7817,78.0838,11.7817]},{"type":"Feature","geometry":{"type":"Point","coordinates":[78.0799,11.7865]},"properties":{"district":"Salem","taluk":"Kadayampatti","village":"Pottiapuram Kalani","name":"Pottiapuram Kalani","area_type":"Rural","shop_code":"07MP037P1","search_string":"  kadayampatti salem "},"bbox":[78.0799,11.7865,78.0799,11.7865]},{"type":"Feature","geometry":{"type":"Point","coordinates":[78.0157,11.7877]},"properties":{"district":"Salem","taluk":"Kadayampatti","village":"S Mottur","name":"S.Mottur","area_type":"Rural","shop_code":"07MP153P1","search_string":"  kadayampatti salem "},"bbox":[78.0157,11.7877,78.0157,11.7877]},{"type":"Feature","geometry":{"type":"Point","coordinates":[78.048,11.788]},"properties":{"district":"Salem","taluk":"Kadayampatti","village":"Tharapuram","name":"Tharapuram","area_type":"Rural","shop_code":"07MP098PN","search_string":"  kadayampatti salem "},"bbox":[78.048,11.788,78.048,11.788]},{"type":"Feature","geometry":{"type":"Point","coordinates":[78.0479,11.7882]},"properties":{"district":"Salem","taluk":"Kadayampatti","village":"Tharapuram","name":"Tharapuram 2","area_type":"Rural","shop_code":"07MP178PN","search_string":"  kadayampatti salem "},"bbox":[78.0479,11.7882,78.0479,11.7882]},{"type":"Feature","geometry":{"type":"Point","coordinates":[78.0246,11.7891]},"properties":{"district":"Salem","taluk":"Kadayampatti","village":"Semmadapatty Mettu Theru","name":"Semmadapatty Mettu Theru","area_type":"Rural","shop_code":"07MP153PY","search_string":"  kadayampatti salem "},"bbox":[78.0246,11.7891,78.0246,11.7891]},{"type":"Feature","geometry":{"type":"Point","coordinates":[78.0298,11.7896]},"properties":{"district":"Salem","taluk":"Kadayampatti","village":"Semmadapatty","name":"Semmadapatty","area_type":"Rural","shop_code":"07MP125PN","search_string":"  kadayampatti salem "},"bbox":[78.0298,11.7896,78.0298,11.7896]},{"type":"Feature","geometry":{"type":"Point","coordinates":[78.0558,11.7902]},"properties":{"district":"Salem","taluk":"Kadayampatti","village":"Sikkanampatty","name":"Sikkanampatty","area_type":"Rural","shop_code":"07MP020PY","search_string":"  kadayampatti salem "},"bbox":[78.0558,11.7902,78.0558,11.7902]},{"type":"Feature","geometry":{"type":"Point","coordinates":[78.073,11.791]},"properties":{"district":"Salem","taluk":"Kadayampatti","village":"Sattur","name":"Sattur","area_type":"Rural","shop_code":"07MP036P1","search_string":"  kadayampatti salem "},"bbox":[78.073,11.791,78.073,11.791]},{"type":"Feature","geometry":{"type":"Point","coordinates":[78.0846,11.792]},"properties":{"district":"Salem","taluk":"Kadayampatti","village":"Ottatheru","name":"Ottatheru","area_type":"Rural","shop_code":"07MP062PN","search_string":"  kadayampatti salem "},"bbox":[78.0846,11.792,78.0846,11.792]},{"type":"Feature","geometry":{"type":"Point","coordinates":[78.0356,11.7928]},"properties":{"district":"Salem","taluk":"Kadayampatti","village":"Umagoundapatty","name":"Umagoundapatty","area_type":"Rural","shop_code":"07MP108PY","search_string":"  kadayampatti salem "},"bbox":[78.0356,11.7928,78.0356,11.7928]},{"type":"Feature","geometry":{"type":"Point","coordinates":[78.0414,11.8004]},"properties":{"district":"Salem","taluk":"Kadayampatti","village":"Kundur","name":"Kundur","area_type":"Rural","shop_code":"07MP108P2","search_string":"  kadayampatti salem "},"bbox":[78.0414,11.8004,78.0414,11.8004]},{"type":"Feature","geometry":{"type":"Point","coordinates":[78.0654,11.8014]},"properties":{"district":"Salem","taluk":"Kadayampatti","village":"Chinna Naduppatty","name":"Chinna Naduppatty","area_type":"Rural","shop_code":"07MP020P1","search_string":"  kadayampatti salem "},"bbox":[78.0654,11.8014,78.0654,11.8014]},{"type":"Feature","geometry":{"type":"Point","coordinates":[78.0195,11.8041]},"properties":{"district":"Salem","taluk":"Kadayampatti","village":"Periyapatty","name":"Periyapatty","area_type":"Rural","shop_code":"07MP126PN","search_string":"  kadayampatti salem "},"bbox":[78.0195,11.8041,78.0195,11.8041]},{"type":"Feature","geometry":{"type":"Point","coordinates":[78.0928,11.8045]},"properties":{"district":"Salem","taluk":"Kadayampatti","village":"Mullisettipatti","name":"Mullisettipatti","area_type":"Rural","shop_code":"07MP061PN","search_string":"  kadayampatti salem "},"bbox":[78.0928,11.8045,78.0928,11.8045]},{"type":"Feature","geometry":{"type":"Point","coordinates":[78.0779,11.8066]},"properties":{"district":"Salem","taluk":"Kadayampatti","village":"Thumbipadi","name":"Thumbipadi","area_type":"Rural","shop_code":"07MP060P1","search_string":"  kadayampatti salem "},"bbox":[78.0779,11.8066,78.0779,11.8066]},{"type":"Feature","geometry":{"type":"Point","coordinates":[78.0611,11.8082]},"properties":{"district":"Salem","taluk":"Kadayampatti","village":"Kuthirakuthipalam","name":"Kuthirakuthipalam","area_type":"Rural","shop_code":"07MP063P1","search_string":"  kadayampatti salem "},"bbox":[78.0611,11.8082,78.0611,11.8082]},{"type":"Feature","geometry":{"type":"Point","coordinates":[78.0492,11.8143]},"properties":{"district":"Salem","taluk":"Kadayampatti","village":"Kottamedu","name":"Kottamedu","area_type":"Rural","shop_code":"07MP106P1","search_string":"  kadayampatti salem "},"bbox":[78.0492,11.8143,78.0492,11.8143]},{"type":"Feature","geometry":{"type":"Point","coordinates":[78.0947,11.8163]},"properties":{"district":"Salem","taluk":"Kadayampatti","village":"Thinnapatty","name":"Thinnapatty","area_type":"Rural","shop_code":"07MP115PY","search_string":"  kadayampatti salem "},"bbox":[78.0947,11.8163,78.0947,11.8163]},{"type":"Feature","geometry":{"type":"Point","coordinates":[78.0675,11.8176]},"properties":{"district":"Salem","taluk":"Kadayampatti","village":"Aathukadu","name":"Aathukadu C D S","area_type":"Rural","shop_code":"07MP063PY","search_string":"  kadayampatti salem "},"bbox":[78.0675,11.8176,78.0675,11.8176]},{"type":"Feature","geometry":{"type":"Point","coordinates":[78.004,11.818]},"properties":{"district":"Salem","taluk":"Kadayampatti","village":"Marakottai","name":"Marakottai","area_type":"Rural","shop_code":"07MP110PN","search_string":"  kadayampatti salem "},"bbox":[78.004,11.818,78.004,11.818]},{"type":"Feature","geometry":{"type":"Point","coordinates":[78.0887,11.8211]},"properties":{"district":"Salem","taluk":"Kadayampatti","village":"Sarakapillaivur","name":"Sarakapillaivur","area_type":"Rural","shop_code":"07MP060PY","search_string":"  kadayampatti salem "},"bbox":[78.0887,11.8211,78.0887,11.8211]},{"type":"Feature","geometry":{"type":"Point","coordinates":[78.0363,11.8234]},"properties":{"district":"Salem","taluk":"Kadayampatti","village":"Pappichettipatti","name":"Pappichettipatti","area_type":"Rural","shop_code":"07MP140PN","search_string":"  kadayampatti salem "},"bbox":[78.0363,11.8234,78.0363,11.8234]},{"type":"Feature","geometry":{"type":"Point","coordinates":[78.0484,11.8266]},"properties":{"district":"Salem","taluk":"Kadayampatti","village":"Kanjanayankanpatty","name":"Kanjanayankanpatty -","area_type":"Rural","shop_code":"07MP106PY","search_string":"  kadayampatti salem "},"bbox":[78.0484,11.8266,78.0484,11.8266]},{"type":"Feature","geometry":{"type":"Point","coordinates":[78.0749,11.8282]},"properties":{"district":"Salem","taluk":"Kadayampatti","village":"Pannapatty","name":"Pannapatty","area_type":"Rural","shop_code":"07MP121PY","search_string":"  kadayampatti salem "},"bbox":[78.0749,11.8282,78.0749,11.8282]},{"type":"Feature","geometry":{"type":"Point","coordinates":[78.075,11.8285]},"properties":{"district":"Salem","taluk":"Kadayampatti","village":"Pannapatty","name":"Pannapatti 2","area_type":"Rural","shop_code":"07MP174PN","search_string":"  kadayampatti salem "},"bbox":[78.075,11.8285,78.075,11.8285]},{"type":"Feature","geometry":{"type":"Point","coordinates":[78.0504,11.8288]},"properties":{"district":"Salem","taluk":"Kadayampatti","village":"Kanjanayankanpatty","name":"Kanjanackanpatti","area_type":"Rural","shop_code":"07MP107PN","search_string":"  kadayampatti salem "},"bbox":[78.0504,11.8288,78.0504,11.8288]},{"type":"Feature","geometry":{"type":"Point","coordinates":[78.0825,11.829]},"properties":{"district":"Salem","taluk":"Kadayampatti","village":"Kankianoor","name":"Kankianoor","area_type":"Rural","shop_code":"07MP121P1","search_string":"  kadayampatti salem "},"bbox":[78.0825,11.829,78.0825,11.829]},{"type":"Feature","geometry":{"type":"Point","coordinates":[78.0616,11.8304]},"properties":{"district":"Salem","taluk":"Kadayampatti","village":"Pudu Mariamman Kovil St","name":"Pudu Mariamman Kovil St","area_type":"Rural","shop_code":"07MP124P1","search_string":"  kadayampatti salem "},"bbox":[78.0616,11.8304,78.0616,11.8304]},{"type":"Feature","geometry":{"type":"Point","coordinates":[78.0289,11.8339]},"properties":{"district":"Salem","taluk":"Kadayampatti","village":"Chinnathirupathi","name":"Chinnathirupathi","area_type":"Rural","shop_code":"07MP111PN","search_string":"  kadayampatti salem "},"bbox":[78.0289,11.8339,78.0289,11.8339]},{"type":"Feature","geometry":{"type":"Point","coordinates":[78.0922,11.8339]},"properties":{"district":"Salem","taluk":"Kadayampatti","village":"Mattukaranpudur","name":"Mattukaranpudur","area_type":"Rural","shop_code":"07MP115P1","search_string":"  kadayampatti salem "},"bbox":[78.0922,11.8339,78.0922,11.8339]},{"type":"Feature","geometry":{"type":"Point","coordinates":[78.0548,11.8352]},"properties":{"district":"Salem","taluk":"Kadayampatti","village":"Kanjanayankanpatty","name":"Kanjanackanpatti-3","area_type":"Rural","shop_code":"07MP177PN","search_string":"  kadayampatti salem "},"bbox":[78.0548,11.8352,78.0548,11.8352]},{"type":"Feature","geometry":{"type":"Point","coordinates":[78.0553,11.8353]},"properties":{"district":"Salem","taluk":"Kadayampatti","village":"Mankanoor","name":"Mankanoor","area_type":"Rural","shop_code":"07MP106P2","search_string":"  kadayampatti salem "},"bbox":[78.0553,11.8353,78.0553,11.8353]},{"type":"Feature","geometry":{"type":"Point","coordinates":[78.0798,11.8364]},"properties":{"district":"Salem","taluk":"Kadayampatti","village":"Maragoundan Pudur","name":"Maragoundan Pudur","area_type":"Rural","shop_code":"07MP122PN","search_string":"  kadayampatti salem "},"bbox":[78.0798,11.8364,78.0798,11.8364]},{"type":"Feature","geometry":{"type":"Point","coordinates":[78.0617,11.8367]},"properties":{"district":"Salem","taluk":"Kadayampatti","village":"Poosaripatty","name":"Poosaripatty","area_type":"Rural","shop_code":"07MP124PY","search_string":"  kadayampatti salem "},"bbox":[78.0617,11.8367,78.0617,11.8367]},{"type":"Feature","geometry":{"type":"Point","coordinates":[78.1274,11.8404]},"properties":{"district":"Salem","taluk":"Kadayampatti","village":"Molakaratur","name":"Molakaratur","area_type":"Rural","shop_code":"07MP116PN","search_string":"  kadayampatti salem "},"bbox":[78.1274,11.8404,78.1274,11.8404]},{"type":"Feature","geometry":{"type":"Point","coordinates":[78.064,11.8445]},"properties":{"district":"Salem","taluk":"Kadayampatti","village":"Indira Nagar","name":"Indira Nagar  Fps","area_type":"Rural","shop_code":"07MP123P1","search_string":"  kadayampatti salem "},"bbox":[78.064,11.8445,78.064,11.8445]},{"type":"Feature","geometry":{"type":"Point","coordinates":[78.0299,11.8455]},"properties":{"district":"Salem","taluk":"Kadayampatti","village":"Karuvalli","name":"Karuvalli","area_type":"Rural","shop_code":"07MP109PN","search_string":"  kadayampatti salem "},"bbox":[78.0299,11.8455,78.0299,11.8455]},{"type":"Feature","geometry":{"type":"Point","coordinates":[78.0556,11.8472]},