{"type":"FeatureCollection","features":[{"type":"Feature","geometry":{"type":"Point","coordinates":[78.8818,9.7584]},"properties":{"district":"Sivagangai","taluk":"Devakottai (Tk)","village":"Selugai","name":"Selugai","area_type":"Rural","shop_code":"21DP015PY","search_string":"  devakottai (tk) sivagangai "},"bbox":[78.8818,9.7584,78.8818,9.7584]},{"type":"Feature","geometry":{"type":"Point","coordinates":[78.8804,9.7734]},"properties":{"district":"Sivagangai","taluk":"Devakottai (Tk)","village":"Pudhukudi","name":"Pudhukudi","area_type":"Rural","shop_code":"21DP015P1","search_string":"  devakottai (tk) sivagangai "},"bbox":[78.8804,9.7734,78.8804,9.7734]},{"type":"Feature","geometry":{"type":"Point","coordinates":[78.736,9.7816]},"properties":{"district":"Sivagangai","taluk":"Devakottai (Tk)","village":"Chithanur","name":"Kulamangalam","area_type":"Rural","shop_code":"21DP063P1","search_string":"  devakottai (tk) sivagangai "},"bbox":[78.736,9.7816,78.736,9.7816]},{"type":"Feature","geometry":{"type":"Point","coordinates":[78.8157,9.785]},"properties":{"district":"Sivagangai","taluk":"Devakottai (Tk)","village":"Sirunallur","name":"Sirunallur","area_type":"Rural","shop_code":"21DP058PN","search_string":"  devakottai (tk) sivagangai "},"bbox":[78.8157,9.785,78.8157,9.785]},{"type":"Feature","geometry":{"type":"Point","coordinates":[78.8588,9.786]},"properties":{"district":"Sivagangai","taluk":"Devakottai (Tk)","village":"Paruthiyur","name":"Paruthiyur","area_type":"Rural","shop_code":"21DP035PN","search_string":"  devakottai (tk) sivagangai "},"bbox":[78.8588,9.786,78.8588,9.786]},{"type":"Feature","geometry":{"type":"Point","coordinates":[78.7575,9.788]},"properties":{"district":"Sivagangai","taluk":"Devakottai (Tk)","village":"Keelauchani","name":"Keelauchani","area_type":"Rural","shop_code":"21DP063PY","search_string":"  devakottai (tk) sivagangai "},"bbox":[78.7575,9.788,78.7575,9.788]},{"type":"Feature","geometry":{"type":"Point","coordinates":[78.7934,9.7964]},"properties":{"district":"Sivagangai","taluk":"Devakottai (Tk)","village":"Anukkanenthal","name":"Anukkanenthal","area_type":"Rural","shop_code":"21DP059PN","search_string":"  devakottai (tk) sivagangai "},"bbox":[78.7934,9.7964,78.7934,9.7964]},{"type":"Feature","geometry":{"type":"Point","coordinates":[78.741,9.8012]},"properties":{"district":"Sivagangai","taluk":"Devakottai (Tk)","village":"Nagaramangalam","name":"Nagaramangalam","area_type":"Rural","shop_code":"21DP068PN","search_string":"  devakottai (tk) sivagangai "},"bbox":[78.741,9.8012,78.741,9.8012]},{"type":"Feature","geometry":{"type":"Point","coordinates":[78.8577,9.8042]},"properties":{"district":"Sivagangai","taluk":"Devakottai (Tk)","village":"Karkalathur","name":"Karkalathur","area_type":"Rural","shop_code":"21DP034PN","search_string":"  devakottai (tk) sivagangai "},"bbox":[78.8577,9.8042,78.8577,9.8042]},{"type":"Feature","geometry":{"type":"Point","coordinates":[78.7652,9.8048]},"properties":{"district":"Sivagangai","taluk":"Devakottai (Tk)","village":"Sekkagudui","name":"Sekkagudui","area_type":"Rural","shop_code":"21DP060PN","search_string":"  devakottai (tk) sivagangai "},"bbox":[78.7652,9.8048,78.7652,9.8048]},{"type":"Feature","geometry":{"type":"Point","coordinates":[78.8268,9.8081]},"properties":{"district":"Sivagangai","taluk":"Devakottai (Tk)","village":"Muppaiyur","name":"Muppaiyur","area_type":"Rural","shop_code":"21DP033PN","search_string":"  devakottai (tk) sivagangai "},"bbox":[78.8268,9.8081,78.8268,9.8081]},{"type":"Feature","geometry":{"type":"Point","coordinates":[78.7833,9.832]},"properties":{"district":"Sivagangai","taluk":"Devakottai (Tk)","village":"Thiruvegampat","name":"Thiruvegampat","area_type":"Rural","shop_code":"21DP061PY","search_string":"  devakottai (tk) sivagangai "},"bbox":[78.7833,9.832,78.7833,9.832]},{"type":"Feature","geometry":{"type":"Point","coordinates":[78.7539,9.8331]},"properties":{"district":"Sivagangai","taluk":"Devakottai (Tk)","village":"Ponnalikkottai","name":"Ponnalikkottai","area_type":"Rural","shop_code":"21DP069PN","search_string":"  devakottai (tk) sivagangai "},"bbox":[78.7539,9.8331,78.7539,9.8331]},{"type":"Feature","geometry":{"type":"Point","coordinates":[78.7913,9.8349]},"properties":{"district":"Sivagangai","taluk":"Devakottai (Tk)","village":"Orasur","name":"Orasur","area_type":"Rural","shop_code":"21DP062PN","search_string":"  devakottai (tk) sivagangai "},"bbox":[78.7913,9.8349,78.7913,9.8349]},{"type":"Feature","geometry":{"type":"Point","coordinates":[78.8236,9.8426]},"properties":{"district":"Sivagangai","taluk":"Devakottai (Tk)","village":"Vilankattor","name":"Vilankattor","area_type":"Rural","shop_code":"21DP061P1","search_string":"  devakottai (tk) sivagangai "},"bbox":[78.8236,9.8426,78.8236,9.8426]},{"type":"Feature","geometry":{"type":"Point","coordinates":[78.7322,9.8465]},"properties":{"district":"Sivagangai","taluk":"Devakottai (Tk)","village":"Uruvatti","name":"Uruvatti","area_type":"Rural","shop_code":"21DP067PN","search_string":"  devakottai (tk) sivagangai "},"bbox":[78.7322,9.8465,78.7322,9.8465]},{"type":"Feature","geometry":{"type":"Point","coordinates":[78.8636,9.8467]},"properties":{"district":"Sivagangai","taluk":"Devakottai (Tk)","village":"Puliyal","name":"Puliyal","area_type":"Rural","shop_code":"21DP025PN","search_string":"  devakottai (tk) sivagangai "},"bbox":[78.8636,9.8467,78.8636,9.8467]},{"type":"Feature","geometry":{"type":"Point","coordinates":[78.8585,9.8507]},"properties":{"district":"Sivagangai","taluk":"Devakottai (Tk)","village":"Kiliyur","name":"Kiliyur","area_type":"Rural","shop_code":"21DP072PN","search_string":"  devakottai (tk) sivagangai "},"bbox":[78.8585,9.8507,78.8585,9.8507]},{"type":"Feature","geometry":{"type":"Point","coordinates":[78.7437,9.8508]},"properties":{"district":"Sivagangai","taluk":"Devakottai (Tk)","village":"Sarugani","name":"Sarugani","area_type":"Rural","shop_code":"21DP064PN","search_string":"  devakottai (tk) sivagangai "},"bbox":[78.7437,9.8508,78.7437,9.8508]},{"type":"Feature","geometry":{"type":"Point","coordinates":[78.8515,9.855]},"properties":{"district":"Sivagangai","taluk":"Devakottai (Tk)","village":"Pagayani","name":"Pagayani","area_type":"Rural","shop_code":"21DP026PY","search_string":"  devakottai (tk) sivagangai "},"bbox":[78.8515,9.855,78.8515,9.855]},{"type":"Feature","geometry":{"type":"Point","coordinates":[78.722,9.857]},"properties":{"district":"Sivagangai","taluk":"Devakottai (Tk)","village":"Kumaraveloor","name":"Kumaraveloor","area_type":"Rural","shop_code":"21DP056P1","search_string":"  devakottai (tk) sivagangai "},"bbox":[78.722,9.857,78.722,9.857]},{"type":"Feature","geometry":{"type":"Point","coordinates":[78.7542,9.8577]},"properties":{"district":"Sivagangai","taluk":"Devakottai (Tk)","village":"Gobalapuram","name":"Gobalapuram","area_type":"Rural","shop_code":"21DP065PN","search_string":"  devakottai (tk) sivagangai "},"bbox":[78.7542,9.8577,78.7542,9.8577]},{"type":"Feature","geometry":{"type":"Point","coordinates":[78.7457,9.8596]},"properties":{"district":"Sivagangai","taluk":"Devakottai (Tk)","village":"Vellikatti","name":"Vellikatti","area_type":"Rural","shop_code":"21DP066PN","search_string":"  devakottai (tk) sivagangai "},"bbox":[78.7457,9.8596,78.7457,9.8596]},{"type":"Feature","geometry":{"type":"Point","coordinates":[78.8032,9.8623]},"properties":{"district":"Sivagangai","taluk":"Devakottai (Tk)","village":"Kumani","name":"Kumani","area_type":"Rural","shop_code":"21DP071PN","search_string":"  devakottai (tk) sivagangai "},"bbox":[78.8032,9.8623,78.8032,9.8623]},{"type":"Feature","geometry":{"type":"Point","coordinates":[78.8249,9.8642]},"properties":{"district":"Sivagangai","taluk":"Devakottai (Tk)","village":"Panangulam","name":"Panangulam","area_type":"Rural","shop_code":"21DP029PN","search_string":"  devakottai (tk) sivagangai "},"bbox":[78.8249,9.8642,78.8249,9.8642]},{"type":"Feature","geometry":{"type":"Point","coordinates":[78.7974,9.8682]},"properties":{"district":"Sivagangai","taluk":"Devakottai (Tk)","village":"Siruvathi","name":"Siruvathi","area_type":"Rural","shop_code":"21DP057PY","search_string":"  devakottai (tk) sivagangai "},"bbox":[78.7974,9.8682,78.7974,9.8682]},{"type":"Feature","geometry":{"type":"Point","coordinates":[78.7255,9.8702]},"properties":{"district":"Sivagangai","taluk":"Devakottai (Tk)","village":"Shanmuganathapattinam","name":"Shanmuganathapattinam","area_type":"Rural","shop_code":"21DP056PY","search_string":"  devakottai (tk) sivagangai "},"bbox":[78.7255,9.8702,78.7255,9.8702]},{"type":"Feature","geometry":{"type":"Point","coordinates":[78.8351,9.8732]},"properties":{"district":"Sivagangai","taluk":"Devakottai (Tk)","village":"Sakkanthi","name":"Sakkanthi","area_type":"Rural","shop_code":"21DP028PY","search_string":"  devakottai (tk) sivagangai "},"bbox":[78.8351,9.8732,78.8351,9.8732]},{"type":"Feature","geometry":{"type":"Point","coordinates":[78.7769,9.8756]},"properties":{"district":"Sivagangai","taluk":"Devakottai (Tk)","village":"Samathuvapuram","name":"Samathuvapuram","area_type":"Rural","shop_code":"21DP030P1","search_string":"  devakottai (tk) sivagangai "},"bbox":[78.7769,9.8756,78.7769,9.8756]},{"type":"Feature","geometry":{"type":"Point","coordinates":[78.7614,9.8819]},"properties":{"district":"Sivagangai","taluk":"Devakottai (Tk)","village":"Sengarkovil","name":"Sengarkovil","area_type":"Rural","shop_code":"21DP070PN","search_string":"  devakottai (tk) sivagangai "},"bbox":[78.7614,9.8819,78.7614,9.8819]},{"type":"Feature","geometry":{"type":"Point","coordinates":[78.8074,9.8831]},"properties":{"district":"Sivagangai","taluk":"Devakottai (Tk)","village":"Ilangudi","name":"Ilangudi","area_type":"Rural","shop_code":"21DP057P1","search_string":"  devakottai (tk) sivagangai "},"bbox":[78.8074,9.8831,78.8074,9.8831]},{"type":"Feature","geometry":{"type":"Point","coordinates":[78.8462,9.8856]},"properties":{"district":"Sivagangai","taluk":"Devakottai (Tk)","village":"Variyanvayal","name":"Variyanvayal","area_type":"Rural","shop_code":"21DP028P1","search_string":"  devakottai (tk) sivagangai "},"bbox":[78.8462,9.8856,78.8462,9.8856]},{"type":"Feature","geometry":{"type":"Point","coordinates":[78.7775,9.8895]},"properties":{"district":"Sivagangai","taluk":"Devakottai (Tk)","village":"Nagadi","name":"Nagadi","area_type":"Rural","shop_code":"21DP030PY","search_string":"  devakottai (tk) sivagangai "},"bbox":[78.7775,9.8895,78.7775,9.8895]},{"type":"Feature","geometry":{"type":"Point","coordinates":[78.8921,9.8919]},"properties":{"district":"Sivagangai","taluk":"Devakottai (Tk)","village":"Thiruppakkottai","name":"Thiruppakkottai","area_type":"Rural","shop_code":"21DP050PN","search_string":"  devakottai (tk) sivagangai "},"bbox":[78.8921,9.8919,78.8921,9.8919]},{"type":"Feature","geometry":{"type":"Point","coordinates":[78.8449,9.8937]},"properties":{"district":"Sivagangai","taluk":"Devakottai (Tk)","village":"Kodikottai","name":"Kodikottai","area_type":"Rural","shop_code":"21DP006P1","search_string":"  devakottai (tk) sivagangai "},"bbox":[78.8449,9.8937,78.8449,9.8937]},{"type":"Feature","geometry":{"type":"Point","coordinates":[78.8556,9.8966]},"properties":{"district":"Sivagangai","taluk":"Devakottai (Tk)","village":"Kdagampatti","name":"Kdagampatti","area_type":"Rural","shop_code":"21DP008PN","search_string":"  devakottai (tk) sivagangai "},"bbox":[78.8556,9.8966,78.8556,9.8966]},{"type":"Feature","geometry":{"type":"Point","coordinates":[78.8208,9.9019]},"properties":{"district":"Sivagangai","taluk":"Devakottai (Tk)","village":"Manjani","name":"Manjani","area_type":"Rural","shop_code":"21DP011PN","search_string":"  devakottai (tk) sivagangai "},"bbox":[78.8208,9.9019,78.8208,9.9019]},{"type":"Feature","geometry":{"type":"Point","coordinates":[78.804,9.9051]},"properties":{"district":"Sivagangai","taluk":"Devakottai (Tk)","village":"Thirumanavayal","name":"Thirumanavayal","area_type":"Rural","shop_code":"21DP031PN","search_string":"  devakottai (tk) sivagangai "},"bbox":[78.804,9.9051,78.804,9.9051]},{"type":"Feature","geometry":{"type":"Point","coordinates":[78.7172,9.9103]},"properties":{"district":"Sivagangai","taluk":"Devakottai (Tk)","village":"Vethiyalangulam","name":"Vethiyalangulam","area_type":"Rural","shop_code":"21DP024PN","search_string":"  devakottai (tk) sivagangai "},"bbox":[78.7172,9.9103,78.7172,9.9103]},{"type":"Feature","geometry":{"type":"Point","coordinates":[78.789,9.9108]},"properties":{"district":"Sivagangai","taluk":"Devakottai (Tk)","village":"Kottur","name":"Kottur","area_type":"Rural","shop_code":"21DP019PN","search_string":"  devakottai (tk) sivagangai "},"bbox":[78.789,9.9108,78.789,9.9108]},{"type":"Feature","geometry":{"type":"Point","coordinates":[78.7593,9.9115]},"properties":{"district":"Sivagangai","taluk":"Devakottai (Tk)","village":"Kallangudi","name":"Kallangudi","area_type":"Rural","shop_code":"21DP032PN","search_string":"  devakottai (tk) sivagangai "},"bbox":[78.7593,9.9115,78.7593,9.9115]},{"type":"Feature","geometry":{"type":"Point","coordinates":[78.8381,9.9137]},"properties":{"district":"Sivagangai","taluk":"Devakottai (Tk)","village":"Maviduthikkottai","name":"Maviduthikkottai","area_type":"Rural","shop_code":"21DP006PY","search_string":"  devakottai (tk) sivagangai "},"bbox":[78.8381,9.9137,78.8381,9.9137]},{"type":"Feature","geometry":{"type":"Point","coordinates":[78.7756,9.9172]},"properties":{"district":"Sivagangai","taluk":"Devakottai (Tk)","village":"Periyakarai","name":"Periyakarai","area_type":"Rural","shop_code":"21DP020PN","search_string":"  devakottai (tk) sivagangai "},"bbox":[78.7756,9.9172,78.7756,9.9172]},{"type":"Feature","geometry":{"type":"Point","coordinates":[78.8223,9.9174]},"properties":{"district":"Sivagangai","taluk":"Devakottai (Tk)","village":"Thachavayal","name":"Thachavayal","area_type":"Rural","shop_code":"21DP012PN","search_string":"  devakottai (tk) sivagangai "},"bbox":[78.8223,9.9174,78.8223,9.9174]},{"type":"Feature","geometry":{"type":"Point","coordinates":[78.8725,9.918]},"properties":{"district":"Sivagangai","taluk":"Devakottai (Tk)","village":"Thuduppur","name":"Thuduppur","area_type":"Rural","shop_code":"21DP055PN","search_string":"  devakottai (tk) sivagangai "},"bbox":[78.8725,9.918,78.8725,9.918]},{"type":"Feature","geometry":{"type":"Point","coordinates":[78.8453,9.9189]},"properties":{"district":"Sivagangai","taluk":"Devakottai (Tk)","village":"Nallangudi","name":"Nallangudi","area_type":"Rural","shop_code":"21DP010PN","search_string":"  devakottai (tk) sivagangai "},"bbox":[78.8453,9.9189,78.8453,9.9189]},{"type":"Feature","geometry":{"type":"Point","coordinates":[78.8752,9.9215]},"properties":{"district":"Sivagangai","taluk":"Devakottai (Tk)","village":"Anumanthakudi","name":"Anumanthakudi","area_type":"Rural","shop_code":"21DP045PN","search_string":"  devakottai (tk) sivagangai "},"bbox":[78.8752,9.9215,78.8752,9.9215]},{"type":"Feature","geometry":{"type":"Point","coordinates":[78.8306,9.924]},"properties":{"district":"Sivagangai","taluk":"Devakottai (Tk)","village":"Thalakkavayal","name":"Thalakkavayal","area_type":"Rural","shop_code":"21DP013PY","search_string":"  devakottai (tk) sivagangai "},"bbox":[78.8306,9.924,78.8306,9.924]},{"type":"Feature","geometry":{"type":"Point","coordinates":[78.7245,9.9252]},"properties":{"district":"Sivagangai","taluk":"Devakottai (Tk)","village":"Velayuthapattinam","name":"Velayuthapattinam","area_type":"Rural","shop_code":"21DP023PN","search_string":"  devakottai (tk) sivagangai "},"bbox":[78.7245,9.9252,78.7245,9.9252]},{"type":"Feature","geometry":{"type":"Point","coordinates":[78.747,9.9293]},"properties":{"district":"Sivagangai","taluk":"Devakottai (Tk)","village":"Nachangulam","name":"Nachangulam","area_type":"Rural","shop_code":"21DP022PN","search_string":"  devakottai (tk) sivagangai "},"bbox":[78.747,9.9293,78.747,9.9293]},{"type":"Feature","geometry":{"type":"Point","coordinates":[78.835,9.9344]},"properties":{"district":"Sivagangai","taluk":"Devakottai (Tk)","village":"Sathikottai","name":"Sathikottai","area_type":"Rural","shop_code":"21DP013P1","search_string":"  devakottai (tk) sivagangai "},"bbox":[78.835,9.9344,78.835,9.9344]},{"type":"Feature","geometry":{"type":"Point","coordinates":[78.8544,9.9356]},"properties":{"district":"Sivagangai","taluk":"Devakottai (Tk)","village":"Sithanoor","name":"Sithanoor","area_type":"Rural","shop_code":"21DP046PN","search_string":"  devakottai (tk) sivagangai "},"bbox":[78.8544,9.9356,78.8544,9.9356]},{"type":"Feature","geometry":{"type":"Point","coordinates":[78.7749,9.937]},"properties":{"district":"Sivagangai","taluk":"Devakottai (Tk)","village":"Egaraikottavayal","name":"Egaraikottavayal","area_type":"Rural","shop_code":"21DP021PN","search_string":"  devakottai (tk) sivagangai "},"bbox":[78.7749,9.937,78.7749,9.937]},{"type":"Feature","geometry":{"type":"Point","coordinates":[78.9193,9.9383]},"properties":{"district":"Sivagangai","taluk":"Devakottai (Tk)","village":"Kumaramangalam","name":"Kumaramangalam","area_type":"Rural","shop_code":"21DP038PN","search_string":"  devakottai (tk) sivagangai "},"bbox":[78.9193,9.9383,78.9193,9.9383]},{"type":"Feature","geometry":{"type":"Point","coordinates":[78.8184,9.9391]},"properties":{"district":"Sivagangai","taluk":"Devakottai (Tk)","village":"Devakottai","name":"Tncsc-9","area_type":"Urban","shop_code":"21DA009PN","search_string":"  devakottai (tk) sivagangai "},"bbox":[78.8184,9.9391,78.8184,9.9391]},{"type":"Feature","geometry":{"type":"Point","coordinates":[78.8983,9.9417]},"properties":{"district":"Sivagangai","taluk":"Devakottai (Tk)","village":"Thathanicolony","name":"Thathanicolony","area_type":"Rural","shop_code":"21DP041PN","search_string":"  devakottai (tk) sivagangai "},"bbox":[78.8983,9.9417,78.8983,9.9417]},{"type":"Feature","geometry":{"type":"Point","coordinates":[78.8224,9.9422]},"properties":{"district":"Sivagangai","taluk":"Devakottai (Tk)","village":"Devakottai","name":"Tncsc-10","area_type":"Urban","shop_code":"21DA010PN","search_string":"  devakottai (tk) sivagangai "},"bbox":[78.8224,9.9422,78.8224,9.9422]},{"type":"Feature","geometry":{"type":"Point","coordinates":[78.8158,9.9425]},"properties":{"district":"Sivagangai","taluk":"Devakottai (Tk)","village":"Devakottai","name":"Tncsc-3","area_type":"Urban","shop_code":"21DA003PN","search_string":"  devakottai (tk) sivagangai "},"bbox":[78.8158,9.9425,78.8158,9.9425]},{"type":"Feature","geometry":{"type":"Point","coordinates":[78.8228,9.9427]},"properties":{"district":"Sivagangai","taluk":"Devakottai (Tk)","village":"Devakottai","name":"Tncsc-11","area_type":"Urban","shop_code":"21DA011PN","search_string":"  devakottai (tk) sivagangai "},"bbox":[78.8228,9.9427,78.8228,9.9427]},{"type":"Feature","geometry":{"type":"Point","coordinates":[78.8217,9.9428]},"properties":{"district":"Sivagangai","taluk":"Devakottai (Tk)","village":"Devakottai","name":"Tncsc-4","area_type":"Urban","shop_code":"21DA004PN","search_string":"  devakottai (tk) sivagangai "},"bbox":[78.8217,9.9428,78.8217,9.9428]},{"type":"Feature","geometry":{"type":"Point","coordinates":[78.8264,9.9431]},"properties":{"district":"Sivagangai","taluk":"Devakottai (Tk)","village":"Devakottai","name":"Tncsc-2","area_type":"Urban","shop_code":"21DA002PN","search_string":"  devakottai (tk) sivagangai "},"bbox":[78.8264,9.9431,78.8264,9.9431]},{"type":"Feature","geometry":{"type":"Point","coordinates":[78.8184,9.9441]},"properties":{"district":"Sivagangai","taluk":"Devakottai (Tk)","village":"Devakottai","name":"Tncsc-5","area_type":"Urban","shop_code":"21DA005PN","search_string":"  devakottai (tk) sivagangai "},"bbox":[78.8184,9.9441,78.8184,9.9441]},{"type":"Feature","geometry":{"type":"Point","coordinates":[78.7999,9.9448]},"properties":{"district":"Sivagangai","taluk":"Devakottai (Tk)","village":"Jeevanagar","name":"JEEVNAGAR","area_type":"Rural","shop_code":"21DP018PY","search_string":"  devakottai (tk) sivagangai "},"bbox":[78.7999,9.9448,78.7999,9.9448]},{"type":"Feature","geometry":{"type":"Point","coordinates":[78.8112,9.9451]},"properties":{"district":"Sivagangai","taluk":"Devakottai (Tk)","village":"Devakottai","name":"Tncsc-8","area_type":"Urban","shop_code":"21DA008PN","search_string":"  devakottai (tk) sivagangai "},"bbox":[78.8112,9.9451,78.8112,9.9451]},{"type":"Feature","geometry":{"type":"Point","coordinates":[78.972,9.9453]},"properties":{"district":"Sivagangai","taluk":"Devakottai (Tk)","village":"Kandiyur","name":"Kandiyur","area_type":"Rural","shop_code":"21DP039PN","search_string":"  devakottai (tk) sivagangai "},"bbox":[78.972,9.9453,78.972,9.9453]},{"type":"Feature","geometry":{"type":"Point","coordinates":[78.8263,9.9462]},"properties":{"district":"Sivagangai","taluk":"Devakottai (Tk)","village":"Devakottai","name":"Tncsc-1","area_type":"Urban","shop_code":"21DA001PN","search_string":"  devakottai (tk) sivagangai "},"bbox":[78.8263,9.9462,78.8263,9.9462]},{"type":"Feature","geometry":{"type":"Point","coordinates":[78.7729,9.949]},"properties":{"district":"Sivagangai","taluk":"Devakottai (Tk)","village":"Eluvankottai","name":"Eluvankottai","area_type":"Rural","shop_code":"21DP016PN","search_string":"  devakottai (tk) sivagangai "},"bbox":[78.7729,9.949,78.7729,9.949]},{"type":"Feature","geometry":{"type":"Point","coordinates":[78.8251,9.95]},"properties":{"district":"Sivagangai","taluk":"Devakottai (Tk)","village":"Devakottai","name":"Tncsc-7","area_type":"Urban","shop_code":"21DA007PN","search_string":"  devakottai (tk) sivagangai "},"bbox":[78.8251,9.95,78.8251,9.95]},{"type":"Feature","geometry":{"type":"Point","coordinates":[78.932,9.9509]},"properties":{"district":"Sivagangai","taluk":"Devakottai (Tk)","village":"Kappaloor","name":"Kappaloor","area_type":"Rural","shop_code":"21DP037PN","search_string":"  devakottai (tk) sivagangai "},"bbox":[78.932,9.9509,78.932,9.9509]},{"type":"Feature","geometry":{"type":"Point","coordinates":[78.8161,9.9515]},"properties":{"district":"Sivagangai","taluk":"Devakottai (Tk)","village":"Subramaniyapuramnewstreet","name":"Subramaniyapuram New Street","area_type":"Rural","shop_code":"21DP027PN","search_string":"  devakottai (tk) sivagangai "},"bbox":[78.8161,9.9515,78.8161,9.9515]},{"type":"Feature","geometry":{"type":"Point","coordinates":[78.7949,9.9541]},"properties":{"district":"Sivagangai","taluk":"Devakottai (Tk)","village":"Elozhivayal","name":"ELOZHIVAYAL","area_type":"Rural","shop_code":"21DP018P1","search_string":"  devakottai (tk) sivagangai "},"bbox":[78.7949,9.9541,78.7949,9.9541]},{"type":"Feature","geometry":{"type":"Point","coordinates":[78.8139,9.9565]},"properties":{"district":"Sivagangai","taluk":"Devakottai (Tk)","village":"Annasalai","name":"Annasalai","area_type":"Rural","shop_code":"21DP086PN","search_string":"  devakottai (tk) sivagangai "},"bbox":[78.8139,9.9565,78.8139,9.9565]},{"type":"Feature","geometry":{"type":"Point","coordinates":[78.7772,9.959]},"properties":{"district":"Sivagangai","taluk":"Devakottai (Tk)","village":"Theneervayal","name":"THENNEERVAYAL","area_type":"Rural","shop_code":"21DP017PN","search_string":"  devakottai (tk) sivagangai "},"bbox":[78.7772,9.959,78.7772,9.959]},{"type":"Feature","geometry":{"type":"Point","coordinates":[78.8751,9.9595]},"properties":{"district":"Sivagangai","taluk":"Devakottai (Tk)","village":"Theralapur","name":"Theralapur","area_type":"Rural","shop_code":"21DP051PN","search_string":"  devakottai (tk) sivagangai "},"bbox":[78.8751,9.9595,78.8751,9.9595]},{"type":"Feature","geometry":{"type":"Point","coordinates":[78.8022,9.9605]},"properties":{"district":"Sivagangai","taluk":"Devakottai (Tk)","village":"Devakottai","name":"Tncsc-12","area_type":"Urban","shop_code":"21DA012PN","search_string":"  devakottai (tk) sivagangai "},"bbox":[78.8022,9.9605,78.8022,9.9605]},{"type":"Feature","geometry":{"type":"Point","coordinates":[78.8387,9.9611]},"properties":{"district":"Sivagangai","taluk":"Devakottai (Tk)","village":"Thalaiyur","name":"Thalaiyur","area_type":"Rural","shop_code":"21DP005PN","search_string":"  devakottai (tk) sivagangai "},"bbox":[78.8387,9.9611,78.8387,9.9611]},{"type":"Feature","geometry":{"type":"Point","coordinates":[78.806,9.9616]},"properties":{"district":"Sivagangai","taluk":"Devakottai (Tk)","village":"Devakottai","name":"Tncsc-6","area_type":"Urban","shop_code":"21DA006PN","search_string":"  devakottai (tk) sivagangai "},"bbox":[78.806,9.9616,78.806,9.9616]},{"type":"Feature","geometry":{"type":"Point","coordinates":[78.8018,9.9657]},"properties":{"district":"Sivagangai","taluk":"Devakottai (Tk)","village":"Kannangudi","name":"Kannangudi","area_type":"Rural","shop_code":"21DP036PN","search_string":"  devakottai (tk) sivagangai "},"bbox":[78.8018,9.9657,78.8018,9.9657]},{"type":"Feature","geometry":{"type":"Point","coordinates":[78.8017,9.9657]},"properties":{"district":"Sivagangai","taluk":"Devakottai (Tk)","village":"Pidaranenthal","name":"Pidaranenthal","area_type":"Rural","shop_code":"21DP014PN","search_string":"  devakottai (tk) sivagangai "},"bbox":[78.8017,9.9657,78.8017,9.9657]},{"type":"Feature","geometry":{"type":"Point","coordinates":[78.8018,9.9658]},"properties":{"district":"Sivagangai","taluk":"Devakottai (Tk)","village":"Ksriruvanoor","name":"K.Sriruvanoor","area_type":"Rural","shop_code":"21DP040PN","search_string":"  devakottai (tk) sivagangai "},"bbox":[78.8018,9.9658,78.8018,9.9658]},{"type":"Feature","geometry":{"type":"Point","coordinates":[78.8629,9.966]},"properties":{"district":"Sivagangai","taluk":"Devakottai (Tk)","village":"Kalapangudi","name":"Kalapangudi","area_type":"Rural","shop_code":"21DP043PN","search_string":"  devakottai (tk) sivagangai "},"bbox":[78.8629,9.966,78.8629,9.966]},{"type":"Feature","geometry":{"type":"Point","coordinates":[78.863,9.9663]},"properties":{"district":"Sivagangai","taluk":"Devakottai (Tk)","village":"Poosalagudi","name":"Poosalagudi","area_type":"Rural","shop_code":"21DP042PN","search_string":"  devakottai (tk) sivagangai "},"bbox":[78.863,9.9663,78.863,9.9663]},{"type":"Feature","geometry":{"type":"Point","coordinates":[78.8631,9.9663]},"properties":{"district":"Sivagangai","taluk":"Devakottai (Tk)","village":"Kodagudi","name":"Kodagudi","area_type":"Rural","shop_code":"21DP044PN","search_string":"  devakottai (tk) sivagangai "},"bbox":[78.8631,9.9663,78.8631,9.9663]},{"type":"Feature","geometry":{"type":"Point","coordinates":[78.802,9.967]},"properties":{"district":"Sivagangai","taluk":"Devakottai (Tk)","village":"Thidakkottai","name":"Thidakkottai","area_type":"Rural","shop_code":"21DP026P1","search_string":"  devakottai (tk) sivagangai "},"bbox":[78.802,9.967,78.802,9.967]},{"type":"Feature","geometry":{"type":"Point","coordinates":[78.94,9.9725]},"properties":{"district":"Sivagangai","taluk":"Devakottai (Tk)","village":"Vadakeelkudi","name":"Vadakeelkudi","area_type":"Rural","shop_code":"21DP054P1","search_string":"  devakottai (tk) sivagangai "},"bbox":[78.94,9.9725,78.94,9.9725]},{"type":"Feature","geometry":{"type":"Point","coordinates":[78.8236,9.9748]},"properties":{"district":"Sivagangai","taluk":"Devakottai (Tk)","village":"Sirumaruthoor","name":"Sirumaruthoor","area_type":"Rural","shop_code":"21DP004PN","search_string":"  devakottai (tk) sivagangai "},"bbox":[78.8236,9.9748,78.8236,9.9748]},{"type":"Feature","geometry":{"type":"Point","coordinates":[78.7921,9.9877]},"properties":{"district":"Sivagangai","taluk":"Devakottai (Tk)","village":"Sadayankadu","name":"Sadayankadu","area_type":"Rural","shop_code":"21DP002P1","search_string":"  devakottai (tk) sivagangai "},"bbox":[78.7921,9.9877,78.7921,9.9877]},{"type":"Feature","geometry":{"type":"Point","coordinates":[78.8517,9.9915]},"properties":{"district":"Sivagangai","taluk":"Devakottai (Tk)","village":"Vengaloor","name":"Vengaloor","area_type":"Rural","shop_code":"21DP049PY","search_string":"  devakottai (tk) sivagangai "},"bbox":[78.8517,9.9915,78.8517,9.9915]},{"type":"Feature","geometry":{"type":"Point","coordinates":[78.8516,9.9916]},"properties":{"district":"Sivagangai","taluk":"Devakottai (Tk)","village":"Mangalam","name":"Mangalam","area_type":"Rural","shop_code":"21DP049P1","search_string":"  devakottai (tk) sivagangai "},"bbox":[78.8516,9.9916,78.8516,9.9916]},{"type":"Feature","geometry":{"type":"Point","coordinates":[78.9068,9.9945]},"properties":{"district":"Sivagangai","taluk":"Devakottai (Tk)","village":"Kilamalai","name":"Kilamalai","area_type":"Rural","shop_code":"21DP052PN","search_string":"  devakottai (tk) sivagangai "},"bbox":[78.9068,9.9945,78.9068,9.9945]},{"type":"Feature","geometry":{"type":"Point","coordinates":[78.8122,9.9958]},"properties":{"district":"Sivagangai","taluk":"Devakottai (Tk)","village":"Melasemponmari","name":"Melasemponmari","area_type":"Rural","shop_code":"21DP002PY","search_string":"  devakottai (tk) sivagangai "},"bbox":[78.8122,9.9958,78.8122,9.9958]},{"type":"Feature","geometry":{"type":"Point","coordinates":[78.8063,9.9972]},"properties":{"district":"Sivagangai","taluk":"Devakottai (Tk)","village":"Perattukottai","name":"Perattukottai","area_type":"Rural","shop_code":"21DP001PN","search_string":"  devakottai (tk) sivagangai "},"bbox":[78.8063,9.9972,78.8063,9.9972]},{"type":"Feature","geometry":{"type":"Point","coordinates":[78.9539,10.0024]},"properties":{"district":"Sivagangai","taluk":"Devakottai (Tk)","village":"Kodikkulam","name":"Kodikkulam","area_type":"Rural","shop_code":"21DP054PY","search_string":"  devakottai (tk) sivagangai "},"bbox":[78.9539,10.0024,78.9539,10.0024]},{"type":"Feature","geometry":{"type":"Point","coordinates":[78.8925,10.0064]},"properties":{"district":"Sivagangai","taluk":"Devakottai (Tk)","village":"Kalathur","name":"Kalathur","area_type":"Rural","shop_code":"21DP053PN","search_string":"  devakottai (tk) sivagangai "},"bbox":[78.8925,10.0064,78.8925,10.0064]},{"type":"Feature","geometry":{"type":"Point","coordinates":[78.7891,10.0105]},"properties":{"district":"Sivagangai","taluk":"Devakottai (Tk)","village":"Aravayal","name":"Aravayal","area_type":"Rural","shop_code":"21DP003PY","search_string":"  devakottai (tk) sivagangai "},"bbox":[78.7891,10.0105,78.7891,10.0105]},{"type":"Feature","geometry":{"type":"Point","coordinates":[78.8184,10.0149]},"properties":{"district":"Sivagangai","taluk":"Devakottai (Tk)","village":"Chinnaunjanai","name":"Chinnaunjanai","area_type":"Rural","shop_code":"21DP048PN","search_string":"  devakottai (tk) sivagangai "},"bbox":[78.8184,10.0149,78.8184,10.0149]},{"type":"Feature","geometry":{"type":"Point","coordinates":[78.8219,10.0239]},"properties":{"district":"Sivagangai","taluk":"Devakottai (Tk)","village":"Periyaunjanai","name":"Periyaunjanai","area_type":"Rural","shop_code":"21DP047PY","search_string":"  devakottai (tk) sivagangai "},"bbox":[78.8219,10.0239,78.8219,10.0239]},{"type":"Feature","geometry":{"type":"Point","coordinates":[78.8033,10.027]},"properties":{"district":"Sivagangai","taluk":"Devakottai (Tk)","village":"Vettaikaranpatti","name":"Vettaikaranpatti","area_type":"Rural","shop_code":"21DP003P1","search_string":"  devakottai (tk) sivagangai "},"bbox":[78.8033,10.027,78.8033,10.027]},{"type":"Feature","geometry":{"type":"Point","coordinates":[78.8545,10.0449]},"properties":{"district":"Sivagangai","taluk":"Devakottai (Tk)","village":"Ooravayal","name":"Ooravayal","area_type":"Rural","shop_code":"21DP047P1","search_string":"  devakottai (tk) sivagangai "},"bbox":[78.8545,10.0449,78.8545,10.0449]},{"type":"Feature","geometry":{"type":"Point","coordinates":[78.6496,9.5312]},"properties":{"district":"Sivagangai","taluk":"Illayangudi (Tk)","village":"Andagudi","name":"Keelaikudi","area_type":"Rural","shop_code":"21CP064PN","search_string":"  illayangudi (tk) sivagangai "},"bbox":[78.6496,9.5312,78.6496,9.5312]},{"type":"Feature","geometry":{"type":"Point","coordinates":[78.6343,9.5415]},"properties":{"district":"Sivagangai","taluk":"Illayangudi (Tk)","village":"Ilamanoor","name":"Kunappanendal","area_type":"Rural","shop_code":"21CP059P1","search_string":"  illayangudi (tk) sivagangai "},"bbox":[78.6343,9.5415,78.6343,9.5415]},{"type":"Feature","geometry":{"type":"Point","coordinates":[78.6239,9.5447]},"properties":{"district":"Sivagangai","taluk":"Illayangudi (Tk)","village":"Perumbacheri","name":"Perumbacheri","area_type":"Rural","shop_code":"21CP056PN","search_string":"  illayangudi (tk) sivagangai "},"bbox":[78.6239,9.5447,78.6239,9.5447]},{"type":"Feature","geometry":{"type":"Point","coordinates":[78.6459,9.551]},"properties":{"district":"Sivagangai","taluk":"Illayangudi (Tk)","village":"Ilamanoor","name":"Ilamanoor","area_type":"Rural","shop_code":"21CP059PY","search_string":"  illayangudi (tk) sivagangai "},"bbox":[78.6459,9.551,78.6459,9.551]},{"type":"Feature","geometry":{"type":"Point","coordinates":[78.6681,9.562]},"properties":{"district":"Sivagangai","taluk":"Illayangudi (Tk)","village":"Andagudi","name":"A.Pudur","area_type":"Rural","shop_code":"21CP058P1","search_string":"  illayangudi (tk) sivagangai "},"bbox":[78.6681,9.562,78.6681,9.562]},{"type":"Feature","geometry":{"type":"Point","coordinates":[78.6457,9.5664]},"properties":{"district":"Sivagangai","taluk":"Illayangudi (Tk)","village":"Ilamanoor","name":"Kombadi Madurai","area_type":"Rural","shop_code":"21CP059P2","search_string":"  illayangudi (tk) sivagangai "},"bbox":[78.6457,9.5664,78.6457,9.5664]},{"type":"Feature","geometry":{"type":"Point","coordinates":[78.6806,9.5702]},"properties":{"district":"Sivagangai","taluk":"Illayangudi (Tk)","village":"Andagudi","name":"Andagudi","area_type":"Rural","shop_code":"21CP058PY","search_string":"  illayangudi (tk) sivagangai "},"bbox":[78.6806,9.5702,78.6806,9.5702]},{"type":"Feature","geometry":{"type":"Point","coordinates":[78.6117,9.5723]},"properties":{"district":"Sivagangai","taluk":"Illayangudi (Tk)","village":"Nagarakudi","name":"Kumarakuruchi","area_type":"Rural","shop_code":"21CP055PN","search_string":"  illayangudi (tk) sivagangai "},"bbox":[78.6117,9.5723,78.6117,9.5723]},{"type":"Feature","geometry":{"type":"Point","coordinates":[78.6308,9.573]},"properties":{"district":"Sivagangai","taluk":"Illayangudi (Tk)","village":"Nagarakudi","name":"Alimadurai","area_type":"Rural","shop_code":"21CP054P1","search_string":"  illayangudi (tk) sivagangai "},"bbox":[78.6308,9.573,78.6308,9.573]},{"type":"Feature","geometry":{"type":"Point","coordinates":[78.5612,9.5731]},"properties":{"district":"Sivagangai","taluk":"Illayangudi (Tk)","village":"Katchathanaloor","name":"Katchathanaloor","area_type":"Rural","shop_code":"21CP046PN","search_string":"  illayangudi (tk) sivagangai "},"bbox":[78.5612,9.5731,78.5612,9.5731]},{"type":"Feature","geometry":{"type":"Point","coordinates":[78.6445,9.5731]},"properties":{"district":"Sivagangai","taluk":"Illayangudi (Tk)","village":"Nagarakudi","name":"Vani","area_type":"Rural","shop_code":"21CP054P2","search_string":"  illayangudi (tk) sivagangai "},"bbox":[78.6445,9.5731,78.6445,9.5731]},{"type":"Feature","geometry":{"type":"Point","coordinates":[78.6212,9.5829]},"properties":{"district":"Sivagangai","taluk":"Illayangudi (Tk)","village":"Nagarakudi","name":"Nagarakudi","area_type":"Rural","shop_code":"21CP054PY","search_string":"  illayangudi (tk) sivagangai "},"bbox":[78.6212,9.5829,78.6212,9.5829]},{"type":"Feature","geometry":{"type":"Point","coordinates":[78.7654,9.5856]},"properties":{"district":"Sivagangai","taluk":"Illayangudi (Tk)","village":"Pudukottai","name":"Panjanoor","area_type":"Rural","shop_code":"21CP048P1","search_string":"  illayangudi (tk) sivagangai "},"bbox":[78.7654,9.5856,78.7654,9.5856]},{"type":"Feature","geometry":{"type":"Point","coordinates":[78.7737,9.586]},"properties":{"district":"Sivagangai","taluk":"Illayangudi (Tk)","village":"Pudukottai","name":"Pudukottai","area_type":"Rural","shop_code":"21CP048PY","search_string":"  illayangudi (tk) sivagangai "},"bbox":[78.7737,9.586,78.7737,9.586]},{"type":"Feature","geometry":{"type":"Point","coordinates":[78.6634,9.5894]},"properties":{"district":"Sivagangai","taluk":"Illayangudi (Tk)","village":"Kottaiyoor","name":"Kottaiyoor","area_type":"Rural","shop_code":"21CP040PN","search_string":"  illayangudi (tk) sivagangai "},"bbox":[78.6634,9.5894,78.6634,9.5894]},{"type":"Feature","geometry":{"type":"Point","coordinates":[78.5983,9.5922]},"properties":{"district":"Sivagangai","taluk":"Illayangudi (Tk)","village":"Mulliyaranendal","name":"Nedungulam","area_type":"Rural","shop_code":"21CP045PY","search_string":"  illayangudi (tk) sivagangai "},"bbox":[78.5983,9.5922,78.5983,9.5922]},{"type":"Feature","geometry":{"type":"Point","coordinates":[78.5291,9.5928]},"properties":{"district":"Sivagangai","taluk":"Illayangudi (Tk)","village":"Kuruchi","name":"Pramanakuruchi","area_type":"Rural","shop_code":"21CP049P1","search_string":"  illayangudi (tk) sivagangai "},"bbox":[78.5291,9.5928,78.5291,9.5928]},{"type":"Feature","geometry":{"type":"Point","coordinates":[78.5854,9.5931]},"properties":{"district":"Sivagangai","taluk":"Illayangudi (Tk)","village":"Mulliyaranendal","name":"Mulliyaranendal","area_type":"Rural","shop_code":"21CP045P1","search_string":"  illayangudi (tk) sivagangai "},"bbox":[78.5854,9.5931,78.5854,9.5931]},{"type":"Feature","geometry":{"type":"Point","coordinates":[78.6539,9.5944]},"properties":{"district":"Sivagangai","taluk":"Illayangudi (Tk)","village":"Sirupalai","name":"Sirupalai","area_type":"Rural","shop_code":"21CP063PN","search_string":"  illayangudi (tk) sivagangai "},"bbox":[78.6539,9.5944,78.6539,9.5944]},{"type":"Feature","geometry":{"type":"Point","coordinates":[78.5339,9.5992]},"properties":{"district":"Sivagangai","taluk":"Illayangudi (Tk)","village":"Kuruchi","name":"Kuruchi","area_type":"Rural","shop_code":"21CP049PY","search_string":"  illayangudi (tk) sivagangai "},"bbox":[78.5339,9.5992,78.5339,9.5992]},{"type":"Feature","geometry":{"type":"Point","coordinates":[78.7778,9.6002]},"properties":{"district":"Sivagangai","taluk":"Illayangudi (Tk)","village":"Seevalathi","name":"Seevalathi","area_type":"Rural","shop_code":"21CP052PN","search_string":"  illayangudi (tk) sivagangai "},"bbox":[78.7778,9.6002,78.7778,9.6002]},{"type":"Feature","geometry":{"type":"Point","coordinates":[78.6671,9.6019]},"properties":{"district":"Sivagangai","taluk":"Illayangudi (Tk)","village":"Kottaiyoor","name":"Puliyoor","area_type":"Rural","shop_code":"21CP041PN","search_string":"  illayangudi (tk) sivagangai "},"bbox":[78.6671,9.6019,78.6671,9.6019]},{"type":"Feature","geometry":{"type":"Point","coordinates":[78.7854,9.6032]},"properties":{"district":"Sivagangai","taluk":"Illayangudi (Tk)","village":"Sathanoor","name":"Sathanoor","area_type":"Rural","shop_code":"21CP051PN","search_string":"  illayangudi (tk) sivagangai "},"bbox":[78.7854,9.6032,78.7854,9.6032]},{"type":"Feature","geometry":{"type":"Point","coordinates":[78.5699,9.6075]},"properties":{"district":"Sivagangai","taluk":"Illayangudi (Tk)","village":"Munaivendry","name":"Munaivendry","area_type":"Rural","shop_code":"21CP043PN","search_string":"  illayangudi (tk) sivagangai "},"bbox":[78.5699,9.6075,78.5699,9.6075]},{"type":"Feature","geometry":{"type":"Point","coordinates":[78.6242,9.6093]},"properties":{"district":"Sivagangai","taluk":"Illayangudi (Tk)","village":"South Ilayangudi","name":"Indiranagar","area_type":"Rural","shop_code":"21CB009P1","search_string":"  illayangudi (tk) sivagangai "},"bbox":[78.6242,9.6093,78.6242,9.6093]},{"type":"Feature","geometry":{"type":"Point","coordinates":[78.7158,9.6096]},"properties":{"district":"Sivagangai","taluk":"Illayangudi (Tk)","village":"Salaigramam","name":"Salaigramam","area_type":"Rural","shop_code":"21CP028PN","search_string":"  illayangudi (tk) sivagangai "},"bbox":[78.7158,9.6096,78.7158,9.6096]},{"type":"Feature","geometry":{"type":"Point","coordinates":[78.5955,9.6103]},"properties":{"district":"Sivagangai","taluk":"Illayangudi (Tk)","village":"Keelayoor","name":"Meyanendal","area_type":"Rural","shop_code":"21CP062PN","search_string":"  illayangudi (tk) sivagangai "},"bbox":[78.5955,9.6103,78.5955,9.6103]},{"type":"Feature","geometry":{"type":"Point","coordinates":[78.6442,9.6128]},"properties":{"district":"Sivagangai","taluk":"Illayangudi (Tk)","village":"A Thiru Udaiyarpuram","name":"A Thiru Udaiyarpuram","area_type":"Rural","shop_code":"21CP057PN","search_string":"  illayangudi (tk) sivagangai "},"bbox":[78.6442,9.6128,78.6442,9.6128]},{"type":"Feature","geometry":{"type":"Point","coordinates":[78.8082,9.6138]},"properties":{"district":"Sivagangai","taluk":"Illayangudi (Tk)","village":"Sathanoor","name":"Poolangudi","area_type":"Rural","shop_code":"21CP053PN","search_string":"  illayangudi (tk) sivagangai "},"bbox":[78.8082,9.6138,78.8082,9.6138]},{"type":"Feature","geometry":{"type":"Point","coordinates":[78.7354,9.6146]},"properties":{"district":"Sivagangai","taluk":"Illayangudi (Tk)","village":"Samuthiram","name":"S Samuthiram","area_type":"Rural","shop_code":"21CP047P1","search_string":"  illayangudi (tk) sivagangai "},"bbox":[78.7354,9.6146,78.7354,9.6146]},{"type":"Feature","geometry":{"type":"Point","coordinates":[78.6827,9.6163]},"properties":{"district":"Sivagangai","taluk":"Illayangudi (Tk)","village":"Vadakku Keeranoor","name":"Southkeeranoor","area_type":"Rural","shop_code":"21CP042PN","search_string":"  illayangudi (tk) sivagangai "},"bbox":[78.6827,9.6163,78.6827,9.6163]},{"type":"Feature","geometry":{"type":"Point","coordinates":[78.6639,9.618]},"properties":{"district":"Sivagangai","taluk":"Illayangudi (Tk)","village":"Vadakku Keeranoor","name":"Ariyandipuram","area_type":"Rural","shop_code":"21CP038PN","search_string":"  illayangudi (tk) sivagangai "},"bbox":[78.6639,9.618,78.6639,9.618]},{"type":"Feature","geometry":{"type":"Point","coordinates":[78.5492,9.6181]},"properties":{"district":"Sivagangai","taluk":"Illayangudi (Tk)","village":"Keelanetoor","name":"Keelanedoor","area_type":"Rural","shop_code":"21CP050PN","search_string":"  illayangudi (tk) sivagangai "},"bbox":[78.5492,9.6181,78.5492,9.6181]},{"type":"Feature","geometry":{"type":"Point","coordinates":[78.6392,9.6194]},"properties":{"district":"Sivagangai","taluk":"Illayangudi (Tk)","village":"South Ilayangudi","name":"Kongampatti","area_type":"Rural","shop_code":"21CB009PY","search_string":"  illayangudi (tk) sivagangai "},"bbox":[78.6392,9.6194,78.6392,9.6194]},{"type":"Feature","geometry":{"type":"Point","coordinates":[78.6031,9.6237]},"properties":{"district":"Sivagangai","taluk":"Illayangudi (Tk)","village":"Keelayoor","name":"Keelayoor","area_type":"Rural","shop_code":"21CP061PN","search_string":"  illayangudi (tk) sivagangai "},"bbox":[78.6031,9.6237,78.6031,9.6237]},{"type":"Feature","geometry":{"type":"Point","coordinates":[78.6282,9.6267]},"properties":{"district":"Sivagangai","taluk":"Illayangudi (Tk)","village":"South Ilayangudi","name":"Pamco3","area_type":"Urban","shop_code":"21CB003PN","search_string":"  illayangudi (tk) sivagangai "},"bbox":[78.6282,9.6267,78.6282,9.6267]},{"type":"Feature","geometry":{"type":"Point","coordinates":[78.6266,9.6269]},"properties":{"district":"Sivagangai","taluk":"Illayangudi (Tk)","village":"South Ilayangudi","name":"Pamco 1","area_type":"Urban","shop_code":"21CB001PN","search_string":"  illayangudi (tk) sivagangai "},"bbox":[78.6266,9.6269,78.6266,9.6269]},{"type":"Feature","geometry":{"type":"Point","coordinates":[78.6225,9.6273]},"properties":{"district":"Sivagangai","taluk":"Illayangudi (Tk)","village":"South Ilayangudi","name":"Pamco7","area_type":"Urban","shop_code":"21CB007PN","search_string":"  illayangudi (tk) sivagangai "},"bbox":[78.6225,9.6273,78.6225,9.6273]},{"type":"Feature","geometry":{"type":"Point","coordinates":[78.6235,9.6276]},"properties":{"district":"Sivagangai","taluk":"Illayangudi (Tk)","village":"South Ilayangudi","name":"Pamco2","area_type":"Urban","shop_code":"21CB002PN","search_string":"  illayangudi (tk) sivagangai "},"bbox":[78.6235,9.6276,78.6235,9.6276]},{"type":"Feature","geometry":{"type":"Point","coordinates":[78.6252,9.6291]},"properties":{"district":"Sivagangai","taluk":"Illayangudi (Tk)","village":"South Ilayangudi","name":"Pamco5","area_type":"Urban","shop_code":"21CB005PN","search_string":"  illayangudi (tk) sivagangai "},"bbox":[78.6252,9.6291,78.6252,9.6291]},{"type":"Feature","geometry":{"type":"Point","coordinates":[78.609,9.6302]},"properties":{"district":"Sivagangai","taluk":"Illayangudi (Tk)","village":"North Ilayangudi","name":"Kelayoorcolony","area_type":"Urban","shop_code":"21CK066PN","search_string":"  illayangudi (tk) sivagangai "},"bbox":[78.609,9.6302,78.609,9.6302]},{"type":"Feature","geometry":{"type":"Point","coordinates":[78.7364,9.6325]},"properties":{"district":"Sivagangai","taluk":"Illayangudi (Tk)","village":"Samuthiram","name":"Samuthiram","area_type":"Rural","shop_code":"21CP047PY","search_string":"  illayangudi (tk) sivagangai "},"bbox":[78.7364,9.6325,78.7364,9.6325]},{"type":"Feature","geometry":{"type":"Point","coordinates":[78.6305,9.6326]},"properties":{"district":"Sivagangai","taluk":"Illayangudi (Tk)","village":"North Ilayangudi","name":"Pamco4","area_type":"Urban","shop_code":"21CB004PN","search_string":"  illayangudi (tk) sivagangai "},"bbox":[78.6305,9.6326,78.6305,9.6326]},{"type":"Feature","geometry":{"type":"Point","coordinates":[78.6305,9.6329]},"properties":{"district":"Sivagangai","taluk":"Illayangudi (Tk)","village":"North Ilayangudi","name":"Pamco8","area_type":"Urban","shop_code":"21CB008PN","search_string":"  illayangudi (tk) sivagangai "},"bbox":[78.6305,9.6329,78.6305,9.6329]},{"type":"Feature","geometry":{"type":"Point","coordinates":[78.7713,9.6335]},"properties":{"district":"Sivagangai","taluk":"Illayangudi (Tk)","village":"Muthur","name":"Muthur","area_type":"Rural","shop_code":"21CP024PN","search_string":"  illayangudi (tk) sivagangai "},"bbox":[78.7713,9.6335,78.7713,9.6335]},{"type":"Feature","geometry":{"type":"Point","coordinates":[78.7202,9.6336]},"properties":{"district":"Sivagangai","taluk":"Illayangudi (Tk)","village":"Salaigramam","name":"Northsalaigramam","area_type":"Rural","shop_code":"21CP029P1","search_string":"  illayangudi (tk) sivagangai "},"bbox":[78.7202,9.6336,78.7202,9.6336]},{"type":"Feature","geometry":{"type":"Point","coordinates":[78.6367,9.634]},"properties":{"district":"Sivagangai","taluk":"Illayangudi (Tk)","village":"North Ilayangudi","name":"Pamco6","area_type":"Urban","shop_code":"21CB006PN","search_string":"  illayangudi (tk) sivagangai "},"bbox":[78.6367,9.634,78.6367,9.634]},{"type":"Feature","geometry":{"type":"Point","coordinates":[78.5723,9.6349]},"properties":{"district":"Sivagangai","taluk":"Illayangudi (Tk)","village":"Melayoor","name":"Melayoor","area_type":"Rural","shop_code":"21CP044PN","search_string":"  illayangudi (tk) sivagangai "},"bbox":[78.5723,9.6349,78.5723,9.6349]},{"type":"Feature","geometry":{"type":"Point","coordinates":[78.6826,9.6379]},"properties":{"district":"Sivagangai","taluk":"Illayangudi (Tk)","village":"Vadakku Keeranoor","name":"Karumpukoottam","area_type":"Rural","shop_code":"21CP037PN","search_string":"  illayangudi (tk) sivagangai "},"bbox":[78.6826,9.6379,78.6826,9.6379]},{"type":"Feature","geometry":{"type":"Point","coordinates":[78.7766,9.6381]},"properties":{"district":"Sivagangai","taluk":"Illayangudi (Tk)","village":"Vandal","name":"Vandal","area_type":"Rural","shop_code":"21CP023PN","search_string":"  illayangudi (tk) sivagangai "},"bbox":[78.7766,9.6381,78.7766,9.6381]},{"type":"Feature","geometry":{"type":"Point","coordinates":[78.6676,9.6386]},"properties":{"district":"Sivagangai","taluk":"Illayangudi (Tk)","village":"Karunchuthi","name":"Karunchuthi","area_type":"Rural","shop_code":"21CP039PN","search_string":"  illayangudi (tk) sivagangai "},"bbox":[78.6676,9.6386,78.6676,9.6386]},{"type":"Feature","geometry":{"type":"Point","coordinates":[78.6259,9.6443]},"properties":{"district":"Sivagangai","taluk":"Illayangudi (Tk)","village":"North Ilayangudi","name":"Pudur","area_type":"Rural","shop_code":"21CP060PN","search_string":"  illayangudi (tk) sivagangai "},"bbox":[78.6259,9.6443,78.6259,9.6443]},{"type":"Feature","geometry":{"type":"Point","coordinates":[78.711,9.6463]},"properties":{"district":"Sivagangai","taluk":"Illayangudi (Tk)","village":"Thugavoor","name":"Thugavoor","area_type":"Rural","shop_code":"21CP030PN","search_string":"  illayangudi (tk) sivagangai "},"bbox":[78.711,9.6463,78.711,9.6463]},{"type":"Feature","geometry":{"type":"Point","coordinates":[78.6515,9.6479]},"properties":{"district":"Sivagangai","taluk":"Illayangudi (Tk)","village":"Aranaiyoor","name":"Aranaiyoor","area_type":"Rural","shop_code":"21CP035PN","search_string":"  illayangudi (tk) sivagangai "},"bbox":[78.6515,9.6479,78.6515,9.6479]},{"type":"Feature","geometry":{"type":"Point","coordinates":[78.6488,9.649]},"properties":{"district":"Sivagangai","taluk":"Illayangudi (Tk)","village":"Salaigramam","name":"Northsalaigramam","area_type":"Rural","shop_code":"21CP029PY","search_string":"  illayangudi (tk) sivagangai "},"bbox":[78.6488,9.649,78.6488,9.649]},{"type":"Feature","geometry":{"type":"Point","coordinates":[78.6104,9.65]},"properties":{"district":"Sivagangai","taluk":"Illayangudi (Tk)","village":"Thiruvalloor","name":"Thiruvalloor","area_type":"Rural","shop_code":"21CP027PN","search_string":"  illayangudi (tk) sivagangai "},"bbox":[78.6104,9.65,78.6104,9.65]},{"type":"Feature","geometry":{"type":"Point","coordinates":[78.7535,9.65]},"properties":{"district":"Sivagangai","taluk":"Illayangudi (Tk)","village":"Kattanoor","name":"Kattanoor","area_type":"Rural","shop_code":"21CP031PN","search_string":"  illayangudi (tk) sivagangai "},"bbox":[78.7535,9.65,78.7535,9.65]},{"type":"Feature","geometry":{"type":"Point","coordinates":[78.5659,9.6509]},"properties":{"district":"Sivagangai","taluk":"Illayangudi (Tk)","village":"Vijayangudi","name":"Vijayangudi","area_type":"Rural","shop_code":"21CP026PN","search_string":"  illayangudi (tk) sivagangai "},"bbox":[78.5659,9.6509,78.5659,9.6509]},{"type":"Feature","geometry":{"type":"Point","coordinates":[78.727,9.6524]},"properties":{"district":"Sivagangai","taluk":"Illayangudi (Tk)","village":"Virayadhakandan","name":"Virayadhakandan","area_type":"Rural","shop_code":"21CP032PN","search_string":"  illayangudi (tk) sivagangai "},"bbox":[78.727,9.6524,78.727,9.6524]},{"type":"Feature","geometry":{"type":"Point","coordinates":[78.6486,9.6562]},"properties":{"district":"Sivagangai","taluk":"Illayangudi (Tk)","village":"Sothugudi","name":"Sothugudi","area_type":"Rural","shop_code":"21CP016PN","search_string":"  illayangudi (tk) sivagangai "},"bbox":[78.6486,9.6562,78.6486,9.6562]},{"type":"Feature","geometry":{"type":"Point","coordinates":[78.5899,9.6621]},"properties":{"district":"Sivagangai","taluk":"Illayangudi (Tk)","village":"Nagamugunthankudi","name":"Nagamugunthankudi","area_type":"Rural","shop_code":"21CP025PN","search_string":"  illayangudi (tk) sivagangai "},"bbox":[78.5899,9.6621,78.5899,9.6621]},{"type":"Feature","geometry":{"type":"Point","coordinates":[78.6821,9.6644]},"properties":{"district":"Sivagangai","taluk":"Illayangudi (Tk)","village":"Vallakulam","name":"Vallakulam","area_type":"Rural","shop_code":"21CP017PN","search_string":"  illayangudi (tk) sivagangai "},"bbox":[78.6821,9.6644,78.6821,9.6644]},{"type":"Feature","geometry":{"type":"Point","coordinates":[78.6666,9.6647]},"properties":{"district":"Sivagangai","taluk":"Illayangudi (Tk)","village":"Sathany","name":"Sathany","area_type":"Rural","shop_code":"21CP015PN","search_string":"  illayangudi (tk) sivagangai "},"bbox":[78.6666,9.6647,78.6666,9.6647]},{"type":"Feature","geometry":{"type":"Point","coordinates":[78.7797,9.666]},"properties":{"district":"Sivagangai","taluk":"Illayangudi (Tk)","village":"Alavidangan","name":"Alavidangan","area_type":"Rural","shop_code":"21CP007PY","search_string":"  illayangudi (tk) sivagangai "},"bbox":[78.7797,9.666,78.7797,9.666]},{"type":"Feature","geometry":{"type":"Point","coordinates":[78.7034,9.6666]},"properties":{"district":"Sivagangai","taluk":"Illayangudi (Tk)","village":"Aranmanaikarai","name":"Aranmanaikarai","area_type":"Rural","shop_code":"21CP033PN","search_string":"  illayangudi (tk) sivagangai "},"bbox":[78.7034,9.6666,78.7034,9.6666]},{"type":"Feature","geometry":{"type":"Point","coordinates":[78.7066,9.6691]},"properties":{"district":"Sivagangai","taluk":"Illayangudi (Tk)","village":"Kalangathankottai","name":"Kalangathankottai","area_type":"Rural","shop_code":"21CP034PN","search_string":"  illayangudi (tk) sivagangai "},"bbox":[78.7066,9.6691,78.7066,9.6691]},{"type":"Feature","geometry":{"type":"Point","coordinates":[78.5942,9.6701]},"properties":{"district":"Sivagangai","taluk":"Illayangudi (Tk)","village":"Uthamanoor","name":"Uthamanoor","area_type":"Rural","shop_code":"21CP019PN","search_string":"  illayangudi (tk) sivagangai "},"bbox":[78.5942,9.6701,78.5942,9.6701]},{"type":"Feature","geometry":{"type":"Point","coordinates":[78.7481,9.6744]},"properties":{"district":"Sivagangai","taluk":"Illayangudi (Tk)","village":"Alavidangan","name":"Vadavirukkai","area_type":"Rural","shop_code":"21CP007P1","search_string":"  illayangudi (tk) sivagangai "},"bbox":[78.7481,9.6744,78.7481,9.6744]},{"type":"Feature","geometry":{"type":"Point","coordinates":[78.625,9.6767]},"properties":{"district":"Sivagangai","taluk":"Illayangudi (Tk)","village":"Kannamangalam","name":"Kannamangalam","area_type":"Rural","shop_code":"21CP012PN","search_string":"  illayangudi (tk) sivagangai "},"bbox":[78.625,9.6767,78.625,9.6767]},{"type":"Feature","geometry":{"type":"Point","coordinates":[78.7289,9.6771]},"properties":{"district":"Sivagangai","taluk":"Illayangudi (Tk)","village":"Sooranam","name":"Uthayanoor","area_type":"Rural","shop_code":"21CP011PN","search_string":"  illayangudi (tk) sivagangai "},"bbox":[78.7289,9.6771,78.7289,9.6771]},{"type":"Feature","geometry":{"type":"Point","coordinates":[78.7719,9.6825]},"properties":{"district":"Sivagangai","taluk":"Illayangudi (Tk)","village":"Visavanoor","name":"Visavanoor","area_type":"Rural","shop_code":"21CP008PN","search_string":"  illayangudi (tk) sivagangai "},"bbox":[78.7719,9.6825,78.7719,9.6825]},{"type":"Feature","geometry":{"type":"Point","coordinates":[78.6021,9.6859]},"properties":{"district":"Sivagangai","taluk":"Illayangudi (Tk)","village":"Devathakudi","name":"Devathakudi","area_type":"Rural","shop_code":"21CP022PN","search_string":"  illayangudi (tk) sivagangai "},"bbox":[78.6021,9.6859,78.6021,9.6859]},{"type":"Feature","geometry":{"type":"Point","coordinates":[78.6023,9.686]},"properties":{"district":"Sivagangai","taluk":"Illayangudi (Tk)","village":"Thayamangalam","name":"Thayamangalam","area_type":"Rural","shop_code":"21CP018PN","search_string":"  illayangudi (tk) sivagangai "},"bbox":[78.6023,9.686,78.6023,9.686]},{"type":"Feature","geometry":{"type":"Point","coordinates":[78.6021,9.6861]},"properties":{"district":"Sivagangai","taluk":"Illayangudi (Tk)","village":"Thadiamangalam","name":"Thadiamangalam","area_type":"Rural","shop_code":"21CP021PN","search_string":"  illayangudi (tk) sivagangai "},"bbox":[78.6021,9.6861,78.6021,9.6861]},{"type":"Feature","geometry":{"type":"Point","coordinates":[78.6604,9.6863]},"properties":{"district":"Sivagangai","taluk":"Illayangudi (Tk)","village":"Nenjathoor","name":"Nenjathoor","area_type":"Rural","shop_code":"21CP036PN","search_string":"  illayangudi (tk) sivagangai "},"bbox":[78.6604,9.6863,78.6604,9.6863]},{"type":"Feature","geometry":{"type":"Point","coordinates":[78.6422,9.6919]},"properties":{"district":"Sivagangai","taluk":"Illayangudi (Tk)","village":"Karaikulam","name":"Karaikulam","area_type":"Rural","shop_code":"21CP013PY","search_string":"  illayangudi (tk) sivagangai "},"bbox":[78.6422,9.6919,78.6422,9.6919]},{"type":"Feature","geometry":{"type":"Point","coordinates":[78.7167,9.6941]},"properties":{"district":"Sivagangai","taluk":"Illayangudi (Tk)","village":"Sooranam","name":"Sooranam","area_type":"Rural","shop_code":"21CP009PN","search_string":"  illayangudi (tk) sivagangai "},"bbox":[78.7167,9.6941,78.7167,9.6941]},{"type":"Feature","geometry":{"type":"Point","coordinates":[78.6291,9.6956]},"properties":{"district":"Sivagangai","taluk":"Illayangudi (Tk)","village":"Meladuraiyoor","name":"Meladuraiyoor","area_type":"Rural","shop_code":"21CP014PY","search_string":"  illayangudi (tk) sivagangai "},"bbox":[78.6291,9.6956,78.6291,9.6956]},{"type":"Feature","geometry":{"type":"Point","coordinates":[78.749,9.6962]},"properties":{"district":"Sivagangai","taluk":"Illayangudi (Tk)","village":"Sooranam","name":"Akkavayal","area_type":"Rural","shop_code":"21CP010PN","search_string":"  illayangudi (tk) sivagangai "},"bbox":[78.749,9.6962,78.749,9.6962]},{"type":"Feature","geometry":{"type":"Point","coordinates":[78.7915,9.6987]},"properties":{"district":"Sivagangai","taluk":"Illayangudi (Tk)","village":"Visavanoor","name":"Kalladithidal","area_type":"Rural","shop_code":"21CP065PY","search_string":"  illayangudi (tk) sivagangai "},"bbox":[78.7915,9.6987,78.7915,9.6987]},{"type":"Feature","geometry":{"type":"Point","coordinates":[78.6539,9.7015]},"properties":{"district":"Sivagangai","taluk":"Illayangudi (Tk)","village":"Karaikulam","name":"Indangulam","area_type":"Rural","shop_code":"21CP013P1","search_string":"  illayangudi (tk) sivagangai "},"bbox":[78.6539,9.7015,78.6539,9.7015]},{"type":"Feature","geometry":{"type":"Point","coordinates":[78.602,9.7071]},"properties":{"district":"Sivagangai","taluk":"Illayangudi (Tk)","village":"Kalaikulam","name":"Kalaikulam","area_type":"Rural","shop_code":"21CP020PN","search_string":"  illayangudi (tk) sivagangai "},"bbox":[78.602,9.7071,78.602,9.7071]},{"type":"Feature","geometry":{"type":"Point","coordinates":[78.6329,9.7107]},"properties":{"district":"Sivagangai","taluk":"Illayangudi (Tk)","village":"Meladuraiyoor","name":"Madhava Nagar","area_type":"Rural","shop_code":"21CP014P1","search_string":"  illayangudi (tk) sivagangai "},"bbox":[78.6329,9.7107,78.6329,9.7107]},{"type":"Feature","geometry":{"type":"Point","coordinates":[78.7629,9.7112]},"properties":{"district":"Sivagangai","taluk":"Illayangudi (Tk)","village":"Visavanoor","name":"Sooriyankottai","area_type":"Rural","shop_code":"21CP065P1","search_string":"  illayangudi (tk) sivagangai "},"bbox":[78.7629,9.7112,78.7629,9.7112]},{"type":"Feature","geometry":{"type":"Point","coordinates":[78.6753,9.6911]},"properties":{"district":"Sivagangai","taluk":"Kalayarkovil","village":"Sethur","name":"Sethur","area_type":"Rural","shop_code":"21HP097PN","search_string":"  kalayarkovil sivagangai "},"bbox":[78.6753,9.6911,78.6753,9.6911]},{"type":"Feature","geometry":{"type":"Point","coordinates":[78.6936,9.6988]},"properties":{"district":"Sivagangai","taluk":"Kalayarkovil","village":"Sakkur","name":"Maranthai","area_type":"Rural","shop_code":"21HP093P1","search_string":"  kalayarkovil sivagangai "},"bbox":[78.6936,9.6988,78.6936,9.6988]},{"type":"Feature","geometry":{"type":"Point","coordinates":[78.6727,9.703]},"properties":{"district":"Sivagangai","taluk":"Kalayarkovil","village":"Kolanthi","name":"Kolanthi","area_type":"Rural","shop_code":"21HP095PN","search_string":"  kalayarkovil sivagangai "},"bbox":[78.6727,9.703,78.6727,9.703]},{"type":"Feature","geometry":{"type":"Point","coordinates":[78.713,9.7151]},"properties":{"district":"Sivagangai","taluk":"Kalayarkovil","village":"Kanjiram","name":"Kanjiram","area_type":"Rural","shop_code":"21HP098PN","search_string":"  kalayarkovil sivagangai "},"bbox":[78.713,9.7151,78.713,9.7151]},{"type":"Feature","geometry":{"type":"Point","coordinates":[78.6997,9.7169]},"properties":{"district":"Sivagangai","taluk":"Kalayarkovil","village":"Sakkur","name":"Sakkur","area_type":"Rural","shop_code":"21HP093PY","search_string":"  kalayarkovil sivagangai "},"bbox":[78.6997,9.7169,78.6997,9.7169]},{"type":"Feature","geometry":{"type":"Point","coordinates":[78.6781,9.7176]},"properties":{"district":"Sivagangai","taluk":"Kalayarkovil","village":"Sakkur","name":"Ilanthakarai","area_type":"Rural","shop_code":"21HP096PN","search_string":"  kalayarkovil sivagangai "},"bbox":[78.6781,9.7176,78.6781,9.7176]},{"type":"Feature","geometry":{"type":"Point","coordinates":[78.6609,9.7226]},"properties":{"district":"Sivagangai","taluk":"Kalayarkovil","village":"Sedambal","name":"Velarenthal","area_type":"Rural","shop_code":"21HP088PN","search_string":"  kalayarkovil sivagangai "},"bbox":[78.6609,9.7226,78.6609,9.7226]},{"type":"Feature","geometry":{"type":"Point","coordinates":[78.5771,9.7248]},"properties":{"district":"Sivagangai","taluk":"Kalayarkovil","village":"Periyakannanur","name":"Periyakannanur Pamco","area_type":"Rural","shop_code":"21HP077PN","search_string":"  kalayarkovil sivagangai "},"bbox":[78.5771,9.7248,78.5771,9.7248]},{"type":"Feature","geometry":{"type":"Point","coordinates":[78.6403,9.7277]},"properties":{"district":"Sivagangai","taluk":"Kalayarkovil","village":"Sedambal","name":"Pullukkottai","area_type":"Rural","shop_code":"21HP091PN","search_string":"  kalayarkovil sivagangai "},"bbox":[78.6403,9.7277,78.6403,9.7277]},{"type":"Feature","geometry":{"type":"Point","coordinates":[78.7349,9.7293]},"properties":{"district":"Sivagangai","taluk":"Kalayarkovil","village":"Valanai","name":"Valanai","area_type":"Rural","shop_code":"21HP148PY","search_string":"  kalayarkovil sivagangai "},"bbox":[78.7349,9.7293,78.7349,9.7293]},{"type":"Feature","geometry":{"type":"Point","coordinates":[78.5496,9.7322]},"properties":{"district":"Sivagangai","taluk":"Kalayarkovil","village":"Sembanur","name":"Sempanur","area_type":"Rural","shop_code":"21HP076PN","search_string":"  kalayarkovil sivagangai "},"bbox":[78.5496,9.7322,78.5496,9.7322]},{"type":"Feature","geometry":{"type":"Point","coordinates":[78.6014,9.7378]},"properties":{"district":"Sivagangai","taluk":"Kalayarkovil","village":"Sembar","name":"Sempar Pamco","area_type":"Rural","shop_code":"21HP078PN","search_string":"  kalayarkovil sivagangai "},"bbox":[78.6014,9.7378,78.6014,9.7378]},{"type":"Feature","geometry":{"type":"Point","coordinates":[78.5735,9.7388]},"properties":{"district":"Sivagangai","taluk":"Kalayarkovil","village":"Allpattavituthi","name":"Allpattaviduthi Pamco","area_type":"Rural","shop_code":"21HP079PY","search_string":"  kalayarkovil sivagangai "},"bbox":[78.5735,9.7388,78.5735,9.7388]},{"type":"Feature","geometry":{"type":"Point","coordinates":[78.7137,9.7425]},"properties":{"district":"Sivagangai","taluk":"Kalayarkovil","village":"Marakkathur","name":"Allivayal","area_type":"Rural","shop_code":"21HP148P1","search_string":"  kalayarkovil sivagangai "},"bbox":[78.7137,9.7425,78.7137,9.7425]},{"type":"Feature","geometry":{"type":"Point","coordinates":[78.6237,9.7431]},"properties":{"district":"Sivagangai","taluk":"Kalayarkovil","village":"Pulavanvayal","name":"Nandanur","area_type":"Rural","shop_code":"21HP087PN","search_string":"  kalayarkovil sivagangai "},"bbox":[78.6237,9.7431,78.6237,9.7431]},{"type":"Feature","geometry":{"type":"Point","coordinates":[78.6902,9.744]},"properties":{"district":"Sivagangai","taluk":"Kalayarkovil","village":"Silukkapatti","name":"Palur","area_type":"Rural","shop_code":"21HP094PN","search_string":"  kalayarkovil sivagangai "},"bbox":[78.6902,9.744,78.6902,9.744]},{"type":"Feature","geometry":{"type":"Point","coordinates":[78.6709,9.7468]},"properties":{"district":"Sivagangai","taluk":"Kalayarkovil","village":"Siriyur","name":"Siriyur","area_type":"Rural","shop_code":"21HP089PN","search_string":"  kalayarkovil sivagangai "},"bbox":[78.6709,9.7468,78.6709,9.7468]},{"type":"Feature","geometry":{"type":"Point","coordinates":[78.6524,9.7472]},"properties":{"district":"Sivagangai","taluk":"Kalayarkovil","village":"Sedambal","name":"Solaiyur","area_type":"Rural","shop_code":"21HP090PN","search_string":"  kalayarkovil sivagangai "},"bbox":[78.6524,9.7472,78.6524,9.7472]},{"type":"Feature","geometry":{"type":"Point","coordinates":[78.6146,9.7534]},"properties":{"district":"Sivagangai","taluk":"Kalayarkovil","village":"Pulavanvayal","name":"Kallivayal","area_type":"Rural","shop_code":"21HP086PN","search_string":"  kalayarkovil sivagangai "},"bbox":[78.6146,9.7534,78.6146,9.7534]},{"type":"Feature","geometry":{"type":"Point","coordinates":[78.5629,9.756]},"properties":{"district":"Sivagangai","taluk":"Kalayarkovil","village":"Adappadakki","name":"Athapadakki SCMS","area_type":"Rural","shop_code":"21HP080PN","search_string":"  kalayarkovil sivagangai "},"bbox":[78.5629,9.756,78.5629,9.756]},{"type":"Feature","geometry":{"type":"Point","coordinates":[78.5367,9.7615]},"properties":{"district":"Sivagangai","taluk":"Kalayarkovil","village":"Mallal","name":"Mallal","area_type":"Rural","shop_code":"21HP075PN","search_string":"  kalayarkovil sivagangai "},"bbox":[78.5367,9.7615,78.5367,9.7615]},{"type":"Feature","geometry":{"type":"Point","coordinates":[78.5815,9.7628]},"properties":{"district":"Sivagangai","taluk":"Kalayarkovil","village":"Vettikulam","name":"Vettikulam","area_type":"Rural","shop_code":"21HP083PN","search_string":"  kalayarkovil sivagangai "},"bbox":[78.5815,9.7628,78.5815,9.7628]},{"type":"Feature","geometry":{"type":"Point","coordinates":[78.5091,9.7647]},"properties":{"district":"Sivagangai","taluk":"Kalayarkovil","village":"Minnaranjanvelangulam","name":"Utharapulli","area_type":"Rural","shop_code":"21HP074PN","search_string":"  kalayarkovil sivagangai "},"bbox":[78.5091,9.7647,78.5091,9.7647]},{"type":"Feature","geometry":{"type":"Point","coordinates":[78.7094,9.7663]},"properties":{"district":"Sivagangai","taluk":"Kalayarkovil","village":"Vannigudi","name":"Pidikulam","area_type":"Rural","shop_code":"21HP101P1","search_string":"  kalayarkovil sivagangai "},"bbox":[78.7094,9.7663,78.7094,9.7663]},{"type":"Feature","geometry":{"type":"Point","coordinates":[78.6408,9.7663]},"properties":{"district":"Sivagangai","taluk":"Kalayarkovil","village":"Palkulam","name":"Maravamangalam Pamco-2","area_type":"Rural","shop_code":"21HB005PN","search_string":"  kalayarkovil sivagangai "},"bbox":[78.6408,9.7663,78.6408,9.7663]},{"type":"Feature","geometry":{"type":"Point","coordinates":[78.6406,9.7666]},"properties":{"district":"Sivagangai","taluk":"Kalayarkovil","village":"Palkulam","name":"Maravamangalam pamco-1","area_type":"Rural","shop_code":"21HB003PN","search_string":"  kalayarkovil sivagangai "},"bbox":[78.6406,9.7666,78.6406,9.7666]},{"type":"Feature","geometry":{"type":"Point","coordinates":[78.6932,9.7683]},"properties":{"district":"Sivagangai","taluk":"Kalayarkovil","village":"Silukkapatti","name":"Silukkupatti","area_type":"Rural","shop_code":"21HP099PN","search_string":"  kalayarkovil sivagangai "},"bbox":[78.6932,9.7683,78.6932,9.7683]},{"type":"Feature","geometry":{"type":"Point","coordinates":[78.6175,9.7722]},"properties":{"district":"Sivagangai","taluk":"Kalayarkovil","village":"Siramam","name":"Siramam","area_type":"Rural","shop_code":"21HP084PN","search_string":"  kalayarkovil sivagangai "},"bbox":[78.6175,9.7722,78.6175,9.7722]},{"type":"Feature","geometry":{"type":"Point","coordinates":[78.5076,9.7737]},"properties":{"district":"Sivagangai","taluk":"Kalayarkovil","village":"Nadamangalam","name":"Nadamangalam","area_type":"Rural","shop_code":"21HP073PN","search_string":"  kalayarkovil sivagangai "},"bbox":[78.5076,9.7737,78.5076,9.7737]},{"type":"Feature","geometry":{"type":"Point","coordinates":[78.702,9.7751]},"properties":{"district":"Sivagangai","taluk":"Kalayarkovil","village":"Vannigudi","name":"Vannikkudi","area_type":"Rural","shop_code":"21HP101PY","search_string":"  kalayarkovil sivagangai "},"bbox":[78.702,9.7751,78.702,9.7751]},{"type":"Feature","geometry":{"type":"Point","coordinates":[78.7191,9.7766]},"properties":{"district":"Sivagangai","taluk":"Kalayarkovil","village":"Vannigudi","name":"Mudidhanai","area_type":"Rural","shop_code":"21HP101P2","search_string":"  kalayarkovil sivagangai "},"bbox":[78.7191,9.7766,78.7191,9.7766]},{"type":"Feature","geometry":{"type":"Point","coordinates":[78.5692,9.7792]},"properties":{"district":"Sivagangai","taluk":"Kalayarkovil","village":"Cholavandan","name":"Solavanthan","area_type":"Rural","shop_code":"21HP082PN","search_string":"  kalayarkovil sivagangai "},"bbox":[78.5692,9.7792,78.5692,9.7792]},{"type":"Feature","geometry":{"type":"Point","coordinates":[78.7049,9.7865]},"properties":{"district":"Sivagangai","taluk":"Kalayarkovil","village":"Marathur","name":"Siruvelangudi","area_type":"Rural","shop_code":"21HP100PN","search_string":"  kalayarkovil sivagangai "},"bbox":[78.7049,9.7865,78.7049,9.7865]},{"type":"Feature","geometry":{"type":"Point","coordinates":[78.5181,9.7876]},"properties":{"district":"Sivagangai","taluk":"Kalayarkovil","village":"Poovali","name":"Sengulam","area_type":"Rural","shop_code":"21HP071PN","search_string":"  kalayarkovil sivagangai "},"bbox":[78.5181,9.7876,78.5181,9.7876]},{"type":"Feature","geometry":{"type":"Point","coordinates":[78.5968,9.7887]},"properties":{"district":"Sivagangai","taluk":"Kalayarkovil","village":"Mudikkaraipudukkulam","name":"Mudikkarai","area_type":"Rural","shop_code":"21HP092PY","search_string":"  kalayarkovil sivagangai "},"bbox":[78.5968,9.7887,78.5968,9.7887]},{"type":"Feature","geometry":{"type":"Point","coordinates":[78.6313,9.7896]},"properties":{"district":"Sivagangai","taluk":"Kalayarkovil","village":"Purasadiudappu","name":"Samathuvapuram-Purasadiudaippu","area_type":"Rural","shop_code":"21HP092P1","search_string":"  kalayarkovil sivagangai "},"bbox":[78.6313,9.7896,78.6313,9.7896]},{"type":"Feature","geometry":{"type":"Point","coordinates":[78.6853,9.791]},"properties":{"district":"Sivagangai","taluk":"Kalayarkovil","village":"Marathur","name":"Marathur","area_type":"Rural","shop_code":"21HP010PN","search_string":"  kalayarkovil sivagangai "},"bbox":[78.6853,9.791,78.6853,9.791]},{"type":"Feature","geometry":{"type":"Point","coordinates":[78.6566,9.7913]},"properties":{"district":"Sivagangai","taluk":"Kalayarkovil","village":"Nallendal","name":"Manthikanmoi","area_type":"Rural","shop_code":"21HP085PY","search_string":"  kalayarkovil sivagangai "},"bbox":[78.6566,9.7913,78.6566,9.7913]},{"type":"Feature","geometry":{"type":"Point","coordinates":[78.5654,9.7943]},"properties":{"district":"Sivagangai","taluk":"Kalayarkovil","village":"Oyyavandan","name":"Oyyavanthan SCMS","area_type":"Rural","shop_code":"21HP081PN","search_string":"  kalayarkovil sivagangai "},"bbox":[78.5654,9.7943,78.5654,9.7943]},{"type":"Feature","geometry":{"type":"Point","coordinates":[78.5371,9.7963]},"properties":{"district":"Sivagangai","taluk":"Kalayarkovil","village":"Poovali","name":"Udakulam","area_type":"Rural","shop_code":"21HP072PN","search_string":"  kalayarkovil sivagangai "},"bbox":[78.5371,9.7963,78.5371,9.7963]},{"type":"Feature","geometry":{"type":"Point","coordinates":[78.6327,9.8037]},"properties":{"district":"Sivagangai","taluk":"Kalayarkovil","village":"Pudukkilavachi","name":"Andurani","area_type":"Rural","shop_code":"21HG017PY","search_string":"  kalayarkovil sivagangai "},"bbox":[78.6327,9.8037,78.6327,9.8037]},{"type":"Feature","geometry":{"type":"Point","coordinates":[78.5888,9.8049]},"properties":{"district":"Sivagangai","taluk":"Kalayarkovil","village":"Pudukkilavachi","name":"Pudhukeluvichi","area_type":"Rural","shop_code":"21HP058PN","search_string":"  kalayarkovil sivagangai "},"bbox":[78.5888,9.8049,78.5888,9.8049]},{"type":"Feature","geometry":{"type":"Point","coordinates":[78.6052,9.8072]},"properties":{"district":"Sivagangai","taluk":"Kalayarkovil","village":"Kanjipatti","name":"Kanjipatti","area_type":"Rural","shop_code":"21HP057PN","search_string":"  kalayarkovil sivagangai "},"bbox":[78.6052,9.8072,78.6052,9.8072]},{"type":"Feature","geometry":{"type":"Point","coordinates":[78.6887,9.8078]},"properties":{"district":"Sivagangai","taluk":"Kalayarkovil","village":"Marakkathur","name":"Marakkathur","area_type":"Rural","shop_code":"21HP011PN","search_string":"  kalayarkovil sivagangai "},"bbox":[78.6887,9.8078,78.6887,9.8078]},{"type":"Feature","geometry":{"type":"Point","coordinates":[78.6618,9.8154]},"properties":{"district":"Sivagangai","taluk":"Kalayarkovil","village":"Kuruthanivariendal","name":"Arasakulam","area_type":"Rural","shop_code":"21HG015PY","search_string":"  kalayarkovil sivagangai "},"bbox":[78.6618,9.8154,78.6618,9.8154]},{"type":"Feature","geometry":{"type":"Point","coordinates":[78.6219,9.8164]},"properties":{"district":"Sivagangai","taluk":"Kalayarkovil","village":"Paruthikanmai","name":"Pulikanmai","area_type":"Rural","shop_code":"21HG017P1","search_string":"  kalayarkovil sivagangai "},"bbox":[78.6219,9.8164,78.6219,9.8164]},{"type":"Feature","geometry":{"type":"Point","coordinates":[78.6997,9.8235]},"properties":{"district":"Sivagangai","taluk":"Kalayarkovil","village":"Moovarkanmoi","name":"Ammapattinam","area_type":"Rural","shop_code":"21HP151PN","search_string":"  kalayarkovil sivagangai "},"bbox":[78.6997,9.8235,78.6997,9.8235]},{"type":"Feature","geometry":{"type":"Point","coordinates":[78.6447,9.8262]},"properties":{"district":"Sivagangai","taluk":"Kalayarkovil","village":"Kuruthanivariendal","name":"Sevalkanmai","area_type":"Rural","shop_code":"21HG015P1","search_string":"  kalayarkovil sivagangai "},"bbox":[78.6447,9.8262,78.6447,9.8262]},{"type":"Feature","geometry":{"type":"Point","coordinates":[78.6188,9.8274]},"properties":{"district":"Sivagangai","taluk":"Kalayarkovil","village":"Paruthikanmai","name":"Paruthikanmoi","area_type":"Rural","shop_code":"21HG016PN","search_string":"  kalayarkovil sivagangai "},"bbox":[78.6188,9.8274,78.6188,9.8274]},{"type":"Feature","geometry":{"type":"Point","coordinates":[78.7189,9.8294]},"properties":{"district":"Sivagangai","taluk":"Kalayarkovil","village":"Mongankanmoi","name":"Moovarkanmoi","area_type":"Rural","shop_code":"21HP009PN","search_string":"  kalayarkovil sivagangai "},"bbox":[78.7189,9.8294,78.7189,9.8294]},{"type":"Feature","geometry":{"type":"Point","coordinates":[78.5437,9.8349]},"properties":{"district":"Sivagangai","taluk":"Kalayarkovil","village":"Allur","name":"Allur","area_type":"Rural","shop_code":"21HG011PN","search_string":"  kalayarkovil sivagangai "},"bbox":[78.5437,9.8349,78.5437,9.8349]},{"type":"Feature","geometry":{"type":"Point","coordinates":[78.6853,9.8356]},"properties":{"district":"Sivagangai","taluk":"Kalayarkovil","village":"Moovarkanmoi","name":"Vembani","area_type":"Rural","shop_code":"21HP103P1","search_string":"  kalayarkovil sivagangai "},"bbox":[78.6853,9.8356,78.6853,9.8356]},{"type":"Feature","geometry":{"type":"Point","coordinates":[78.6853,9.8357]},"properties":{"district":"Sivagangai","taluk":"Kalayarkovil","village":"Pallivayal","name":"Pallithammam","area_type":"Rural","shop_code":"21HP103PY","search_string":"  kalayarkovil sivagangai "},"bbox":[78.6853,9.8357,78.6853,9.8357]},{"type":"Feature","geometry":{"type":"Point","coordinates":[78.5485,9.8377]},"properties":{"district":"Sivagangai","taluk":"Kalayarkovil","village":"Panangadi","name":"Panangadi","area_type":"Rural","shop_code":"21HG012PN","search_string":"  kalayarkovil sivagangai "},"bbox":[78.5485,9.8377,78.5485,9.8377]},{"type":"Feature","geometry":{"type":"Point","coordinates":[78.5916,9.839]},"properties":{"district":"Sivagangai","taluk":"Kalayarkovil","village":"Vittaneri","name":"Vittaneari","area_type":"Rural","shop_code":"21HP056PN","search_string":"  kalayarkovil sivagangai "},"bbox":[78.5916,9.839,78.5916,9.839]},{"type":"Feature","geometry":{"type":"Point","coordinates":[78.6375,9.8428]},"properties":{"district":"Sivagangai","taluk":"Kalayarkovil","village":"Somanathamangalam","name":"Kalaiyarkovil Pamco-1","area_type":"Rural","shop_code":"21HB001PN","search_string":"  kalayarkovil sivagangai "},"bbox":[78.6375,9.8428,78.6375,9.8428]},{"type":"Feature","geometry":{"type":"Point","coordinates":[78.6262,9.8458]},"properties":{"district":"Sivagangai","taluk":"Kalayarkovil","village":"Somanathamangalam","name":"Kalaiyarkovil Pamco-3","area_type":"Rural","shop_code":"21HB004PN","search_string":"  kalayarkovil sivagangai "},"bbox":[78.6262,9.8458,78.6262,9.8458]},{"type":"Feature","geometry":{"type":"Point","coordinates":[78.6536,9.846]},"properties":{"district":"Sivagangai","taluk":"Kalayarkovil","village":"Pallivayal","name":"Soosaiyapparpattanam","area_type":"Rural","shop_code":"21HG014PN","search_string":"  kalayarkovil sivagangai "},"bbox":[78.6536,9.846,78.6536,9.846]},{"type":"Feature","geometry":{"type":"Point","coordinates":[78.7144,9.8468]},"properties":{"district":"Sivagangai","taluk":"Kalayarkovil","village":"Mongankanmoi","name":"Nedodai","area_type":"Rural","shop_code":"21HP008PN","search_string":"  kalayarkovil sivagangai "},"bbox":[78.7144,9.8468,78.7144,9.8468]},{"type":"Feature","geometry":{"type":"Point","coordinates":[78.6326,9.8489]},"properties":{"district":"Sivagangai","taluk":"Kalayarkovil","village":"Somanathamangalam","name":"Kalaiyarkovil Pamco-2","area_type":"Rural","shop_code":"21HB002PN","search_string":"  kalayarkovil sivagangai "},"bbox":[78.6326,9.8489,78.6326,9.8489]},{"type":"Feature","geometry":{"type":"Point","coordinates":[78.6805,9.8501]},"properties":{"district":"Sivagangai","taluk":"Kalayarkovil","village":"Mathukanmoi","name":"Nedunkulam","area_type":"Rural","shop_code":"21HG021PN","search_string":"  kalayarkovil sivagangai "},"bbox":[78.6805,9.8501,78.6805,9.8501]},{"type":"Feature","geometry":{"type":"Point","coordinates":[78.6,9.8568]},"properties":{"district":"Sivagangai","taluk":"Kalayarkovil","village":"Kollankudi","name":"Alagapuri","area_type":"Rural","shop_code":"21HP152PN","search_string":"  kalayarkovil sivagangai "},"bbox":[78.6,9.8568,78.6,9.8568]},{"type":"Feature","geometry":{"type":"Point","coordinates":[78.59,9.8573]},"properties":{"district":"Sivagangai","taluk":"Kalayarkovil","village":"Kollankudi","name":"Kollangudi","area_type":"Rural","shop_code":"21HP054PY","search_string":"  kalayarkovil sivagangai "},"bbox":[78.59,9.8573,78.59,9.8573]},{"type":"Feature","geometry":{"type":"Point","coordinates":[78.6633,9.8618]},"properties":{"district":"Sivagangai","taluk":"Kalayarkovil","village":"Nedungulam","name":"Andichiurani","area_type":"Rural","shop_code":"21HG019PN","search_string":"  kalayarkovil sivagangai "},"bbox":[78.6633,9.8618,78.6633,9.8618]},{"type":"Feature","geometry":{"type":"Point","coordinates":[78.644,9.8644]},"properties":{"district":"Sivagangai","taluk":"Kalayarkovil","village":"Mathukanmoi","name":"Silaiyaoorani","area_type":"Rural","shop_code":"21HG018PN","search_string":"  kalayarkovil sivagangai "},"bbox":[78.644,9.8644,78.644,9.8644]},{"type":"Feature","geometry":{"type":"Point","coordinates":[78.4857,9.8656]},"properties":{"district":"Sivagangai","taluk":"Kalayarkovil","village":"Nattarasankottai (Tp)","name":"Nattarasankottai Society-2","area_type":"Urban","shop_code":"21HC008PN","search_string":"  kalayarkovil sivagangai "},"bbox":[78.4857,9.8656,78.4857,9.8656]},{"type":"Feature","geometry":{"type":"Point","coordinates":[78.5555,9.8687]},"properties":{"district":"Sivagangai","taluk":"Kalayarkovil","village":"Nattarasankottai (Tp)","name":"Nattarasankottai Society-1","area_type":"Urban","shop_code":"21HC007PN","search_string":"  kalayarkovil sivagangai "},"bbox":[78.5555,9.8687,78.5555,9.8687]},{"type":"Feature","geometry":{"type":"Point","coordinates":[78.5556,9.8717]},"properties":{"district":"Sivagangai","taluk":"Kalayarkovil","village":"Nattarasankottai (Tp)","name":"Nattarasankottai SCMS","area_type":"Urban","shop_code":"21HG006PN","search_string":"  kalayarkovil sivagangai "},"bbox":[78.5556,9.8717,78.5556,9.8717]},{"type":"Feature","geometry":{"type":"Point","coordinates":[78.6027,9.8724]},"properties":{"district":"Sivagangai","taluk":"Kalayarkovil","village":"Kollankudi","name":"Meppal","area_type":"Rural","shop_code":"21HP054P1","search_string":"  kalayarkovil sivagangai "},"bbox":[78.6027,9.8724,78.6027,9.8724]},{"type":"Feature","geometry":{"type":"Point","coordinates":[78.6752,9.8797]},"properties":{"district":"Sivagangai","taluk":"Kalayarkovil","village":"Mathukanmoi","name":"Mathukanmai","area_type":"Rural","shop_code":"21HG020P2","search_string":"  kalayarkovil sivagangai "},"bbox":[78.6752,9.8797,78.6752,9.8797]},{"type":"Feature","geometry":{"type":"Point","coordinates":[78.592,9.8798]},"properties":{"district":"Sivagangai","taluk":"Kalayarkovil","village":"Muthur","name":"Muthur","area_type":"Rural","shop_code":"21HP055PN","search_string":"  kalayarkovil sivagangai "},"bbox":[78.592,9.8798,78.592,9.8798]},{"type":"Feature","geometry":{"type":"Point","coordinates":[78.661,9.882]},"properties":{"district":"Sivagangai","taluk":"Kalayarkovil","village":"Mathukanmoi","name":"Ottanam","area_type":"Rural","shop_code":"21HG020PY","search_string":"  kalayarkovil sivagangai "},"bbox":[78.661,9.882,78.661,9.882]},{"type":"Feature","geometry":{"type":"Point","coordinates":[78.624,9.8827]},"properties":{"district":"Sivagangai","taluk":"Kalayarkovil","village":"Muthur","name":"Ayyanarkulam","area_type":"Rural","shop_code":"21HP059PN","search_string":"  kalayarkovil sivagangai "},"bbox":[78.624,9.8827,78.624,9.8827]},{"type":"Feature","geometry":{"type":"Point","coordinates":[78.5575,9.8954]},"properties":{"district":"Sivagangai","taluk":"Kalayarkovil","village":"Gowripatti","name":"Gowripatti","area_type":"Rural","shop_code":"21HG008PY","search_string":"  kalayarkovil sivagangai "},"bbox":[78.5575,9.8954,78.5575,9.8954]},{"type":"Feature","geometry":{"type":"Point","coordinates":[78.6543,9.8983]},"properties":{"district":"Sivagangai","taluk":"Kalayarkovil","village":"Mathukanmoi","name":"kalakanmai","area_type":"Rural","shop_code":"21HG020P1","search_string":"  kalayarkovil sivagangai "},"bbox":[78.6543,9.8983,78.6543,9.8983]},{"type":"Feature","geometry":{"type":"Point","coordinates":[78.5805,9.9082]},"properties":{"district":"Sivagangai","taluk":"Kalayarkovil","village":"M Vaniyangudi","name":"Kandupatti","area_type":"Rural","shop_code":"21HP060PN","search_string":"  kalayarkovil sivagangai "},"bbox":[78.5805,9.9082,78.5805,9.9082]},{"type":"Feature","geometry":{"type":"Point","coordinates":[78.7053,9.8978]},"properties":{"district":"Sivagangai","taluk":"Karaikudi (Tk)","village":"A Karunkulam","name":"A.Karunkulam","area_type":"Rural","shop_code":"21EP036PN","search_string":"  karaikudi (tk) sivagangai "},"bbox":[78.7053,9.8978,78.7053,9.8978]},{"type":"Feature","geometry":{"type":"Point","coordinates":[78.6522,9.8978]},"properties":{"district":"Sivagangai","taluk":"Karaikudi (Tk)","village":"Kurangalipatti","name":"Kurangalipatti","area_type":"Rural","shop_code":"21EP037P2","search_string":"  karaikudi (tk) sivagangai "},"bbox":[78.6522,9.8978,78.6522,9.8978]},{"type":"Feature","geometry":{"type":"Point","coordinates":[78.6774,9.9145]},"properties":{"district":"Sivagangai","taluk":"Karaikudi (Tk)","village":"Vetriyur","name":"Vetriyur","area_type":"Rural","shop_code":"21EP035PN","search_string":"  karaikudi (tk) sivagangai "},"bbox":[78.6774,9.9145,78.6774,9.9145]},{"type":"Feature","geometry":{"type":"Point","coordinates":[78.6364,9.9172]},"properties":{"district":"Sivagangai","taluk":"Karaikudi (Tk)","village":"Satharasanpatti","name":"Satharasanpatti","area_type":"Rural","shop_code":"21EP037P1","search_string":"  karaikudi (tk) sivagangai "},"bbox":[78.6364,9.9172,78.6364,9.9172]},{"type":"Feature","geometry":{"type":"Point","coordinates":[78.6039,9.9203]},"properties":{"district":"Sivagangai","taluk":"Karaikudi (Tk)","village":"Natarajapuram","name":"Natarajapuram","area_type":"Rural","shop_code":"21EP033PN","search_string":"  karaikudi (tk) sivagangai "},"bbox":[78.6039,9.9203,78.6039,9.9203]},{"type":"Feature","geometry":{"type":"Point","coordinates":[78.6998,9.924]},"properties":{"district":"Sivagangai","taluk":"Karaikudi (Tk)","village":"Alampattu","name":"Kodunkulam","area_type":"Rural","shop_code":"21EP030P1","search_string":"  karaikudi (tk) sivagangai "},"bbox":[78.6998,9.924,78.6998,9.924]},{"type":"Feature","geometry":{"type":"Point","coordinates":[78.668,9.9287]},"properties":{"district":"Sivagangai","taluk":"Karaikudi (Tk)","village":"Malaikandan","name":"Malaikandan","area_type":"Rural","shop_code":"21EP037PY","search_string":"  karaikudi (tk) sivagangai "},"bbox":[78.668,9.9287,78.668,9.9287]},{"type":"Feature","geometry":{"type":"Point","coordinates":[78.6139,9.9316]},"properties":{"district":"Sivagangai","taluk":"Karaikudi (Tk)","village":"Panangudi","name":"Panangudi","area_type":"Rural","shop_code":"21EP034PN","search_string":"  karaikudi (tk) sivagangai "},"bbox":[78.6139,9.9316,78.6139,9.9316]},{"type":"Feature","geometry":{"type":"Point","coordinates":[78.6416,9.9409]},"properties":{"district":"Sivagangai","taluk":"Karaikudi (Tk)","village":"Puliyangudipatti","name":"Puliyangudipatti","area_type":"Rural","shop_code":"21EP029P2","search_string":"  karaikudi (tk) sivagangai "},"bbox":[78.6416,9.9409,78.6416,9.9409]},{"type":"Feature","geometry":{"type":"Point","coordinates":[78.6831,9.946]},"properties":{"district":"Sivagangai","taluk":"Karaikudi (Tk)","village":"Keelapoongudi","name":"Keelapoongudi","area_type":"Rural","shop_code":"21EP028PY","search_string":"  karaikudi (tk) sivagangai "},"bbox":[78.6831,9.946,78.6831,9.946]},{"type":"Feature","geometry":{"type":"Point","coordinates":[78.7226,9.9519]},"properties":{"district":"Sivagangai","taluk":"Karaikudi (Tk)","village":"Veppankulam","name":"Veppankulam","area_type":"Rural","shop_code":"21EP032PN","search_string":"  karaikudi (tk) sivagangai "},"bbox":[78.7226,9.9519,78.7226,9.9519]},{"type":"Feature","geometry":{"type":"Point","coordinates":[78.6678,9.952]},"properties":{"district":"Sivagangai","taluk":"Karaikudi (Tk)","village":"Melapoongudi","name":"Melapoongudi","area_type":"Rural","shop_code":"21EP028P1","search_string":"  karaikudi (tk) sivagangai "},"bbox":[78.6678,9.952,78.6678,9.952]},{"type":"Feature","geometry":{"type":"Point","coordinates":[78.657,9.9591]},"properties":{"district":"Sivagangai","taluk":"Karaikudi (Tk)","village":"Aranamanisiruvayal","name":"Aranamanisiruvayal","area_type":"Rural","shop_code":"21EP029PY","search_string":"  karaikudi (tk) sivagangai "},"bbox":[78.657,9.9591,78.657,9.9591]},{"type":"Feature","geometry":{"type":"Point","coordinates":[78.6313,9.9635]},"properties":{"district":"Sivagangai","taluk":"Karaikudi (Tk)","village":"Muthupatti","name":"Muthupatti","area_type":"Rural","shop_code":"21EP029P1","search_string":"  karaikudi (tk) sivagangai "},"bbox":[78.6313,9.9635,78.6313,9.9635]},{"type":"Feature","geometry":{"type":"Point","coordinates":[78.6165,9.9677]},"properties":{"district":"Sivagangai","taluk":"Karaikudi (Tk)","village":"Koomachipatti","name":"Koomachipatti","area_type":"Rural","shop_code":"21EP027P1","search_string":"  karaikudi (tk) sivagangai "},"bbox":[78.6165,9.9677,78.6165,9.9677]},{"type":"Feature","geometry":{"type":"Point","coordinates":[78.685,9.9703]},"properties":{"district":"Sivagangai","taluk":"Karaikudi (Tk)","village":"Alampattu","name":"Alampattu","area_type":"Rural","shop_code":"21EP030PY","search_string":"  karaikudi (tk) sivagangai "},"bbox":[78.685,9.9703,78.685,9.9703]},{"type":"Feature","geometry":{"type":"Point","coordinates":[78.7586,9.9724]},"properties":{"district":"Sivagangai","taluk":"Karaikudi (Tk)","village":"Manapatti","name":"Manapatti","area_type":"Rural","shop_code":"21EB034P1","search_string":"  karaikudi (tk) sivagangai "},"bbox":[78.7586,9.9724,78.7586,9.9724]},{"type":"Feature","geometry":{"type":"Point","coordinates":[78.7387,9.9769]},"properties":{"district":"Sivagangai","taluk":"Karaikudi (Tk)","village":"Visalayankottai","name":"Visalayankottai","area_type":"Rural","shop_code":"21EB036PY","search_string":"  karaikudi (tk) sivagangai "},"bbox":[78.7387,9.9769,78.7387,9.9769]},{"type":"Feature","geometry":{"type":"Point","coordinates":[78.687,9.9778]},"properties":{"district":"Sivagangai","taluk":"Karaikudi (Tk)","village":"Kurunthampattu","name":"Kurunthampattu","area_type":"Rural","shop_code":"21EP031PN","search_string":"  karaikudi (tk) sivagangai "},"bbox":[78.687,9.9778,78.687,9.9778]},{"type":"Feature","geometry":{"type":"Point","coordinates":[78.7223,9.9807]},"properties":{"district":"Sivagangai","taluk":"Karaikudi (Tk)","village":"Sathampathi","name":"Sathampathi","area_type":"Rural","shop_code":"21EB036P1","search_string":"  karaikudi (tk) sivagangai "},"bbox":[78.7223,9.9807,78.7223,9.9807]},{"type":"Feature","geometry":{"type":"Point","coordinates":[78.7515,9.9893]},"properties":{"district":"Sivagangai","taluk":"Karaikudi (Tk)","village":"Kallupatti","name":"Kallupatti","area_type":"Rural","shop_code":"21EB034PY","search_string":"  karaikudi (tk) sivagangai "},"bbox":[78.7515,9.9893,78.7515,9.9893]},{"type":"Feature","geometry":{"type":"Point","coordinates":[78.6654,9.99]},"properties":{"district":"Sivagangai","taluk":"Karaikudi (Tk)","village":"Kallal","name":"Indira Nagar","area_type":"Rural","shop_code":"21EB028P1","search_string":"  karaikudi (tk) sivagangai "},"bbox":[78.6654,9.99,78.6654,9.99]},{"type":"Feature","geometry":{"type":"Point","coordinates":[78.6627,9.9908]},"properties":{"district":"Sivagangai","taluk":"Karaikudi (Tk)","village":"Kallal","name":"Kallal 1","area_type":"Rural","shop_code":"21EB028PY","search_string":"  karaikudi (tk) sivagangai "},"bbox":[78.6627,9.9908,78.6627,9.9908]},{"type":"Feature","geometry":{"type":"Point","coordinates":[78.6627,9.9909]},"properties":{"district":"Sivagangai","taluk":"Karaikudi (Tk)","village":"Kallal","name":"Kallal 2","area_type":"Rural","shop_code":"21EB029PY","search_string":"  karaikudi (tk) sivagangai "},"bbox":[78.6627,9.9909,78.6627,9.9909]},{"type":"Feature","geometry":{"type":"Point","coordinates":[78.7333,9.9914]},"properties":{"district":"Sivagangai","taluk":"Karaikudi (Tk)","village":"Sr Pattinam","name":"Sr Pattinam","area_type":"Rural","shop_code":"21EB035PN","search_string":"  karaikudi (tk) sivagangai "},"bbox":[78.7333,9.9914,78.7333,9.9914]},{"type":"Feature","geometry":{"type":"Point","coordinates":[78.6315,9.9974]},"properties":{"district":"Sivagangai","taluk":"Karaikudi (Tk)","village":"Sembanoor","name":"Sembanoor","area_type":"Rural","shop_code":"21EP027PY","search_string":"  karaikudi (tk) sivagangai "},"bbox":[78.6315,9.9974,78.6315,9.9974]},{"type":"Feature","geometry":{"type":"Point","coordinates":[78.6867,9.9989]},"properties":{"district":"Sivagangai","taluk":"Karaikudi (Tk)","village":"Devapattu","name":"Devapattu","area_type":"Rural","shop_code":"21EB030PN","search_string":"  karaikudi (tk) sivagangai "},"bbox":[78.6867,9.9989,78.6867,9.9989]},{"type":"Feature","geometry":{"type":"Point","coordinates":[78.6796,10.0069]},"properties":{"district":"Sivagangai","taluk":"Karaikudi (Tk)","village":"Marungipatti","name":"Marungipatti","area_type":"Rural","shop_code":"21EB029P1","search_string":"  karaikudi (tk) sivagangai "},"bbox":[78.6796,10.0069,78.6796,10.0069]},{"type":"Feature","geometry":{"type":"Point","coordinates":[78.6602,10.0152]},"properties":{"district":"Sivagangai","taluk":"Karaikudi (Tk)","village":"Sevarakottai","name":"Sevarakottai","area_type":"Rural","shop_code":"21EB031PY","search_string":"  karaikudi (tk) sivagangai "},"bbox":[78.6602,10.0152,78.6602,10.0152]},{"type":"Feature","geometry":{"type":"Point","coordinates":[78.8789,10.0155]},"properties":{"district":"Sivagangai","taluk":"Karaikudi (Tk)","village":"Periyakotakudi","name":"Periyakotakudi","area_type":"Rural","shop_code":"21EP026PN","search_string":"  karaikudi (tk) sivagangai "},"bbox":[78.8789,10.0155,78.8789,10.0155]},{"type":"Feature","geometry":{"type":"Point","coordinates":[78.7672,10.0171]},"properties":{"district":"Sivagangai","taluk":"Karaikudi (Tk)","village":"Amaravathipudur","name":"Samathuvapuram","area_type":"Rural","shop_code":"21EP009P1","search_string":"  karaikudi (tk) sivagangai "},"bbox":[78.7672,10.0171,78.7672,10.0171]},{"type":"Feature","geometry":{"type":"Point","coordinates":[78.7713,10.0214]},"properties":{"district":"Sivagangai","taluk":"Karaikudi (Tk)","village":"Amaravathipudur","name":"Amaravathipudur","area_type":"Rural","shop_code":"21EP009PY","search_string":"  karaikudi (tk) sivagangai "},"bbox":[78.7713,10.0214,78.7713,10.0214]},{"type":"Feature","geometry":{"type":"Point","coordinates":[78.9281,10.0345]},"properties":{"district":"Sivagangai","taluk":"Karaikudi (Tk)","village":"Sengathankudi","name":"Sengathankudi","area_type":"Rural","shop_code":"21EP020PN","search_string":"  karaikudi (tk) sivagangai "},"bbox":[78.9281,10.0345,78.9281,10.0345]},{"type":"Feature","geometry":{"type":"Point","coordinates":[78.6666,10.0359]},"properties":{"district":"Sivagangai","taluk":"Karaikudi (Tk)","village":"Pattanampatti","name":"Pattanampatti","area_type":"Rural","shop_code":"21EB031P1","search_string":"  karaikudi (tk) sivagangai "},"bbox":[78.6666,10.0359,78.6666,10.0359]},{"type":"Feature","geometry":{"type":"Point","coordinates":[78.7059,10.0363]},"properties":{"district":"Sivagangai","taluk":"Karaikudi (Tk)","village":"Kuthaloor","name":"Kuthaloor","area_type":"Rural","shop_code":"21EP041PN","search_string":"  karaikudi (tk) sivagangai "},"bbox":[78.7059,10.0363,78.7059,10.0363]},{"type":"Feature","geometry":{"type":"Point","coordinates":[78.7884,10.04]},"properties":{"district":"Sivagangai","taluk":"Karaikudi (Tk)","village":"Ariyakudi","name":"Ariyakudi","area_type":"Rural","shop_code":"21EP008PY","search_string":"  karaikudi (tk) sivagangai "},"bbox":[78.7884,10.04,78.7884,10.04]},{"type":"Feature","geometry":{"type":"Point","coordinates":[78.7047,10.0403]},"properties":{"district":"Sivagangai","taluk":"Karaikudi (Tk)","village":"Poiyalur","name":"Poiyalur","area_type":"Rural","shop_code":"21EP046P1","search_string":"  karaikudi (tk) sivagangai "},"bbox":[78.7047,10.0403,78.7047,10.0403]},{"type":"Feature","geometry":{"type":"Point","coordinates":[78.6932,10.0403]},"properties":{"district":"Sivagangai","taluk":"Karaikudi (Tk)","village":"Alangudi","name":"Alangudi","area_type":"Rural","shop_code":"21EB032PN","search_string":"  karaikudi (tk) sivagangai "},"bbox":[78.6932,10.0403,78.6932,10.0403]},{"type":"Feature","geometry":{"type":"Point","coordinates":[78.7044,10.0406]},"properties":{"district":"Sivagangai","taluk":"Karaikudi (Tk)","village":"Padathanpatti","name":"Padathanpatti","area_type":"Rural","shop_code":"21EP046PY","search_string":"  karaikudi (tk) sivagangai "},"bbox":[78.7044,10.0406,78.7044,10.0406]},{"type":"Feature","geometry":{"type":"Point","coordinates":[78.7046,10.0407]},"properties":{"district":"Sivagangai","taluk":"Karaikudi (Tk)","village":"Pilar","name":"Pilar","area_type":"Rural","shop_code":"21EP045PN","search_string":"  karaikudi (tk) sivagangai "},"bbox":[78.7046,10.0407,78.7046,10.0407]},{"type":"Feature","geometry":{"type":"Point","coordinates":[78.9,10.0431]},"properties":{"district":"Sivagangai","taluk":"Karaikudi (Tk)","village":"Mitravayal","name":"Mitravayal","area_type":"Rural","shop_code":"21EP025PN","search_string":"  karaikudi (tk) sivagangai "},"bbox":[78.9,10.0431,78.9,10.0431]},{"type":"Feature","geometry":{"type":"Point","coordinates":[78.7068,10.0466]},"properties":{"district":"Sivagangai","taluk":"Karaikudi (Tk)","village":"Keeranipatti","name":"Keeranipatti","area_type":"Rural","shop_code":"21EP042PN","search_string":"  karaikudi (tk) sivagangai "},"bbox":[78.7068,10.0466,78.7068,10.0466]},{"type":"Feature","geometry":{"type":"Point","coordinates":[78.7504,10.048]},"properties":{"district":"Sivagangai","taluk":"Karaikudi (Tk)","village":"Sangarapuram","name":"Sangarapuram","area_type":"Urban","shop_code":"21EB004P1","search_string":"  karaikudi (tk) sivagangai "},"bbox":[78.7504,10.048,78.7504,10.048]},{"type":"Feature","geometry":{"type":"Point","coordinates":[78.869,10.0487]},"properties":{"district":"Sivagangai","taluk":"Karaikudi (Tk)","village":"Pirambuvayal","name":"Pirambuvayal","area_type":"Rural","shop_code":"21EP022PN","search_string":"  karaikudi (tk) sivagangai "},"bbox":[78.869,10.0487,78.869,10.0487]},{"type":"Feature","geometry":{"type":"Point","coordinates":[78.9298,10.0545]},"properties":{"district":"Sivagangai","taluk":"Karaikudi (Tk)","village":"Enchavayal","name":"Enchavayal","area_type":"Rural","shop_code":"21EP018P1","search_string":"  karaikudi (tk) sivagangai "},"bbox":[78.9298,10.0545,78.9298,10.0545]},{"type":"Feature","geometry":{"type":"Point","coordinates":[78.7663,10.0554]},"properties":{"district":"Sivagangai","taluk":"Karaikudi (Tk)","village":"Karaikudi","name":"T N C S C - 1","area_type":"Urban","shop_code":"21EA001PN","search_string":"  karaikudi (tk) sivagangai "},"bbox":[78.7663,10.0554,78.7663,10.0554]},{"type":"Feature","geometry":{"type":"Point","coordinates":[78.784,10.0555]},"properties":{"district":"Sivagangai","taluk":"Karaikudi (Tk)","village":"Ariyakudi","name":"Tholkappiyar Nagar","area_type":"Rural","shop_code":"21EP008P1","search_string":"  karaikudi (tk) sivagangai "},"bbox":[78.784,10.0555,78.784,10.0555]},{"type":"Feature","geometry":{"type":"Point","coordinates":[78.7661,10.0555]},"properties":{"district":"Sivagangai","taluk":"Karaikudi (Tk)","village":"Karaikudi","name":"T N C S C - 3","area_type":"Urban","shop_code":"21EA003PN","search_string":"  karaikudi (tk) sivagangai "},"bbox":[78.7661,10.0555,78.7661,10.0555]},{"type":"Feature","geometry":{"type":"Point","coordinates":[78.7662,10.0556]},"properties":{"district":"Sivagangai","taluk":"Karaikudi (Tk)","village":"Karaikudi","name":"T N C S C - 4","area_type":"Urban","shop_code":"21EA004PN","search_string":"  karaikudi (tk) sivagangai "},"bbox":[78.7662,10.0556,78.7662,10.0556]},{"type":"Feature","geometry":{"type":"Point","coordinates":[78.8718,10.0558]},"properties":{"district":"Sivagangai","taluk":"Karaikudi (Tk)","village":"Sirugavayal","name":"Sirugavayal","area_type":"Rural","shop_code":"21EP023PN","search_string":"  karaikudi (tk) sivagangai "},"bbox":[78.8718,10.0558,78.8718,10.0558]},{"type":"Feature","geometry":{"type":"Point","coordinates":[78.7781,10.0584]},"properties":{"district":"Sivagangai","taluk":"Karaikudi (Tk)","village":"Karaikudi","name":"Santhapetai 2","area_type":"Urban","shop_code":"21EB008PN","search_string":"  karaikudi (tk) sivagangai "},"bbox":[78.7781,10.0584,78.7781,10.0584]},{"type":"Feature","geometry":{"type":"Point","coordinates":[78.7725,10.0604]},"properties":{"district":"Sivagangai","taluk":"Karaikudi (Tk)","village":"Karaikudi","name":"Santhapettai 1","area_type":"Urban","shop_code":"21EB007PN","search_string":"  karaikudi (tk) sivagangai "},"bbox":[78.7725,10.0604,78.7725,10.0604]},{"type":"Feature","geometry":{"type":"Point","coordinates":[78.8224,10.0605]},"properties":{"district":"Sivagangai","taluk":"Karaikudi (Tk)","village":"Mathur","name":"Mathur","area_type":"Rural","shop_code":"21EP024PN","search_string":"  karaikudi (tk) sivagangai "},"bbox":[78.8224,10.0605,78.8224,10.0605]},{"type":"Feature","geometry":{"type":"Point","coordinates":[78.8004,10.0607]},"properties":{"district":"Sivagangai","taluk":"Karaikudi (Tk)","village":"Illupakkudi","name":"Illupakkudi","area_type":"Rural","shop_code":"21EP047PN","search_string":"  karaikudi (tk) sivagangai "},"bbox":[78.8004,10.0607,78.8004,10.0607]},{"type":"Feature","geometry":{"type":"Point","coordinates":[78.7698,10.0608]},"properties":{"district":"Sivagangai","taluk":"Karaikudi (Tk)","village":"Karaikudi","name":"A V P L Street","area_type":"Urban","shop_code":"21EP050PN","search_string":"  karaikudi (tk) sivagangai "},"bbox":[78.7698,10.0608,78.7698,10.0608]},{"type":"Feature","geometry":{"type":"Point","coordinates":[78.7164,10.0609]},"properties":{"district":"Sivagangai","taluk":"Karaikudi (Tk)","village":"Thalakkavoor","name":"Thalakkavoor","area_type":"Rural","shop_code":"21EP044PN","search_string":"  karaikudi (tk) sivagangai "},