{"type":"FeatureCollection","features":[{"type":"Feature","geometry":{"type":"Point","coordinates":[77.258,8.9635]},"properties":{"district":"Tenkasi","taluk":"Senkottai (Tk)","village":"Vallam","name":"Vallam","area_type":"Rural","shop_code":"27EC003PN","search_string":"  senkottai (tk) tenkasi "},"bbox":[77.258,8.9635,77.258,8.9635]},{"type":"Feature","geometry":{"type":"Point","coordinates":[77.4453,8.7749]},"properties":{"district":"Tenkasi","taluk":"Alangulam","village":"Thuppakkudi","name":"Thuppakkudi","area_type":"Rural","shop_code":"27KL022PY","search_string":"  alangulam tenkasi "},"bbox":[77.4453,8.7749,77.4453,8.7749]},{"type":"Feature","geometry":{"type":"Point","coordinates":[77.4357,8.7794]},"properties":{"district":"Tenkasi","taluk":"Alangulam","village":"A p  nadanoor","name":"Sadaiyandiyur","area_type":"Rural","shop_code":"27KL021P1","search_string":"  alangulam tenkasi "},"bbox":[77.4357,8.7794,77.4357,8.7794]},{"type":"Feature","geometry":{"type":"Point","coordinates":[77.4447,8.7849]},"properties":{"district":"Tenkasi","taluk":"Alangulam","village":"Rawoothaperi","name":"Rawoothaperi","area_type":"Rural","shop_code":"27KL022P1","search_string":"  alangulam tenkasi "},"bbox":[77.4447,8.7849,77.4447,8.7849]},{"type":"Feature","geometry":{"type":"Point","coordinates":[77.5336,8.7951]},"properties":{"district":"Tenkasi","taluk":"Alangulam","village":"Odaimarichan","name":"Odaimarichan","area_type":"Rural","shop_code":"27KP049PN","search_string":"  alangulam tenkasi "},"bbox":[77.5336,8.7951,77.5336,8.7951]},{"type":"Feature","geometry":{"type":"Point","coordinates":[77.432,8.796]},"properties":{"district":"Tenkasi","taluk":"Alangulam","village":"A p  nadanoor","name":"Chellapillaiyarkulam","area_type":"Rural","shop_code":"27KL021P2","search_string":"  alangulam tenkasi "},"bbox":[77.432,8.796,77.432,8.796]},{"type":"Feature","geometry":{"type":"Point","coordinates":[77.4229,8.8]},"properties":{"district":"Tenkasi","taluk":"Alangulam","village":"A p  nadanoor","name":"A P Nadanoor","area_type":"Rural","shop_code":"27KL021PY","search_string":"  alangulam tenkasi "},"bbox":[77.4229,8.8,77.4229,8.8]},{"type":"Feature","geometry":{"type":"Point","coordinates":[77.5429,8.8006]},"properties":{"district":"Tenkasi","taluk":"Alangulam","village":"Udaiyampuli","name":"Udaiyampuli","area_type":"Rural","shop_code":"27KP077PN","search_string":"  alangulam tenkasi "},"bbox":[77.5429,8.8006,77.5429,8.8006]},{"type":"Feature","geometry":{"type":"Point","coordinates":[77.4796,8.8075]},"properties":{"district":"Tenkasi","taluk":"Alangulam","village":"Kuthapanchan","name":"Alwanthulukkapatti","area_type":"Rural","shop_code":"27KP051P1","search_string":"  alangulam tenkasi "},"bbox":[77.4796,8.8075,77.4796,8.8075]},{"type":"Feature","geometry":{"type":"Point","coordinates":[77.4408,8.8079]},"properties":{"district":"Tenkasi","taluk":"Alangulam","village":"Madadhoor","name":"Theertharappapuram","area_type":"Rural","shop_code":"27KP074P2","search_string":"  alangulam tenkasi "},"bbox":[77.4408,8.8079,77.4408,8.8079]},{"type":"Feature","geometry":{"type":"Point","coordinates":[77.4561,8.8109]},"properties":{"district":"Tenkasi","taluk":"Alangulam","village":"Indhankattalai","name":"Nalankattalai","area_type":"Rural","shop_code":"27KP073P2","search_string":"  alangulam tenkasi "},"bbox":[77.4561,8.8109,77.4561,8.8109]},{"type":"Feature","geometry":{"type":"Point","coordinates":[77.5125,8.8156]},"properties":{"district":"Tenkasi","taluk":"Alangulam","village":"Maruthamputhur","name":"Kandapatti","area_type":"Rural","shop_code":"27KP075P1","search_string":"  alangulam tenkasi "},"bbox":[77.5125,8.8156,77.5125,8.8156]},{"type":"Feature","geometry":{"type":"Point","coordinates":[77.4736,8.8179]},"properties":{"district":"Tenkasi","taluk":"Alangulam","village":"Kuthapanchan","name":"Kuthapanchan","area_type":"Rural","shop_code":"27KP051PY","search_string":"  alangulam tenkasi "},"bbox":[77.4736,8.8179,77.4736,8.8179]},{"type":"Feature","geometry":{"type":"Point","coordinates":[77.5453,8.818]},"properties":{"district":"Tenkasi","taluk":"Alangulam","village":"Marandai","name":"Nalankurichi","area_type":"Rural","shop_code":"27KA054P1","search_string":"  alangulam tenkasi "},"bbox":[77.5453,8.818,77.5453,8.818]},{"type":"Feature","geometry":{"type":"Point","coordinates":[77.4442,8.8194]},"properties":{"district":"Tenkasi","taluk":"Alangulam","village":"Indhankattalai","name":"Sokkanathanpatti","area_type":"Rural","shop_code":"27KP073P1","search_string":"  alangulam tenkasi "},"bbox":[77.4442,8.8194,77.4442,8.8194]},{"type":"Feature","geometry":{"type":"Point","coordinates":[77.5674,8.8239]},"properties":{"district":"Tenkasi","taluk":"Alangulam","village":"Marandai","name":"Maranthai","area_type":"Rural","shop_code":"27KA054PY","search_string":"  alangulam tenkasi "},"bbox":[77.5674,8.8239,77.5674,8.8239]},{"type":"Feature","geometry":{"type":"Point","coordinates":[77.4343,8.8243]},"properties":{"district":"Tenkasi","taluk":"Alangulam","village":"Madadhoor","name":"Pandarakulam","area_type":"Rural","shop_code":"27KP074P3","search_string":"  alangulam tenkasi "},"bbox":[77.4343,8.8243,77.4343,8.8243]},{"type":"Feature","geometry":{"type":"Point","coordinates":[77.4747,8.8248]},"properties":{"district":"Tenkasi","taluk":"Alangulam","village":"Kuthapanchan","name":"Iruthayapuram","area_type":"Rural","shop_code":"27KP051P2","search_string":"  alangulam tenkasi "},"bbox":[77.4747,8.8248,77.4747,8.8248]},{"type":"Feature","geometry":{"type":"Point","coordinates":[77.5154,8.8304]},"properties":{"district":"Tenkasi","taluk":"Alangulam","village":"Maruthamputhur","name":"Maruthamputhur 1","area_type":"Rural","shop_code":"27KP075PY","search_string":"  alangulam tenkasi "},"bbox":[77.5154,8.8304,77.5154,8.8304]},{"type":"Feature","geometry":{"type":"Point","coordinates":[77.5043,8.8307]},"properties":{"district":"Tenkasi","taluk":"Alangulam","village":"Pudupatti","name":"Kasinathapuram","area_type":"Rural","shop_code":"27KP046P1","search_string":"  alangulam tenkasi "},"bbox":[77.5043,8.8307,77.5043,8.8307]},{"type":"Feature","geometry":{"type":"Point","coordinates":[77.4801,8.8331]},"properties":{"district":"Tenkasi","taluk":"Alangulam","village":"Pudupatti","name":"Ram Nagar","area_type":"Rural","shop_code":"27KP046P2","search_string":"  alangulam tenkasi "},"bbox":[77.4801,8.8331,77.4801,8.8331]},{"type":"Feature","geometry":{"type":"Point","coordinates":[77.4221,8.8341]},"properties":{"district":"Tenkasi","taluk":"Alangulam","village":"Madadhoor","name":"Valliyammalpuram","area_type":"Rural","shop_code":"27KP074PY","search_string":"  alangulam tenkasi "},"bbox":[77.4221,8.8341,77.4221,8.8341]},{"type":"Feature","geometry":{"type":"Point","coordinates":[77.5158,8.8357]},"properties":{"district":"Tenkasi","taluk":"Alangulam","village":"Maruthamputhur","name":"Maruthamputhur 2","area_type":"Rural","shop_code":"27KP048PN","search_string":"  alangulam tenkasi "},"bbox":[77.5158,8.8357,77.5158,8.8357]},{"type":"Feature","geometry":{"type":"Point","coordinates":[77.5046,8.836]},"properties":{"district":"Tenkasi","taluk":"Alangulam","village":"Pudupatti","name":"Pudupatti","area_type":"Rural","shop_code":"27KP046PY","search_string":"  alangulam tenkasi "},"bbox":[77.5046,8.836,77.5046,8.836]},{"type":"Feature","geometry":{"type":"Point","coordinates":[77.4262,8.841]},"properties":{"district":"Tenkasi","taluk":"Alangulam","village":"Madadhoor","name":"Vadamalaipatti","area_type":"Rural","shop_code":"27KP074P1","search_string":"  alangulam tenkasi "},"bbox":[77.4262,8.841,77.4262,8.841]},{"type":"Feature","geometry":{"type":"Point","coordinates":[77.5428,8.8431]},"properties":{"district":"Tenkasi","taluk":"Alangulam","village":"Sivalarkulam","name":"Karumpuliyuthu","area_type":"Rural","shop_code":"27KP024P1","search_string":"  alangulam tenkasi "},"bbox":[77.5428,8.8431,77.5428,8.8431]},{"type":"Feature","geometry":{"type":"Point","coordinates":[77.4492,8.8456]},"properties":{"district":"Tenkasi","taluk":"Alangulam","village":"Indhankattalai","name":"Inthankattalai","area_type":"Rural","shop_code":"27KP073PY","search_string":"  alangulam tenkasi "},"bbox":[77.4492,8.8456,77.4492,8.8456]},{"type":"Feature","geometry":{"type":"Point","coordinates":[77.4831,8.8526]},"properties":{"district":"Tenkasi","taluk":"Alangulam","village":"Kuthapanchan","name":"Kalathimadam","area_type":"Rural","shop_code":"27KP052PY","search_string":"  alangulam tenkasi "},"bbox":[77.4831,8.8526,77.4831,8.8526]},{"type":"Feature","geometry":{"type":"Point","coordinates":[77.4811,8.8526]},"properties":{"district":"Tenkasi","taluk":"Alangulam","village":"Kuthapanchan","name":"Melakuthapanchan","area_type":"Rural","shop_code":"27KP052P1","search_string":"  alangulam tenkasi "},"bbox":[77.4811,8.8526,77.4811,8.8526]},{"type":"Feature","geometry":{"type":"Point","coordinates":[77.4074,8.8539]},"properties":{"district":"Tenkasi","taluk":"Alangulam","village":"venkattampatti","name":"Venkattampatti","area_type":"Rural","shop_code":"27KA013PY","search_string":"  alangulam tenkasi "},"bbox":[77.4074,8.8539,77.4074,8.8539]},{"type":"Feature","geometry":{"type":"Point","coordinates":[77.4233,8.8547]},"properties":{"district":"Tenkasi","taluk":"Alangulam","village":"venkattampatti","name":"Koviluthu","area_type":"Rural","shop_code":"27KP072PY","search_string":"  alangulam tenkasi "},"bbox":[77.4233,8.8547,77.4233,8.8547]},{"type":"Feature","geometry":{"type":"Point","coordinates":[77.4688,8.8558]},"properties":{"district":"Tenkasi","taluk":"Alangulam","village":"Alangulam","name":"Karumbanoor","area_type":"Rural","shop_code":"27KA059P1","search_string":"  alangulam tenkasi "},"bbox":[77.4688,8.8558,77.4688,8.8558]},{"type":"Feature","geometry":{"type":"Point","coordinates":[77.4269,8.8601]},"properties":{"district":"Tenkasi","taluk":"Alangulam","village":"Poolangulam","name":"South Poolangulam","area_type":"Rural","shop_code":"27KA044P1","search_string":"  alangulam tenkasi "},"bbox":[77.4269,8.8601,77.4269,8.8601]},{"type":"Feature","geometry":{"type":"Point","coordinates":[77.4586,8.8612]},"properties":{"district":"Tenkasi","taluk":"Alangulam","village":"Andipatti","name":"Andipatti","area_type":"Rural","shop_code":"27KA059PY","search_string":"  alangulam tenkasi "},"bbox":[77.4586,8.8612,77.4586,8.8612]},{"type":"Feature","geometry":{"type":"Point","coordinates":[77.3991,8.8613]},"properties":{"district":"Tenkasi","taluk":"Alangulam","village":"venkattampatti","name":"Mayilappapuram","area_type":"Rural","shop_code":"27KA013P1","search_string":"  alangulam tenkasi "},"bbox":[77.3991,8.8613,77.3991,8.8613]},{"type":"Feature","geometry":{"type":"Point","coordinates":[77.5872,8.8617]},"properties":{"district":"Tenkasi","taluk":"Alangulam","village":"Marandai","name":"Kallathikulam","area_type":"Rural","shop_code":"27KA054P2","search_string":"  alangulam tenkasi "},"bbox":[77.5872,8.8617,77.5872,8.8617]},{"type":"Feature","geometry":{"type":"Point","coordinates":[77.4832,8.8639]},"properties":{"district":"Tenkasi","taluk":"Alangulam","village":"Kuthapanchan","name":"Parumbu","area_type":"Rural","shop_code":"27KP052P2","search_string":"  alangulam tenkasi "},"bbox":[77.4832,8.8639,77.4832,8.8639]},{"type":"Feature","geometry":{"type":"Point","coordinates":[77.4997,8.8643]},"properties":{"district":"Tenkasi","taluk":"Alangulam","village":"Alangulam","name":"Alangulam 5","area_type":"Urban","shop_code":"27KA075PN","search_string":"  alangulam tenkasi "},"bbox":[77.4997,8.8643,77.4997,8.8643]},{"type":"Feature","geometry":{"type":"Point","coordinates":[77.4265,8.8643]},"properties":{"district":"Tenkasi","taluk":"Alangulam","village":"Poolangulam","name":"Adaikkalapattanam","area_type":"Rural","shop_code":"27KA015PN","search_string":"  alangulam tenkasi "},"bbox":[77.4265,8.8643,77.4265,8.8643]},{"type":"Feature","geometry":{"type":"Point","coordinates":[77.495,8.8645]},"properties":{"district":"Tenkasi","taluk":"Alangulam","village":"Alangulam","name":"Alangulam 2","area_type":"Urban","shop_code":"27KA024PN","search_string":"  alangulam tenkasi "},"bbox":[77.495,8.8645,77.495,8.8645]},{"type":"Feature","geometry":{"type":"Point","coordinates":[77.5158,8.8655]},"properties":{"district":"Tenkasi","taluk":"Alangulam","village":"nallur","name":"Indira Nagar","area_type":"Rural","shop_code":"27KP025P1","search_string":"  alangulam tenkasi "},"bbox":[77.5158,8.8655,77.5158,8.8655]},{"type":"Feature","geometry":{"type":"Point","coordinates":[77.4281,8.8655]},"properties":{"district":"Tenkasi","taluk":"Alangulam","village":"Poolangulam","name":"Poolangulam","area_type":"Rural","shop_code":"27KA044PY","search_string":"  alangulam tenkasi "},"bbox":[77.4281,8.8655,77.4281,8.8655]},{"type":"Feature","geometry":{"type":"Point","coordinates":[77.5008,8.8666]},"properties":{"district":"Tenkasi","taluk":"Alangulam","village":"Alangulam","name":"Alangulam 3","area_type":"Urban","shop_code":"27KP004PN","search_string":"  alangulam tenkasi "},"bbox":[77.5008,8.8666,77.5008,8.8666]},{"type":"Feature","geometry":{"type":"Point","coordinates":[77.5036,8.8671]},"properties":{"district":"Tenkasi","taluk":"Alangulam","village":"Alangulam","name":"Alangulam 1","area_type":"Urban","shop_code":"27KA025PY","search_string":"  alangulam tenkasi "},"bbox":[77.5036,8.8671,77.5036,8.8671]},{"type":"Feature","geometry":{"type":"Point","coordinates":[77.4914,8.8674]},"properties":{"district":"Tenkasi","taluk":"Alangulam","village":"Alangulam","name":"Alangulam 4","area_type":"Urban","shop_code":"27KP076PN","search_string":"  alangulam tenkasi "},"bbox":[77.4914,8.8674,77.4914,8.8674]},{"type":"Feature","geometry":{"type":"Point","coordinates":[77.4908,8.8681]},"properties":{"district":"Tenkasi","taluk":"Alangulam","village":"venkattampatti","name":"Lakshmiyur","area_type":"Rural","shop_code":"27KP072P1","search_string":"  alangulam tenkasi "},"bbox":[77.4908,8.8681,77.4908,8.8681]},{"type":"Feature","geometry":{"type":"Point","coordinates":[77.4069,8.8697]},"properties":{"district":"Tenkasi","taluk":"Alangulam","village":"Poolangulam","name":"Karisalur","area_type":"Rural","shop_code":"27KP078P1","search_string":"  alangulam tenkasi "},"bbox":[77.4069,8.8697,77.4069,8.8697]},{"type":"Feature","geometry":{"type":"Point","coordinates":[77.5268,8.8698]},"properties":{"district":"Tenkasi","taluk":"Alangulam","village":"Sivalarkulam","name":"Sivalarkulam","area_type":"Rural","shop_code":"27KP024PY","search_string":"  alangulam tenkasi "},"bbox":[77.5268,8.8698,77.5268,8.8698]},{"type":"Feature","geometry":{"type":"Point","coordinates":[77.5174,8.87]},"properties":{"district":"Tenkasi","taluk":"Alangulam","village":"nallur","name":"Aladipatti 1","area_type":"Rural","shop_code":"27KP025PY","search_string":"  alangulam tenkasi "},"bbox":[77.5174,8.87,77.5174,8.87]},{"type":"Feature","geometry":{"type":"Point","coordinates":[77.5182,8.8703]},"properties":{"district":"Tenkasi","taluk":"Alangulam","village":"nallur","name":"Aladipatti 3","area_type":"Rural","shop_code":"27KP058PN","search_string":"  alangulam tenkasi "},"bbox":[77.5182,8.8703,77.5182,8.8703]},{"type":"Feature","geometry":{"type":"Point","coordinates":[77.5174,8.873]},"properties":{"district":"Tenkasi","taluk":"Alangulam","village":"nallur","name":"Aladipatti 2","area_type":"Rural","shop_code":"27KP026PN","search_string":"  alangulam tenkasi "},"bbox":[77.5174,8.873,77.5174,8.873]},{"type":"Feature","geometry":{"type":"Point","coordinates":[77.4136,8.8732]},"properties":{"district":"Tenkasi","taluk":"Alangulam","village":"pethanadarpatti","name":"Chellathayarpuram","area_type":"Rural","shop_code":"27KP078PY","search_string":"  alangulam tenkasi "},"bbox":[77.4136,8.8732,77.4136,8.8732]},{"type":"Feature","geometry":{"type":"Point","coordinates":[77.4548,8.8802]},"properties":{"district":"Tenkasi","taluk":"Alangulam","village":"Kaluneerkulam","name":"Athiyuthu","area_type":"Rural","shop_code":"27KA060P2","search_string":"  alangulam tenkasi "},"bbox":[77.4548,8.8802,77.4548,8.8802]},{"type":"Feature","geometry":{"type":"Point","coordinates":[77.5042,8.8835]},"properties":{"district":"Tenkasi","taluk":"Alangulam","village":"Alangulam","name":"Guruvankottai street","area_type":"Urban","shop_code":"27KA025P1","search_string":"  alangulam tenkasi "},"bbox":[77.5042,8.8835,77.5042,8.8835]},{"type":"Feature","geometry":{"type":"Point","coordinates":[77.5051,8.8869]},"properties":{"district":"Tenkasi","taluk":"Alangulam","village":"Mayamankuruchi","name":"Kuruvankottai","area_type":"Rural","shop_code":"27KA053PN","search_string":"  alangulam tenkasi "},"bbox":[77.5051,8.8869,77.5051,8.8869]},{"type":"Feature","geometry":{"type":"Point","coordinates":[77.411,8.8885]},"properties":{"district":"Tenkasi","taluk":"Alangulam","village":"pethanadarpatti","name":"Pethanadarpatti","area_type":"Rural","shop_code":"27KA043PN","search_string":"  alangulam tenkasi "},"bbox":[77.411,8.8885,77.411,8.8885]},{"type":"Feature","geometry":{"type":"Point","coordinates":[77.5325,8.891]},"properties":{"district":"Tenkasi","taluk":"Alangulam","village":"Ayyanarkulam","name":"Ayyanarkulam","area_type":"Rural","shop_code":"27KP057PN","search_string":"  alangulam tenkasi "},"bbox":[77.5325,8.891,77.5325,8.891]},{"type":"Feature","geometry":{"type":"Point","coordinates":[77.42,8.8922]},"properties":{"district":"Tenkasi","taluk":"Alangulam","village":"Poolangulam","name":"Navaneethakrishnapuram","area_type":"Rural","shop_code":"27KP022PN","search_string":"  alangulam tenkasi "},"bbox":[77.42,8.8922,77.42,8.8922]},{"type":"Feature","geometry":{"type":"Point","coordinates":[77.4494,8.8924]},"properties":{"district":"Tenkasi","taluk":"Alangulam","village":"Kaluneerkulam","name":"Muthukrishnaperi","area_type":"Rural","shop_code":"27KA060PY","search_string":"  alangulam tenkasi "},"bbox":[77.4494,8.8924,77.4494,8.8924]},{"type":"Feature","geometry":{"type":"Point","coordinates":[77.4,8.8947]},"properties":{"district":"Tenkasi","taluk":"Alangulam","village":"pethanadarpatti","name":"Sivagamipuram","area_type":"Urban","shop_code":"27KA078PN","search_string":"  alangulam tenkasi "},"bbox":[77.4,8.8947,77.4,8.8947]},{"type":"Feature","geometry":{"type":"Point","coordinates":[77.516,8.8951]},"properties":{"district":"Tenkasi","taluk":"Alangulam","village":"Mayamankuruchi","name":"Keezhapattamudaiyarpuram","area_type":"Rural","shop_code":"27KA052P1","search_string":"  alangulam tenkasi "},"bbox":[77.516,8.8951,77.516,8.8951]},{"type":"Feature","geometry":{"type":"Point","coordinates":[77.5096,8.9003]},"properties":{"district":"Tenkasi","taluk":"Alangulam","village":"Mayamankuruchi","name":"Kurippankulam","area_type":"Rural","shop_code":"27KA052PY","search_string":"  alangulam tenkasi "},"bbox":[77.5096,8.9003,77.5096,8.9003]},{"type":"Feature","geometry":{"type":"Point","coordinates":[77.408,8.9028]},"properties":{"district":"Tenkasi","taluk":"Alangulam","village":"pethanadarpatti","name":"Arunaperi","area_type":"Rural","shop_code":"27KA034P1","search_string":"  alangulam tenkasi "},"bbox":[77.408,8.9028,77.408,8.9028]},{"type":"Feature","geometry":{"type":"Point","coordinates":[77.4634,8.903]},"properties":{"district":"Tenkasi","taluk":"Alangulam","village":"Kaluneerkulam","name":"Kalluthu","area_type":"Rural","shop_code":"27KA060P1","search_string":"  alangulam tenkasi "},"bbox":[77.4634,8.903,77.4634,8.903]},{"type":"Feature","geometry":{"type":"Point","coordinates":[77.5626,8.9031]},"properties":{"district":"Tenkasi","taluk":"Alangulam","village":"Subbaiyapuram","name":"Subbaiyapuram","area_type":"Rural","shop_code":"27KP036PY","search_string":"  alangulam tenkasi "},"bbox":[77.5626,8.9031,77.5626,8.9031]},{"type":"Feature","geometry":{"type":"Point","coordinates":[77.52,8.9056]},"properties":{"district":"Tenkasi","taluk":"Alangulam","village":"Naranapuram","name":"A Maruthappapuram","area_type":"Rural","shop_code":"27KP045P1","search_string":"  alangulam tenkasi "},"bbox":[77.52,8.9056,77.52,8.9056]},{"type":"Feature","geometry":{"type":"Point","coordinates":[77.4941,8.9058]},"properties":{"district":"Tenkasi","taluk":"Alangulam","village":"Mayamankuruchi","name":"Mayamankurichi","area_type":"Rural","shop_code":"27KA058PN","search_string":"  alangulam tenkasi "},"bbox":[77.4941,8.9058,77.4941,8.9058]},{"type":"Feature","geometry":{"type":"Point","coordinates":[77.5535,8.9063]},"properties":{"district":"Tenkasi","taluk":"Alangulam","village":"Subbaiyapuram","name":"Arunachalapuram","area_type":"Rural","shop_code":"27KP036P1","search_string":"  alangulam tenkasi "},"bbox":[77.5535,8.9063,77.5535,8.9063]},{"type":"Feature","geometry":{"type":"Point","coordinates":[77.4143,8.9075]},"properties":{"district":"Tenkasi","taluk":"Alangulam","village":"pethanadarpatti","name":"Nagalgulam","area_type":"Rural","shop_code":"27KA034PY","search_string":"  alangulam tenkasi "},"bbox":[77.4143,8.9075,77.4143,8.9075]},{"type":"Feature","geometry":{"type":"Point","coordinates":[77.4305,8.9088]},"properties":{"district":"Tenkasi","taluk":"Alangulam","village":"Poolangulam","name":"Melapattamudaiyarpuram","area_type":"Urban","shop_code":"27KA077PN","search_string":"  alangulam tenkasi "},"bbox":[77.4305,8.9088,77.4305,8.9088]},{"type":"Feature","geometry":{"type":"Point","coordinates":[77.5791,8.9098]},"properties":{"district":"Tenkasi","taluk":"Alangulam","village":"Kaduvetti","name":"Kaduvetti","area_type":"Rural","shop_code":"27KP039PN","search_string":"  alangulam tenkasi "},"bbox":[77.5791,8.9098,77.5791,8.9098]},{"type":"Feature","geometry":{"type":"Point","coordinates":[77.4754,8.9099]},"properties":{"district":"Tenkasi","taluk":"Alangulam","village":"Thuthikulam","name":"Thuthikulam","area_type":"Rural","shop_code":"27KP047PN","search_string":"  alangulam tenkasi "},"bbox":[77.4754,8.9099,77.4754,8.9099]},{"type":"Feature","geometry":{"type":"Point","coordinates":[77.4965,8.9106]},"properties":{"district":"Tenkasi","taluk":"Alangulam","village":"Naranapuram","name":"Naranapuram","area_type":"Rural","shop_code":"27KP045PY","search_string":"  alangulam tenkasi "},"bbox":[77.4965,8.9106,77.4965,8.9106]},{"type":"Feature","geometry":{"type":"Point","coordinates":[77.4466,8.9112]},"properties":{"district":"Tenkasi","taluk":"Alangulam","village":"Kaluneerkulam","name":"Kaluneerkulam","area_type":"Rural","shop_code":"27KP050PN","search_string":"  alangulam tenkasi "},"bbox":[77.4466,8.9112,77.4466,8.9112]},{"type":"Feature","geometry":{"type":"Point","coordinates":[77.5311,8.9162]},"properties":{"district":"Tenkasi","taluk":"Alangulam","village":"Nettor","name":"Nettur","area_type":"Rural","shop_code":"27KA064PN","search_string":"  alangulam tenkasi "},"bbox":[77.5311,8.9162,77.5311,8.9162]},{"type":"Feature","geometry":{"type":"Point","coordinates":[77.397,8.9194]},"properties":{"district":"Tenkasi","taluk":"Alangulam","village":"Kellapavoor","name":"Keelappavoor 2","area_type":"Urban","shop_code":"27KA017PN","search_string":"  alangulam tenkasi "},"bbox":[77.397,8.9194,77.397,8.9194]},{"type":"Feature","geometry":{"type":"Point","coordinates":[77.5104,8.9212]},"properties":{"district":"Tenkasi","taluk":"Alangulam","village":"Kidarakulam","name":"Kidarakulam","area_type":"Rural","shop_code":"27KP043PN","search_string":"  alangulam tenkasi "},"bbox":[77.5104,8.9212,77.5104,8.9212]},{"type":"Feature","geometry":{"type":"Point","coordinates":[77.3977,8.9216]},"properties":{"district":"Tenkasi","taluk":"Alangulam","village":"Kellapavoor","name":"Keelappavoor 4 (Woman)","area_type":"Urban","shop_code":"27KW001PN","search_string":"  alangulam tenkasi "},"bbox":[77.3977,8.9216,77.3977,8.9216]},{"type":"Feature","geometry":{"type":"Point","coordinates":[77.5503,8.9232]},"properties":{"district":"Tenkasi","taluk":"Alangulam","village":"kadanganeri","name":"Kadanganeri","area_type":"Rural","shop_code":"27KP037PN","search_string":"  alangulam tenkasi "},"bbox":[77.5503,8.9232,77.5503,8.9232]},{"type":"Feature","geometry":{"type":"Point","coordinates":[77.3977,8.9235]},"properties":{"district":"Tenkasi","taluk":"Alangulam","village":"Kellapavoor","name":"Keelappavoor 3","area_type":"Urban","shop_code":"27KP003PN","search_string":"  alangulam tenkasi "},"bbox":[77.3977,8.9235,77.3977,8.9235]},{"type":"Feature","geometry":{"type":"Point","coordinates":[77.3976,8.9254]},"properties":{"district":"Tenkasi","taluk":"Alangulam","village":"Kellapavoor","name":"Keelappavoor 1","area_type":"Urban","shop_code":"27KA016PN","search_string":"  alangulam tenkasi "},"bbox":[77.3976,8.9254,77.3976,8.9254]},{"type":"Feature","geometry":{"type":"Point","coordinates":[77.3967,8.9264]},"properties":{"district":"Tenkasi","taluk":"Alangulam","village":"Kellapavoor","name":"Keelappavoor 5","area_type":"Urban","shop_code":"27KA076PN","search_string":"  alangulam tenkasi "},"bbox":[77.3967,8.9264,77.3967,8.9264]},{"type":"Feature","geometry":{"type":"Point","coordinates":[77.5696,8.9287]},"properties":{"district":"Tenkasi","taluk":"Alangulam","village":"kadanganeri","name":"Reddiyarpatti","area_type":"Rural","shop_code":"27KP038PN","search_string":"  alangulam tenkasi "},"bbox":[77.5696,8.9287,77.5696,8.9287]},{"type":"Feature","geometry":{"type":"Point","coordinates":[77.566,8.9303]},"properties":{"district":"Tenkasi","taluk":"Alangulam","village":"kadanganeri","name":"Reddiyarpatti (Woman)","area_type":"Urban","shop_code":"27KW002PN","search_string":"  alangulam tenkasi "},"bbox":[77.566,8.9303,77.566,8.9303]},{"type":"Feature","geometry":{"type":"Point","coordinates":[77.5668,8.9405]},"properties":{"district":"Tenkasi","taluk":"Alangulam","village":"Kavalakuruchi","name":"Vennilingapuram","area_type":"Rural","shop_code":"27KA055PY","search_string":"  alangulam tenkasi "},"bbox":[77.5668,8.9405,77.5668,8.9405]},{"type":"Feature","geometry":{"type":"Point","coordinates":[77.5514,8.9422]},"properties":{"district":"Tenkasi","taluk":"Alangulam","village":"Kavalakuruchi","name":"Kavalakurichi","area_type":"Rural","shop_code":"27KA055P1","search_string":"  alangulam tenkasi "},"bbox":[77.5514,8.9422,77.5514,8.9422]},{"type":"Feature","geometry":{"type":"Point","coordinates":[77.3207,8.9447]},"properties":{"district":"Tenkasi","taluk":"Kadayanallur","village":"Aykudi","name":"Ananthapuram","area_type":"Urban","shop_code":"27LC004P1","search_string":"  kadayanallur tenkasi "},"bbox":[77.3207,8.9447,77.3207,8.9447]},{"type":"Feature","geometry":{"type":"Point","coordinates":[77.3877,8.9999]},"properties":{"district":"Tenkasi","taluk":"Kadayanallur","village":"Sambavar vadakarai","name":"Sambavar Vadakarai 2","area_type":"Urban","shop_code":"27LP019PN","search_string":"  kadayanallur tenkasi "},"bbox":[77.3877,8.9999,77.3877,8.9999]},{"type":"Feature","geometry":{"type":"Point","coordinates":[77.3583,9.0003]},"properties":{"district":"Tenkasi","taluk":"Kadayanallur","village":"Aykudi","name":"Kampli W S G Shop","area_type":"Urban","shop_code":"27LW002PN","search_string":"  kadayanallur tenkasi "},"bbox":[77.3583,9.0003,77.3583,9.0003]},{"type":"Feature","geometry":{"type":"Point","coordinates":[77.3915,9.0008]},"properties":{"district":"Tenkasi","taluk":"Kadayanallur","village":"Sambavar vadakarai","name":"Sambavar Vadakarai 1","area_type":"Urban","shop_code":"27LP018PN","search_string":"  kadayanallur tenkasi "},"bbox":[77.3915,9.0008,77.3915,9.0008]},{"type":"Feature","geometry":{"type":"Point","coordinates":[77.3327,9.0011]},"properties":{"district":"Tenkasi","taluk":"Kadayanallur","village":"Aykudi","name":"Agarakattu","area_type":"Urban","shop_code":"27LC004PY","search_string":"  kadayanallur tenkasi "},"bbox":[77.3327,9.0011,77.3327,9.0011]},{"type":"Feature","geometry":{"type":"Point","coordinates":[77.3414,9.0016]},"properties":{"district":"Tenkasi","taluk":"Kadayanallur","village":"Aykudi","name":"Ayikudi -2","area_type":"Urban","shop_code":"27LC003PN","search_string":"  kadayanallur tenkasi "},"bbox":[77.3414,9.0016,77.3414,9.0016]},{"type":"Feature","geometry":{"type":"Point","coordinates":[77.394,9.0034]},"properties":{"district":"Tenkasi","taluk":"Kadayanallur","village":"Sambavar vadakarai","name":"Sampavar Vadakarai","area_type":"Urban","shop_code":"27LA015PN","search_string":"  kadayanallur tenkasi "},"bbox":[77.394,9.0034,77.394,9.0034]},{"type":"Feature","geometry":{"type":"Point","coordinates":[77.3468,9.0041]},"properties":{"district":"Tenkasi","taluk":"Kadayanallur","village":"Aykudi","name":"Ayikudi -1","area_type":"Urban","shop_code":"27LC002PN","search_string":"  kadayanallur tenkasi "},"bbox":[77.3468,9.0041,77.3468,9.0041]},{"type":"Feature","geometry":{"type":"Point","coordinates":[77.3963,9.0102]},"properties":{"district":"Tenkasi","taluk":"Kadayanallur","village":"Sambavar vadakarai","name":"Sambavar Vadakarai 3","area_type":"Urban","shop_code":"27LP020PN","search_string":"  kadayanallur tenkasi "},"bbox":[77.3963,9.0102,77.3963,9.0102]},{"type":"Feature","geometry":{"type":"Point","coordinates":[77.3118,9.0113]},"properties":{"district":"Tenkasi","taluk":"Kadayanallur","village":"Kodikurichi","name":"Sivaramapettai","area_type":"Rural","shop_code":"27LA010P1","search_string":"  kadayanallur tenkasi "},"bbox":[77.3118,9.0113,77.3118,9.0113]},{"type":"Feature","geometry":{"type":"Point","coordinates":[77.3059,9.0131]},"properties":{"district":"Tenkasi","taluk":"Kadayanallur","village":"Kodikurichi","name":"Kodikurichi","area_type":"Rural","shop_code":"27LA010PY","search_string":"  kadayanallur tenkasi "},"bbox":[77.3059,9.0131,77.3059,9.0131]},{"type":"Feature","geometry":{"type":"Point","coordinates":[77.3389,9.0181]},"properties":{"district":"Tenkasi","taluk":"Kadayanallur","village":"Kilankadu","name":"Kilankadu","area_type":"Rural","shop_code":"27LA016PY","search_string":"  kadayanallur tenkasi "},"bbox":[77.3389,9.0181,77.3389,9.0181]},{"type":"Feature","geometry":{"type":"Point","coordinates":[77.36,9.0234]},"properties":{"district":"Tenkasi","taluk":"Kadayanallur","village":"Urmelazhagian","name":"Urmelazkiyan","area_type":"Rural","shop_code":"27LP015PN","search_string":"  kadayanallur tenkasi "},"bbox":[77.36,9.0234,77.36,9.0234]},{"type":"Feature","geometry":{"type":"Point","coordinates":[77.4344,9.0259]},"properties":{"district":"Tenkasi","taluk":"Kadayanallur","village":"Subaiyapuram","name":"Kadaiyalurutti","area_type":"Rural","shop_code":"27LP007PN","search_string":"  kadayanallur tenkasi "},"bbox":[77.4344,9.0259,77.4344,9.0259]},{"type":"Feature","geometry":{"type":"Point","coordinates":[77.3307,9.0265]},"properties":{"district":"Tenkasi","taluk":"Kadayanallur","village":"Nainaragaram","name":"Nainagaram","area_type":"Rural","shop_code":"27LC001PY","search_string":"  kadayanallur tenkasi "},"bbox":[77.3307,9.0265,77.3307,9.0265]},{"type":"Feature","geometry":{"type":"Point","coordinates":[77.3337,9.0282]},"properties":{"district":"Tenkasi","taluk":"Kadayanallur","village":"Kilankadu","name":"Kilankadu","area_type":"Rural","shop_code":"27LA016P1","search_string":"  kadayanallur tenkasi "},"bbox":[77.3337,9.0282,77.3337,9.0282]},{"type":"Feature","geometry":{"type":"Point","coordinates":[77.3403,9.0297]},"properties":{"district":"Tenkasi","taluk":"Kadayanallur","village":"Nainaragaram","name":"Sangupuram","area_type":"Rural","shop_code":"27LC001P1","search_string":"  kadayanallur tenkasi "},"bbox":[77.3403,9.0297,77.3403,9.0297]},{"type":"Feature","geometry":{"type":"Point","coordinates":[77.3784,9.0301]},"properties":{"district":"Tenkasi","taluk":"Kadayanallur","village":"Urmelazhagian","name":"Velayuthapuram","area_type":"Rural","shop_code":"27LP016PN","search_string":"  kadayanallur tenkasi "},"bbox":[77.3784,9.0301,77.3784,9.0301]},{"type":"Feature","geometry":{"type":"Point","coordinates":[77.3323,9.0303]},"properties":{"district":"Tenkasi","taluk":"Kadayanallur","village":"Idaikal","name":"Idaykal","area_type":"Rural","shop_code":"27LP017PN","search_string":"  kadayanallur tenkasi "},"bbox":[77.3323,9.0303,77.3323,9.0303]},{"type":"Feature","geometry":{"type":"Point","coordinates":[77.3879,9.0316]},"properties":{"district":"Tenkasi","taluk":"Kadayanallur","village":"Poigai","name":"Poigai","area_type":"Rural","shop_code":"27LA008PY","search_string":"  kadayanallur tenkasi "},"bbox":[77.3879,9.0316,77.3879,9.0316]},{"type":"Feature","geometry":{"type":"Point","coordinates":[77.4146,9.0322]},"properties":{"district":"Tenkasi","taluk":"Kadayanallur","village":"Poigai","name":"Chinnathambinadanoor","area_type":"Rural","shop_code":"27LA008P2","search_string":"  kadayanallur tenkasi "},"bbox":[77.4146,9.0322,77.4146,9.0322]},{"type":"Feature","geometry":{"type":"Point","coordinates":[77.3996,9.0335]},"properties":{"district":"Tenkasi","taluk":"Kadayanallur","village":"Poigai","name":"Kovilandanoor","area_type":"Rural","shop_code":"27LA008P1","search_string":"  kadayanallur tenkasi "},"bbox":[77.3996,9.0335,77.3996,9.0335]},{"type":"Feature","geometry":{"type":"Point","coordinates":[77.3397,9.0376]},"properties":{"district":"Tenkasi","taluk":"Kadayanallur","village":"Nainaragaram","name":"Duraisamiyapuram Nainagaram","area_type":"Rural","shop_code":"27LP022PN","search_string":"  kadayanallur tenkasi "},"bbox":[77.3397,9.0376,77.3397,9.0376]},{"type":"Feature","geometry":{"type":"Point","coordinates":[77.2995,9.0384]},"properties":{"district":"Tenkasi","taluk":"Kadayanallur","village":"Achanpudur","name":"Pallivasal strreet Achanpudur","area_type":"Urban","shop_code":"27LA019PY","search_string":"  kadayanallur tenkasi "},"bbox":[77.2995,9.0384,77.2995,9.0384]},{"type":"Feature","geometry":{"type":"Point","coordinates":[77.4065,9.04]},"properties":{"district":"Tenkasi","taluk":"Kadayanallur","village":"Poigai","name":"Kallampuli W S G Shop","area_type":"Rural","shop_code":"27LW001PN","search_string":"  kadayanallur tenkasi "},"bbox":[77.4065,9.04,77.4065,9.04]},{"type":"Feature","geometry":{"type":"Point","coordinates":[77.2962,9.0433]},"properties":{"district":"Tenkasi","taluk":"Kadayanallur","village":"Achanpudur","name":"Achanputhur","area_type":"Urban","shop_code":"27LP026PY","search_string":"  kadayanallur tenkasi "},"bbox":[77.2962,9.0433,77.2962,9.0433]},{"type":"Feature","geometry":{"type":"Point","coordinates":[77.2957,9.0443]},"properties":{"district":"Tenkasi","taluk":"Kadayanallur","village":"Achanpudur","name":"Atchanpudur","area_type":"Urban","shop_code":"27LA019P1","search_string":"  kadayanallur tenkasi "},"bbox":[77.2957,9.0443,77.2957,9.0443]},{"type":"Feature","geometry":{"type":"Point","coordinates":[77.3523,9.045]},"properties":{"district":"Tenkasi","taluk":"Kadayanallur","village":"Kambaneri puthukudi","name":"Achampatti","area_type":"Rural","shop_code":"27LL005P1","search_string":"  kadayanallur tenkasi "},"bbox":[77.3523,9.045,77.3523,9.045]},{"type":"Feature","geometry":{"type":"Point","coordinates":[77.2926,9.0457]},"properties":{"district":"Tenkasi","taluk":"Kadayanallur","village":"Achanpudur","name":"Achanputhur","area_type":"Urban","shop_code":"27LP026P1","search_string":"  kadayanallur tenkasi "},"bbox":[77.2926,9.0457,77.2926,9.0457]},{"type":"Feature","geometry":{"type":"Point","coordinates":[77.4313,9.0463]},"properties":{"district":"Tenkasi","taluk":"Kadayanallur","village":"Subaiyapuram","name":"Velappnadanur","area_type":"Rural","shop_code":"27LP009PN","search_string":"  kadayanallur tenkasi "},"bbox":[77.4313,9.0463,77.4313,9.0463]},{"type":"Feature","geometry":{"type":"Point","coordinates":[77.3474,9.0549]},"properties":{"district":"Tenkasi","taluk":"Kadayanallur","village":"Kambaneri puthukudi","name":"Samathuvapuram","area_type":"Rural","shop_code":"27LL005P2","search_string":"  kadayanallur tenkasi "},"bbox":[77.3474,9.0549,77.3474,9.0549]},{"type":"Feature","geometry":{"type":"Point","coordinates":[77.3536,9.0559]},"properties":{"district":"Tenkasi","taluk":"Kadayanallur","village":"Kambaneri puthukudi","name":"Mangalapuram","area_type":"Rural","shop_code":"27LL005PY","search_string":"  kadayanallur tenkasi "},"bbox":[77.3536,9.0559,77.3536,9.0559]},{"type":"Feature","geometry":{"type":"Point","coordinates":[77.3139,9.059]},"properties":{"district":"Tenkasi","taluk":"Kadayanallur","village":"Kashidharmam","name":"Kasidharmam","area_type":"Rural","shop_code":"27LA012PN","search_string":"  kadayanallur tenkasi "},"bbox":[77.3139,9.059,77.3139,9.059]},{"type":"Feature","geometry":{"type":"Point","coordinates":[77.438,9.0605]},"properties":{"district":"Tenkasi","taluk":"Kadayanallur","village":"Punnavanam","name":"Sernthamangalam","area_type":"Rural","shop_code":"27LP006PN","search_string":"  kadayanallur tenkasi "},"bbox":[77.438,9.0605,77.438,9.0605]},{"type":"Feature","geometry":{"type":"Point","coordinates":[77.438,9.0605]},"properties":{"district":"Tenkasi","taluk":"Kadayanallur","village":"Subaiyapuram","name":"Serenthamangalam 2","area_type":"Rural","shop_code":"27LP010PN","search_string":"  kadayanallur tenkasi "},"bbox":[77.438,9.0605,77.438,9.0605]},{"type":"Feature","geometry":{"type":"Point","coordinates":[77.3927,9.062]},"properties":{"district":"Tenkasi","taluk":"Kadayanallur","village":"Ramasamiapuram","name":"Avudayalpuram","area_type":"Rural","shop_code":"27LP014P2","search_string":"  kadayanallur tenkasi "},"bbox":[77.3927,9.062,77.3927,9.062]},{"type":"Feature","geometry":{"type":"Point","coordinates":[77.4189,9.0634]},"properties":{"district":"Tenkasi","taluk":"Kadayanallur","village":"Subaiyapuram","name":"Kadambankulam","area_type":"Rural","shop_code":"27LP008P1","search_string":"  kadayanallur tenkasi "},"bbox":[77.4189,9.0634,77.4189,9.0634]},{"type":"Feature","geometry":{"type":"Point","coordinates":[77.3456,9.0673]},"properties":{"district":"Tenkasi","taluk":"Kadayanallur","village":"Kambaneri puthukudi","name":"Kambaneri Pudhukudi","area_type":"Rural","shop_code":"27LA009PN","search_string":"  kadayanallur tenkasi "},"bbox":[77.3456,9.0673,77.3456,9.0673]},{"type":"Feature","geometry":{"type":"Point","coordinates":[77.3789,9.0695]},"properties":{"district":"Tenkasi","taluk":"Kadayanallur","village":"Kambaneri puthukudi","name":"Kambaneri","area_type":"Rural","shop_code":"27LP014PY","search_string":"  kadayanallur tenkasi "},"bbox":[77.3789,9.0695,77.3789,9.0695]},{"type":"Feature","geometry":{"type":"Point","coordinates":[77.3435,9.0709]},"properties":{"district":"Tenkasi","taluk":"Kadayanallur","village":"Kadayanallur","name":"Kadayanallur  11","area_type":"Urban","shop_code":"27LA007PN","search_string":"  kadayanallur tenkasi "},"bbox":[77.3435,9.0709,77.3435,9.0709]},{"type":"Feature","geometry":{"type":"Point","coordinates":[77.4173,9.0732]},"properties":{"district":"Tenkasi","taluk":"Kadayanallur","village":"Subaiyapuram","name":"Thirumalapuram","area_type":"Rural","shop_code":"27LP008PY","search_string":"  kadayanallur tenkasi "},"bbox":[77.4173,9.0732,77.4173,9.0732]},{"type":"Feature","geometry":{"type":"Point","coordinates":[77.343,9.0744]},"properties":{"district":"Tenkasi","taluk":"Kadayanallur","village":"Kadayanallur","name":"Melakadayanallur shop 2","area_type":"Urban","shop_code":"27LL014PN","search_string":"  kadayanallur tenkasi "},"bbox":[77.343,9.0744,77.343,9.0744]},{"type":"Feature","geometry":{"type":"Point","coordinates":[77.3429,9.0746]},"properties":{"district":"Tenkasi","taluk":"Kadayanallur","village":"Kadayanallur","name":"Melakadayanallur","area_type":"Urban","shop_code":"27LL010PN","search_string":"  kadayanallur tenkasi "},"bbox":[77.3429,9.0746,77.3429,9.0746]},{"type":"Feature","geometry":{"type":"Point","coordinates":[77.3414,9.0753]},"properties":{"district":"Tenkasi","taluk":"Kadayanallur","village":"Kadayanallur","name":"Kadayanallur (Shop No - 65)","area_type":"Urban","shop_code":"27LL013PN","search_string":"  kadayanallur tenkasi "},"bbox":[77.3414,9.0753,77.3414,9.0753]},{"type":"Feature","geometry":{"type":"Point","coordinates":[77.3771,9.0754]},"properties":{"district":"Tenkasi","taluk":"Kadayanallur","village":"Kambaneri puthukudi","name":"Kammapacheery","area_type":"Rural","shop_code":"27LL006PY","search_string":"  kadayanallur tenkasi "},"bbox":[77.3771,9.0754,77.3771,9.0754]},{"type":"Feature","geometry":{"type":"Point","coordinates":[77.3418,9.077]},"properties":{"district":"Tenkasi","taluk":"Kadayanallur","village":"Kadayanallur","name":"Kadayanallur (Shop No - 64)","area_type":"Urban","shop_code":"27LL012PN","search_string":"  kadayanallur tenkasi "},"bbox":[77.3418,9.077,77.3418,9.077]},{"type":"Feature","geometry":{"type":"Point","coordinates":[77.3553,9.079]},"properties":{"district":"Tenkasi","taluk":"Kadayanallur","village":"Kadayanallur","name":"Kadayanallur -8","area_type":"Urban","shop_code":"27LA002PN","search_string":"  kadayanallur tenkasi "},"bbox":[77.3553,9.079,77.3553,9.079]},{"type":"Feature","geometry":{"type":"Point","coordinates":[77.3539,9.0795]},"properties":{"district":"Tenkasi","taluk":"Kadayanallur","village":"Kadayanallur","name":"Kadayanllur -7","area_type":"Urban","shop_code":"27LA003PN","search_string":"  kadayanallur tenkasi "},"bbox":[77.3539,9.0795,77.3539,9.0795]},{"type":"Feature","geometry":{"type":"Point","coordinates":[77.3482,9.0799]},"properties":{"district":"Tenkasi","taluk":"Kadayanallur","village":"Kadayanallur","name":"Kadayanallur -10","area_type":"Urban","shop_code":"27LA006PN","search_string":"  kadayanallur tenkasi "},"bbox":[77.3482,9.0799,77.3482,9.0799]},{"type":"Feature","geometry":{"type":"Point","coordinates":[77.3541,9.0802]},"properties":{"district":"Tenkasi","taluk":"Kadayanallur","village":"Kadayanallur","name":"Kadayanallur Bazaar","area_type":"Urban","shop_code":"27LL002PN","search_string":"  kadayanallur tenkasi "},"bbox":[77.3541,9.0802,77.3541,9.0802]},{"type":"Feature","geometry":{"type":"Point","coordinates":[77.4003,9.0808]},"properties":{"district":"Tenkasi","taluk":"Kadayanallur","village":"Kambaneri puthukudi","name":"Valasai","area_type":"Rural","shop_code":"27LP014P1","search_string":"  kadayanallur tenkasi "},"bbox":[77.4003,9.0808,77.4003,9.0808]},{"type":"Feature","geometry":{"type":"Point","coordinates":[77.347,9.0816]},"properties":{"district":"Tenkasi","taluk":"Kadayanallur","village":"Kadayanallur","name":"Pudhupallivasal street -2 Kadayanallur","area_type":"Urban","shop_code":"27LL009PN","search_string":"  kadayanallur tenkasi "},"bbox":[77.347,9.0816,77.347,9.0816]},{"type":"Feature","geometry":{"type":"Point","coordinates":[77.346,9.0819]},"properties":{"district":"Tenkasi","taluk":"Kadayanallur","village":"Kadayanallur","name":"Sundarathevar street Kadayanallur","area_type":"Urban","shop_code":"27LP012PN","search_string":"  kadayanallur tenkasi "},"bbox":[77.346,9.0819,77.346,9.0819]},{"type":"Feature","geometry":{"type":"Point","coordinates":[77.3457,9.082]},"properties":{"district":"Tenkasi","taluk":"Kadayanallur","village":"Kadayanallur","name":"Sundarathevar street 2 Kadayanallur","area_type":"Urban","shop_code":"27LP025PN","search_string":"  kadayanallur tenkasi "},"bbox":[77.3457,9.082,77.3457,9.082]},{"type":"Feature","geometry":{"type":"Point","coordinates":[77.3505,9.0825]},"properties":{"district":"Tenkasi","taluk":"Kadayanallur","village":"Kadayanallur","name":"Pudhupallivasal street -1 Kadayanallur","area_type":"Urban","shop_code":"27LL008PN","search_string":"  kadayanallur tenkasi "},"bbox":[77.3505,9.0825,77.3505,9.0825]},{"type":"Feature","geometry":{"type":"Point","coordinates":[77.3847,9.0827]},"properties":{"district":"Tenkasi","taluk":"Kadayanallur","village":"Kambaneri puthukudi","name":"Bala Arunachalapuram","area_type":"Rural","shop_code":"27LL006P1","search_string":"  kadayanallur tenkasi "},"bbox":[77.3847,9.0827,77.3847,9.0827]},{"type":"Feature","geometry":{"type":"Point","coordinates":[77.3579,9.0827]},"properties":{"district":"Tenkasi","taluk":"Kadayanallur","village":"Kadayanallur","name":"Mavadikal Kadayanallur","area_type":"Urban","shop_code":"27LL003PN","search_string":"  kadayanallur tenkasi "},"bbox":[77.3579,9.0827,77.3579,9.0827]},{"type":"Feature","geometry":{"type":"Point","coordinates":[77.3502,9.0834]},"properties":{"district":"Tenkasi","taluk":"Kadayanallur","village":"Kadayanallur","name":"Kadayanallur- 4","area_type":"Urban","shop_code":"27LA005PN","search_string":"  kadayanallur tenkasi "},"bbox":[77.3502,9.0834,77.3502,9.0834]},{"type":"Feature","geometry":{"type":"Point","coordinates":[77.3493,9.0841]},"properties":{"district":"Tenkasi","taluk":"Kadayanallur","village":"Kadayanallur","name":"Main Bazar Kadayanallur","area_type":"Urban","shop_code":"27LL007PN","search_string":"  kadayanallur tenkasi "},"bbox":[77.3493,9.0841,77.3493,9.0841]},{"type":"Feature","geometry":{"type":"Point","coordinates":[77.3446,9.0847]},"properties":{"district":"Tenkasi","taluk":"Kadayanallur","village":"Kadayanallur","name":"Pettai Kadayanallur  5","area_type":"Urban","shop_code":"27LA004PN","search_string":"  kadayanallur tenkasi "},"bbox":[77.3446,9.0847,77.3446,9.0847]},{"type":"Feature","geometry":{"type":"Point","coordinates":[77.3525,9.0848]},"properties":{"district":"Tenkasi","taluk":"Kadayanallur","village":"Kadayanallur","name":"Main Bazar Kadayanallur Shop 2","area_type":"Urban","shop_code":"27LL015PN","search_string":"  kadayanallur tenkasi "},"bbox":[77.3525,9.0848,77.3525,9.0848]},{"type":"Feature","geometry":{"type":"Point","coordinates":[77.3447,9.086]},"properties":{"district":"Tenkasi","taluk":"Kadayanallur","village":"Kadayanallur","name":"Pettai Kadayanallur-6","area_type":"Urban","shop_code":"27LA017PN","search_string":"  kadayanallur tenkasi "},"bbox":[77.3447,9.086,77.3447,9.086]},{"type":"Feature","geometry":{"type":"Point","coordinates":[77.3496,9.0866]},"properties":{"district":"Tenkasi","taluk":"Kadayanallur","village":"Kadayanallur","name":"Muthukrishnapuram 2","area_type":"Urban","shop_code":"27LP023PN","search_string":"  kadayanallur tenkasi "},"bbox":[77.3496,9.0866,77.3496,9.0866]},{"type":"Feature","geometry":{"type":"Point","coordinates":[77.3711,9.0878]},"properties":{"district":"Tenkasi","taluk":"Kadayanallur","village":"Boganallur","name":"Poganallur","area_type":"Rural","shop_code":"27LA011PY","search_string":"  kadayanallur tenkasi "},"bbox":[77.3711,9.0878,77.3711,9.0878]},{"type":"Feature","geometry":{"type":"Point","coordinates":[77.3431,9.0882]},"properties":{"district":"Tenkasi","taluk":"Kadayanallur","village":"Kadayanallur","name":"Rahmaniapuram Krishnapuram","area_type":"Urban","shop_code":"27LP021PN","search_string":"  kadayanallur tenkasi "},"bbox":[77.3431,9.0882,77.3431,9.0882]},{"type":"Feature","geometry":{"type":"Point","coordinates":[77.3452,9.0888]},"properties":{"district":"Tenkasi","taluk":"Kadayanallur","village":"Kadayanallur","name":"Rahmaniapuram Krishnapuram 2","area_type":"Urban","shop_code":"27LP024PN","search_string":"  kadayanallur tenkasi "},"bbox":[77.3452,9.0888,77.3452,9.0888]},{"type":"Feature","geometry":{"type":"Point","coordinates":[77.3517,9.0898]},"properties":{"district":"Tenkasi","taluk":"Kadayanallur","village":"Kadayanallur","name":"Krishnapuram -2","area_type":"Urban","shop_code":"27LA001PN","search_string":"  kadayanallur tenkasi "},"bbox":[77.3517,9.0898,77.3517,9.0898]},{"type":"Feature","geometry":{"type":"Point","coordinates":[77.3501,9.0915]},"properties":{"district":"Tenkasi","taluk":"Kadayanallur","village":"Kadayanallur","name":"Mainroad Krishnapuram","area_type":"Urban","shop_code":"27LL001PY","search_string":"  kadayanallur tenkasi "},"bbox":[77.3501,9.0915,77.3501,9.0915]},{"type":"Feature","geometry":{"type":"Point","coordinates":[77.3509,9.0938]},"properties":{"district":"Tenkasi","taluk":"Kadayanallur","village":"Kadayanallur","name":"Muthukrishnapuram","area_type":"Urban","shop_code":"27LP013PN","search_string":"  kadayanallur tenkasi "},"bbox":[77.3509,9.0938,77.3509,9.0938]},{"type":"Feature","geometry":{"type":"Point","coordinates":[77.4115,9.101]},"properties":{"district":"Tenkasi","taluk":"Kadayanallur","village":"Ariyanayagipuram","name":"K M Atchampatti","area_type":"Rural","shop_code":"27LP002P1","search_string":"  kadayanallur tenkasi "},"bbox":[77.4115,9.101,77.4115,9.101]},{"type":"Feature","geometry":{"type":"Point","coordinates":[77.4255,9.1012]},"properties":{"district":"Tenkasi","taluk":"Kadayanallur","village":"Ariyanayagipuram","name":"Arunachalapuram","area_type":"Rural","shop_code":"27LP002PY","search_string":"  kadayanallur tenkasi "},"bbox":[77.4255,9.1012,77.4255,9.1012]},{"type":"Feature","geometry":{"type":"Point","coordinates":[77.3908,9.1036]},"properties":{"district":"Tenkasi","taluk":"Kadayanallur","village":"Boganallur","name":"Sundaresapuram","area_type":"Rural","shop_code":"27LA011P2","search_string":"  kadayanallur tenkasi "},"bbox":[77.3908,9.1036,77.3908,9.1036]},{"type":"Feature","geometry":{"type":"Point","coordinates":[77.424,9.1061]},"properties":{"district":"Tenkasi","taluk":"Kadayanallur","village":"Ariyanayagipuram","name":"Ariyanayagipuram","area_type":"Rural","shop_code":"27LP001PY","search_string":"  kadayanallur tenkasi "},"bbox":[77.424,9.1061,77.424,9.1061]},{"type":"Feature","geometry":{"type":"Point","coordinates":[77.3545,9.1072]},"properties":{"district":"Tenkasi","taluk":"Kadayanallur","village":"Kadayanallur","name":"Kumanthapuram","area_type":"Urban","shop_code":"27LL001P1","search_string":"  kadayanallur tenkasi "},"bbox":[77.3545,9.1072,77.3545,9.1072]},{"type":"Feature","geometry":{"type":"Point","coordinates":[77.4164,9.1088]},"properties":{"district":"Tenkasi","taluk":"Kadayanallur","village":"Ariyanayagipuram","name":"Periasamipuram","area_type":"Rural","shop_code":"27LP001P1","search_string":"  kadayanallur tenkasi "},"bbox":[77.4164,9.1088,77.4164,9.1088]},{"type":"Feature","geometry":{"type":"Point","coordinates":[77.3567,9.1133]},"properties":{"district":"Tenkasi","taluk":"Kadayanallur","village":"Chockampatti","name":"Muthusamiapuram","area_type":"Rural","shop_code":"27LL011P1","search_string":"  kadayanallur tenkasi "},"bbox":[77.3567,9.1133,77.3567,9.1133]},{"type":"Feature","geometry":{"type":"Point","coordinates":[77.39,9.119]},"properties":{"district":"Tenkasi","taluk":"Kadayanallur","village":"Boganallur","name":"Sankanaperi","area_type":"Rural","shop_code":"27LA011P1","search_string":"  kadayanallur tenkasi "},"bbox":[77.39,9.119,77.39,9.119]},{"type":"Feature","geometry":{"type":"Point","coordinates":[77.3576,9.1228]},"properties":{"district":"Tenkasi","taluk":"Kadayanallur","village":"Chockampatti","name":"Thirikudapuram Chokkampatti","area_type":"Rural","shop_code":"27LL011PY","search_string":"  kadayanallur tenkasi "},"bbox":[77.3576,9.1228,77.3576,9.1228]},{"type":"Feature","geometry":{"type":"Point","coordinates":[77.4543,9.1251]},"properties":{"district":"Tenkasi","taluk":"Kadayanallur","village":"Subaiyapuram","name":"Nouchikulam","area_type":"Rural","shop_code":"27LP008P2","search_string":"  kadayanallur tenkasi "},"bbox":[77.4543,9.1251,77.4543,9.1251]},{"type":"Feature","geometry":{"type":"Point","coordinates":[77.3635,9.1254]},"properties":{"district":"Tenkasi","taluk":"Kadayanallur","village":"Chockampatti","name":"Chokkmpatti","area_type":"Rural","shop_code":"27LA013PN","search_string":"  kadayanallur tenkasi "},"bbox":[77.3635,9.1254,77.3635,9.1254]},{"type":"Feature","geometry":{"type":"Point","coordinates":[77.3642,9.1278]},"properties":{"district":"Tenkasi","taluk":"Kadayanallur","village":"Chockampatti","name":"Chokkampatti (Cresent)","area_type":"Rural","shop_code":"27LL004PN","search_string":"  kadayanallur tenkasi "},"bbox":[77.3642,9.1278,77.3642,9.1278]},{"type":"Feature","geometry":{"type":"Point","coordinates":[77.4192,9.1305]},"properties":{"district":"Tenkasi","taluk":"Kadayanallur","village":"Madathupatti","name":"Madathupatti","area_type":"Rural","shop_code":"27LP003PN","search_string":"  kadayanallur tenkasi "},"bbox":[77.4192,9.1305,77.4192,9.1305]},{"type":"Feature","geometry":{"type":"Point","coordinates":[77.425,9.1331]},"properties":{"district":"Tenkasi","taluk":"Kadayanallur","village":"Subaiyapuram","name":"Sevaimyam","area_type":"Rural","shop_code":"27LP011PN","search_string":"  kadayanallur tenkasi "},"bbox":[77.425,9.1331,77.425,9.1331]},{"type":"Feature","geometry":{"type":"Point","coordinates":[77.3835,9.134]},"properties":{"district":"Tenkasi","taluk":"Kadayanallur","village":"Chockampatti","name":"Singlipatti","area_type":"Rural","shop_code":"27LA018PN","search_string":"  kadayanallur tenkasi "},"bbox":[77.3835,9.134,77.3835,9.134]},{"type":"Feature","geometry":{"type":"Point","coordinates":[77.43,9.1361]},"properties":{"district":"Tenkasi","taluk":"Kadayanallur","village":"Ramasamiapuram","name":"Ramasamiapuram 1","area_type":"Rural","shop_code":"27LP040PY","search_string":"  kadayanallur tenkasi "},"bbox":[77.43,9.1361,77.43,9.1361]},{"type":"Feature","geometry":{"type":"Point","coordinates":[77.43,9.1382]},"properties":{"district":"Tenkasi","taluk":"Kadayanallur","village":"Punnavanam","name":"Punnaivanam","area_type":"Rural","shop_code":"27LP005PN","search_string":"  kadayanallur tenkasi "},"bbox":[77.43,9.1382,77.43,9.1382]},{"type":"Feature","geometry":{"type":"Point","coordinates":[77.4098,9.1385]},"properties":{"district":"Tenkasi","taluk":"Kadayanallur","village":"Madathupatti","name":"Thiruvettanallur","area_type":"Rural","shop_code":"27LP004PY","search_string":"  kadayanallur tenkasi "},"bbox":[77.4098,9.1385,77.4098,9.1385]},{"type":"Feature","geometry":{"type":"Point","coordinates":[77.4534,9.1411]},"properties":{"district":"Tenkasi","taluk":"Kadayanallur","village":"Ramasamiapuram","name":"Ramasamiapuram 2","area_type":"Rural","shop_code":"27LP041PY","search_string":"  kadayanallur tenkasi "},"bbox":[77.4534,9.1411,77.4534,9.1411]},{"type":"Feature","geometry":{"type":"Point","coordinates":[77.3956,9.1492]},"properties":{"district":"Tenkasi","taluk":"Kadayanallur","village":"Madathupatti","name":"Melathiruvettanallur","area_type":"Rural","shop_code":"27LP004P1","search_string":"  kadayanallur tenkasi "},"bbox":[77.3956,9.1492,77.3956,9.1492]},{"type":"Feature","geometry":{"type":"Point","coordinates":[77.3938,9.1505]},"properties":{"district":"Tenkasi","taluk":"Kadayanallur","village":"Chockampatti","name":"Punnaiyapuram","area_type":"Rural","shop_code":"27LA014PN","search_string":"  kadayanallur tenkasi "},"bbox":[77.3938,9.1505,77.3938,9.1505]},{"type":"Feature","geometry":{"type":"Point","coordinates":[77.4727,9.1546]},"properties":{"district":"Tenkasi","taluk":"Kadayanallur","village":"Ramasamiapuram","name":"Vadamalapuram","area_type":"Rural","shop_code":"27LP041P1","search_string":"  kadayanallur tenkasi "},"bbox":[77.4727,9.1546,77.4727,9.1546]},{"type":"Feature","geometry":{"type":"Point","coordinates":[77.4284,9.1577]},"properties":{"district":"Tenkasi","taluk":"Kadayanallur","village":"Puliangudi","name":"Ayyapuram","area_type":"Urban","shop_code":"27LP028P1","search_string":"  kadayanallur tenkasi "},"bbox":[77.4284,9.1577,77.4284,9.1577]},{"type":"Feature","geometry":{"type":"Point","coordinates":[77.433,9.1586]},"properties":{"district":"Tenkasi","taluk":"Kadayanallur","village":"Ramasamiapuram","name":"M Koundanpatti","area_type":"Rural","shop_code":"27LP040P1","search_string":"  kadayanallur tenkasi "},"bbox":[77.433,9.1586,77.433,9.1586]},{"type":"Feature","geometry":{"type":"Point","coordinates":[77.4564,9.1614]},"properties":{"district":"Tenkasi","taluk":"Kadayanallur","village":"Ramasamiapuram","name":"Andarkulam","area_type":"Rural","shop_code":"27LP041P2","search_string":"  kadayanallur tenkasi "},"bbox":[77.4564,9.1614,77.4564,9.1614]},{"type":"Feature","geometry":{"type":"Point","coordinates":[77.4726,9.169]},"properties":{"district":"Tenkasi","taluk":"Kadayanallur","village":"Nagaram","name":"Etchampottalpudur","area_type":"Rural","shop_code":"27LP038P1","search_string":"  kadayanallur tenkasi "},"bbox":[77.4726,9.169,77.4726,9.169]},{"type":"Feature","geometry":{"type":"Point","coordinates":[77.3993,9.1717]},"properties":{"district":"Tenkasi","taluk":"Kadayanallur","village":"Puliangudi","name":"575 Puliangudi 2","area_type":"Urban","shop_code":"27LP031PN","search_string":"  kadayanallur tenkasi "},"bbox":[77.3993,9.1717,77.3993,9.1717]},{"type":"Feature","geometry":{"type":"Point","coordinates":[77.3966,9.1729]},"properties":{"district":"Tenkasi","taluk":"Kadayanallur","village":"Puliangudi","name":"219 Puliangudi 2","area_type":"Urban","shop_code":"27LP028PY","search_string":"  kadayanallur tenkasi "},"bbox":[77.3966,9.1729,77.3966,9.1729]},{"type":"Feature","geometry":{"type":"Point","coordinates":[77.3911,9.1734]},"properties":{"district":"Tenkasi","taluk":"Kadayanallur","village":"Puliangudi","name":"T N Pudukudi","area_type":"Urban","shop_code":"27LA024PN","search_string":"  kadayanallur tenkasi "},"bbox":[77.3911,9.1734,77.3911,9.1734]},{"type":"Feature","geometry":{"type":"Point","coordinates":[77.3982,9.175]},"properties":{"district":"Tenkasi","taluk":"Kadayanallur","village":"Puliangudi","name":"Chidambaravinayagarkoil thenvadal street","area_type":"Urban","shop_code":"27LP043PN","search_string":"  kadayanallur tenkasi "},"bbox":[77.3982,9.175,77.3982,9.175]},{"type":"Feature","geometry":{"type":"Point","coordinates":[77.3959,9.1761]},"properties":{"district":"Tenkasi","taluk":"Kadayanallur","village":"Puliangudi","name":"Puliangudi 1","area_type":"Urban","shop_code":"27LA020PN","search_string":"  kadayanallur tenkasi "},"bbox":[77.3959,9.1761,77.3959,9.1761]},{"type":"Feature","geometry":{"type":"Point","coordinates":[77.3949,9.1776]},"properties":{"district":"Tenkasi","taluk":"Kadayanallur","village":"Puliangudi","name":"1855 Puliangudi","area_type":"Urban","shop_code":"27LP029PN","search_string":"  kadayanallur tenkasi "},"bbox":[77.3949,9.1776,77.3949,9.1776]},{"type":"Feature","geometry":{"type":"Point","coordinates":[77.4016,9.1778]},"properties":{"district":"Tenkasi","taluk":"Kadayanallur","village":"Puliangudi","name":"219 Puliangudi 1","area_type":"Urban","shop_code":"27LP027PN","search_string":"  kadayanallur tenkasi "},"bbox":[77.4016,9.1778,77.4016,9.1778]},{"type":"Feature","geometry":{"type":"Point","coordinates":[77.3949,9.1788]},"properties":{"district":"Tenkasi","taluk":"Kadayanallur","village":"Puliangudi","name":"Puliangudi 4","area_type":"Urban","shop_code":"27LA023PN","search_string":"  kadayanallur tenkasi "},"bbox":[77.3949,9.1788,77.3949,9.1788]},{"type":"Feature","geometry":{"type":"Point","coordinates":[77.4561,9.1791]},"properties":{"district":"Tenkasi","taluk":"Kadayanallur","village":"Nagaram","name":"Nagaram","area_type":"Rural","shop_code":"27LP038PY","search_string":"  kadayanallur tenkasi "},"bbox":[77.4561,9.1791,77.4561,9.1791]},{"type":"Feature","geometry":{"type":"Point","coordinates":[77.399,9.1794]},"properties":{"district":"Tenkasi","taluk":"Kadayanallur","village":"Puliangudi","name":"A 73 Puliangudi 2","area_type":"Urban","shop_code":"27LP033PN","search_string":"  kadayanallur tenkasi "},"bbox":[77.399,9.1794,77.399,9.1794]},{"type":"Feature","geometry":{"type":"Point","coordinates":[77.4006,9.1796]},"properties":{"district":"Tenkasi","taluk":"Kadayanallur","village":"Puliangudi","name":"Puliangudi 6","area_type":"Urban","shop_code":"27LA025PN","search_string":"  kadayanallur tenkasi "},"bbox":[77.4006,9.1796,77.4006,9.1796]},{"type":"Feature","geometry":{"type":"Point","coordinates":[77.3962,9.182]},"properties":{"district":"Tenkasi","taluk":"Kadayanallur","village":"Puliangudi","name":"Puliangudi 3","area_type":"Urban","shop_code":"27LA022PN","search_string":"  kadayanallur tenkasi "},"bbox":[77.3962,9.182,77.3962,9.182]},{"type":"Feature","geometry":{"type":"Point","coordinates":[77.3963,9.1822]},"properties":{"district":"Tenkasi","taluk":"Kadayanallur","village":"Puliangudi","name":"A 73 Puliangudi 1","area_type":"Urban","shop_code":"27LP032PN","search_string":"  kadayanallur tenkasi "},"bbox":[77.3963,9.1822,77.3963,9.1822]},{"type":"Feature","geometry":{"type":"Point","coordinates":[77.4008,9.1831]},"properties":{"district":"Tenkasi","taluk":"Kadayanallur","village":"Puliangudi","name":"Puliangudi 2","area_type":"Urban","shop_code":"27LA021PY","search_string":"  kadayanallur tenkasi "},"bbox":[77.4008,9.1831,77.4008,9.1831]},{"type":"Feature","geometry":{"type":"Point","coordinates":[77.4518,9.184]},"properties":{"district":"Tenkasi","taluk":"Kadayanallur","village":"Thalavankottai","name":"Mullikulam","area_type":"Rural","shop_code":"27LP037PN","search_string":"  kadayanallur tenkasi "},"bbox":[77.4518,9.184,77.4518,9.184]},{"type":"Feature","geometry":{"type":"Point","coordinates":[77.4066,9.1841]},"properties":{"district":"Tenkasi","taluk":"Kadayanallur","village":"Puliangudi","name":"Sinthamani 1","area_type":"Urban","shop_code":"27LP034PN","search_string":"  kadayanallur tenkasi "},"bbox":[77.4066,9.1841,77.4066,9.1841]},{"type":"Feature","geometry":{"type":"Point","coordinates":[77.3962,9.1852]},"properties":{"district":"Tenkasi","taluk":"Kadayanallur","village":"Puliangudi","name":"575 Puliangudi 1","area_type":"Urban","shop_code":"27LP030PN","search_string":"  kadayanallur tenkasi "},"bbox":[77.3962,9.1852,77.3962,9.1852]},{"type":"Feature","geometry":{"type":"Point","coordinates":[77.3962,9.1852]},"properties":{"district":"Tenkasi","taluk":"Kadayanallur","village":"Puliangudi","name":"Subramaniasamykoilsannathy street","area_type":"Urban","shop_code":"27LP042PN","search_string":"  kadayanallur tenkasi "},"bbox":[77.3962,9.1852,77.3962,9.1852]},{"type":"Feature","geometry":{"type":"Point","coordinates":[77.4099,9.1853]},"properties":{"district":"Tenkasi","taluk":"Kadayanallur","village":"Puliangudi","name":"Sinthamani 3","area_type":"Urban","shop_code":"27LP044PN","search_string":"  kadayanallur tenkasi "},"bbox":[77.4099,9.1853,77.4099,9.1853]},{"type":"Feature","geometry":{"type":"Point","coordinates":[77.4055,9.1877]},"properties":{"district":"Tenkasi","taluk":"Kadayanallur","village":"Puliangudi","name":"Sinthamani 2","area_type":"Urban","shop_code":"27LP035PN","search_string":"  kadayanallur tenkasi "},"bbox":[77.4055,9.1877,77.4055,9.1877]},{"type":"Feature","geometry":{"type":"Point","coordinates":[77.4052,9.1889]},"properties":{"district":"Tenkasi","taluk":"Kadayanallur","village":"Puliangudi","name":"Sinthamani","area_type":"Urban","shop_code":"27LA021P1","search_string":"  kadayanallur tenkasi "},"bbox":[77.4052,9.1889,77.4052,9.1889]},{"type":"Feature","geometry":{"type":"Point","coordinates":[77.4502,9.1896]},"properties":{"district":"Tenkasi","taluk":"Kadayanallur","village":"Thalavankottai","name":"Thalavankottai","area_type":"Rural","shop_code":"27LP039PN","search_string":"  kadayanallur tenkasi "},"bbox":[77.4502,9.1896,77.4502,9.1896]},{"type":"Feature","geometry":{"type":"Point","coordinates":[77.4336,9.204]},"properties":{"district":"Tenkasi","taluk":"Kadayanallur","village":"Malaiyadikurichi","name":"Malaiyadikurichi","area_type":"Rural","shop_code":"27LP036PN","search_string":"  kadayanallur tenkasi "},"bbox":[77.4336,9.204,77.4336,9.204]},{"type":"Feature","geometry":{"type":"Point","coordinates":[77.4513,9.0276]},"properties":{"district":"Tenkasi","taluk":"Sankarankoil (Tk)","village":"Vellalankulum","name":"Pandiapuram","area_type":"Rural","shop_code":"27CP044PN","search_string":"  sankarankoil (tk) tenkasi "},"bbox":[77.4513,9.0276,77.4513,9.0276]},{"type":"Feature","geometry":{"type":"Point","coordinates":[77.474,9.0279]},"properties":{"district":"Tenkasi","taluk":"Sankarankoil (Tk)","village":"Vellalankulum","name":"Karaikandarkulam","area_type":"Rural","shop_code":"27CP019P1","search_string":"  sankarankoil (tk) tenkasi "},"bbox":[77.474,9.0279,77.474,9.0279]},{"type":"Feature","geometry":{"type":"Point","coordinates":[77.6076,9.0377]},"properties":{"district":"Tenkasi","taluk":"Sankarankoil (Tk)","village":"Panavadali Chatram","name":"South Panaivadalichatram","area_type":"Rural","shop_code":"27CP035P2","search_string":"  sankarankoil (tk) tenkasi "},"bbox":[77.6076,9.0377,77.6076,9.0377]},{"type":"Feature","geometry":{"type":"Point","coordinates":[77.4708,9.0486]},"properties":{"district":"Tenkasi","taluk":"Sankarankoil (Tk)","village":"Vellalankulum","name":"Vellalankulum","area_type":"Rural","shop_code":"27CP019PY","search_string":"  sankarankoil (tk) tenkasi "},"bbox":[77.4708,9.0486,77.4708,9.0486]},{"type":"Feature","geometry":{"type":"Point","coordinates":[77.61,9.0514]},"properties":{"district":"Tenkasi","taluk":"Sankarankoil (Tk)","village":"Panavadali Chatram","name":"Panavadali Chatram","area_type":"Rural","shop_code":"27CP035PY","search_string":"  sankarankoil (tk) tenkasi "},"bbox":[77.61,9.0514,77.61,9.0514]},{"type":"Feature","geometry":{"type":"Point","coordinates":[77.5941,9.0522]},"properties":{"district":"Tenkasi","taluk":"Sankarankoil (Tk)","village":"Panavadali Chatram","name":"Sokkalingapuram","area_type":"Rural","shop_code":"27CP042P1","search_string":"  sankarankoil (tk) tenkasi "},"bbox":[77.5941,9.0522,77.5941,9.0522]},{"type":"Feature","geometry":{"type":"Point","coordinates":[77.5128,9.0526]},"properties":{"district":"Tenkasi","taluk":"Sankarankoil (Tk)","village":"Echantha","name":"Periyasamypuram","area_type":"Rural","shop_code":"27CP020P1","search_string":"  sankarankoil (tk) tenkasi "},"bbox":[77.5128,9.0526,77.5128,9.0526]},{"type":"Feature","geometry":{"type":"Point","coordinates":[77.4831,9.0536]},"properties":{"district":"Tenkasi","taluk":"Sankarankoil (Tk)","village":"Vellalankulum","name":"Andarkulam","area_type":"Rural","shop_code":"27CP019P2","search_string":"  sankarankoil (tk) tenkasi "},"bbox":[77.4831,9.0536,77.4831,9.0536]},{"type":"Feature","geometry":{"type":"Point","coordinates":[77.4563,9.0536]},"properties":{"district":"Tenkasi","taluk":"Sankarankoil (Tk)","village":"Subaiyapuram","name":"Subaiyapuram","area_type":"Rural","shop_code":"27CP040P1","search_string":"  sankarankoil (tk) tenkasi "},"bbox":[77.4563,9.0536,77.4563,9.0536]},{"type":"Feature","geometry":{"type":"Point","coordinates":[77.4492,9.0547]},"properties":{"district":"Tenkasi","taluk":"Sankarankoil (Tk)","village":"Subaiyapuram","name":"Thannuthu","area_type":"Rural","shop_code":"27CP040PY","search_string":"  sankarankoil (tk) tenkasi "},"bbox":[77.4492,9.0547,77.4492,9.0547]},{"type":"Feature","geometry":{"type":"Point","coordinates":[77.4981,9.0592]},"properties":{"district":"Tenkasi","taluk":"Sankarankoil (Tk)","village":"Echantha","name":"Echantha","area_type":"Rural","shop_code":"27CP020PY","search_string":"  sankarankoil (tk) tenkasi "},"bbox":[77.4981,9.0592,77.4981,9.0592]},{"type":"Feature","geometry":{"type":"Point","coordinates":[77.5908,9.0638]},"properties":{"district":"Tenkasi","taluk":"Sankarankoil (Tk)","village":"Panavadali Chatram","name":"Tirumalapuram","area_type":"Rural","shop_code":"27CP042PY","search_string":"  sankarankoil (tk) tenkasi "},"bbox":[77.5908,9.0638,77.5908,9.0638]},{"type":"Feature","geometry":{"type":"Point","coordinates":[77.6135,9.0702]},"properties":{"district":"Tenkasi","taluk":"Sankarankoil (Tk)","village":"Panavadali Chatram","name":"Aiayalpatti","area_type":"Rural","shop_code":"27CP036PY","search_string":"  sankarankoil (tk) tenkasi "},"bbox":[77.6135,9.0702,77.6135,9.0702]},{"type":"Feature","geometry":{"type":"Point","coordinates":[77.6241,9.0735]},"properties":{"district":"Tenkasi","taluk":"Sankarankoil (Tk)","village":"Panavadali Chatram","name":"Araichipatti","area_type":"Rural","shop_code":"27CP036P1","search_string":"  sankarankoil (tk) tenkasi "},"bbox":[77.6241,9.0735,77.6241,9.0735]},{"type":"Feature","geometry":{"type":"Point","coordinates":[77.5234,9.075]},"properties":{"district":"Tenkasi","taluk":"Sankarankoil (Tk)","village":"Echantha","name":"Uthankulam","area_type":"Rural","shop_code":"27CP020P2","search_string":"  sankarankoil (tk) tenkasi "},"bbox":[77.5234,9.075,77.5234,9.075]},{"type":"Feature","geometry":{"type":"Point","coordinates":[77.48,9.076]},"properties":{"district":"Tenkasi","taluk":"Sankarankoil (Tk)","village":"Kulashekaramangalum","name":"Renganathapuram","area_type":"Rural","shop_code":"27CP018P1","search_string":"  sankarankoil (tk) tenkasi "},"bbox":[77.48,9.076,77.48,9.076]},{"type":"Feature","geometry":{"type":"Point","coordinates":[77.4621,9.0778]},"properties":{"district":"Tenkasi","taluk":"Sankarankoil (Tk)","village":"Kulashekaramangalum","name":"Kulashekaramangalum","area_type":"Rural","shop_code":"27CP018PY","search_string":"  sankarankoil (tk) tenkasi "},"bbox":[77.4621,9.0778,77.4621,9.0778]},{"type":"Feature","geometry":{"type":"Point","coordinates":[77.4932,9.085]},"properties":{"district":"Tenkasi","taluk":"Sankarankoil (Tk)","village":"Pattadaikatti","name":"Ventrilingapuram","area_type":"Rural","shop_code":"27CP033P1","search_string":"  sankarankoil (tk) tenkasi "},"bbox":[77.4932,9.085,77.4932,9.085]},{"type":"Feature","geometry":{"type":"Point","coordinates":[77.5071,9.0858]},"properties":{"district":"Tenkasi","taluk":"Sankarankoil (Tk)","village":"Pattadaikatti","name":"Pattadaikatti","area_type":"Rural","shop_code":"27CP033PY","search_string":"  sankarankoil (tk) tenkasi "},"bbox":[77.5071,9.0858,77.5071,9.0858]},{"type":"Feature","geometry":{"type":"Point","coordinates":[77.4485,9.0891]},"properties":{"district":"Tenkasi","taluk":"Sankarankoil (Tk)","village":"Veerasigamani","name":"Veerasigamani-2","area_type":"Rural","shop_code":"27CP041PN","search_string":"  sankarankoil (tk) tenkasi "},"bbox":[77.4485,9.0891,77.4485,9.0891]},{"type":"Feature","geometry":{"type":"Point","coordinates":[77.4488,9.0918]},"properties":{"district":"Tenkasi","taluk":"Sankarankoil (Tk)","village":"Veerasigamani","name":"Veerasigamani-1","area_type":"Rural","shop_code":"27CP004PN","search_string":"  sankarankoil (tk) tenkasi "},"bbox":[77.4488,9.0918,77.4488,9.0918]},{"type":"Feature","geometry":{"type":"Point","coordinates":[77.488,9.1003]},"properties":{"district":"Tenkasi","taluk":"Sankarankoil (Tk)","village":"Naduvakkurichi","name":"Naduvakkurichi","area_type":"Rural","shop_code":"27CP032PY","search_string":"  sankarankoil (tk) tenkasi "},"bbox":[77.488,9.1003,77.488,9.1003]},{"type":"Feature","geometry":{"type":"Point","coordinates":[77.513,9.1048]},"properties":{"district":"Tenkasi","taluk":"Sankarankoil (Tk)","village":"Pattadaikatti","name":"Dharmathurani","area_type":"Rural","shop_code":"27CP033P2","search_string":"  sankarankoil (tk) tenkasi "},"bbox":[77.513,9.1048,77.513,9.1048]},{"type":"Feature","geometry":{"type":"Point","coordinates":[77.5841,9.1059]},"properties":{"district":"Tenkasi","taluk":"Sankarankoil (Tk)","village":"Kurukkalpatti","name":"Kurukkalpatti","area_type":"Rural","shop_code":"27CP014PY","search_string":"  sankarankoil (tk) tenkasi "},"bbox":[77.5841,9.1059,77.5841,9.1059]},{"type":"Feature","geometry":{"type":"Point","coordinates":[77.5515,9.1075]},"properties":{"district":"Tenkasi","taluk":"Sankarankoil (Tk)","village":"Chinnakovilankulam","name":"Chinnakovilankulum","area_type":"Rural","shop_code":"27CP030PN","search_string":"  sankarankoil (tk) tenkasi "},"bbox":[77.5515,9.1075,77.5515,9.1075]},{"type":"Feature","geometry":{"type":"Point","coordinates":[77.5978,9.1093]},"properties":{"district":"Tenkasi","taluk":"Sankarankoil (Tk)","village":"Kurukkalpatti","name":"Malanilithanallur","area_type":"Rural","shop_code":"27CP015PN","search_string":"  sankarankoil (tk) tenkasi "},"bbox":[77.5978,9.1093,77.5978,9.1093]},{"type":"Feature","geometry":{"type":"Point","coordinates":[77.4417,9.1141]},"properties":{"district":"Tenkasi","taluk":"Sankarankoil (Tk)","village":"Kela veerasigamani","name":"Vadanathampatti","area_type":"Rural","shop_code":"27CP006PN","search_string":"  sankarankoil (tk) tenkasi "},"bbox":[77.4417,9.1141,77.4417,9.1141]},{"type":"Feature","geometry":{"type":"Point","coordinates":[77.5276,9.116]},"properties":{"district":"Tenkasi","taluk":"Sankarankoil (Tk)","village":"Poigaimedu","name":"Veppankulum","area_type":"Rural","shop_code":"27CP003PN","search_string":"  sankarankoil (tk) tenkasi "},"bbox":[77.5276,9.116,77.5276,9.116]},{"type":"Feature","geometry":{"type":"Point","coordinates":[77.4749,9.1166]},"properties":{"district":"Tenkasi","taluk":"Sankarankoil (Tk)","village":"Naduvakkurichi","name":"Vallaramapuram","area_type":"Rural","shop_code":"27CP032P1","search_string":"  sankarankoil (tk) tenkasi "},"bbox":[77.4749,9.1166,77.4749,9.1166]},{"type":"Feature","geometry":{"type":"Point","coordinates":[77.5554,9.1173]},"properties":{"district":"Tenkasi","taluk":"Sankarankoil (Tk)","village":"Periyakovilankulum","name":"Sillikulam","area_type":"Rural","shop_code":"27CP016P1","search_string":"  sankarankoil (tk) tenkasi "},"bbox":[77.5554,9.1173,77.5554,9.1173]},{"type":"Feature","geometry":{"type":"Point","coordinates":[77.5644,9.1175]},"properties":{"district":"Tenkasi","taluk":"Sankarankoil (Tk)","village":"Navanithakhirishnapuram","name":"Shunmuganallur","area_type":"Rural","shop_code":"27CP031P1","search_string":"  sankarankoil (tk) tenkasi "},"bbox":[77.5644,9.1175,77.5644,9.1175]},{"type":"Feature","geometry":{"type":"Point","coordinates":[77.6209,9.1216]},"properties":{"district":"Tenkasi","taluk":"Sankarankoil (Tk)","village":"Kezha Neelithanallur","name":"Kezha Neelithanallur","area_type":"Rural","shop_code":"27CP034PN","search_string":"  sankarankoil (tk) tenkasi "},"bbox":[77.6209,9.1216,77.6209,9.1216]},{"type":"Feature","geometry":{"type":"Point","coordinates":[77.5468,9.1219]},"properties":{"district":"Tenkasi","taluk":"Sankarankoil (Tk)","village":"Periyakovilankulum","name":"Periyakovilankulum","area_type":"Rural","shop_code":"27CP016PY","search_string":"  sankarankoil (tk) tenkasi "},"bbox":[77.5468,9.1219,77.5468,9.1219]},{"type":"Feature","geometry":{"type":"Point","coordinates":[77.4743,9.123]},"properties":{"district":"Tenkasi","taluk":"Sankarankoil (Tk)","village":"Kela veerasigamani","name":"Kela veerasigamani","area_type":"Rural","shop_code":"27CP005PY","search_string":"  sankarankoil (tk) tenkasi "},"bbox":[77.4743,9.123,77.4743,9.123]},{"type":"Feature","geometry":{"type":"Point","coordinates":[77.5752,9.1251]},"properties":{"district":"Tenkasi","taluk":"Sankarankoil (Tk)","village":"Kurukkalpatti","name":"K Reddiapatti","area_type":"Rural","shop_code":"27CP014P1","search_string":"  sankarankoil (tk) tenkasi "},"bbox":[77.5752,9.1251,77.5752,9.1251]},{"type":"Feature","geometry":{"type":"Point","coordinates":[77.5985,9.1278]},"properties":{"district":"Tenkasi","taluk":"Sankarankoil (Tk)","village":"Periyakovilankulum","name":"Jaminelanthaikulum","area_type":"Rural","shop_code":"27CP017PN","search_string":"  sankarankoil (tk) tenkasi "},"bbox":[77.5985,9.1278,77.5985,9.1278]},{"type":"Feature","geometry":{"type":"Point","coordinates":[77.4705,9.1362]},"properties":{"district":"Tenkasi","taluk":"Sankarankoil (Tk)","village":"Kela veerasigamani","name":"K V Muthusamiapuram","area_type":"Rural","shop_code":"27CP005P1","search_string":"  sankarankoil (tk) tenkasi "},"bbox":[77.4705,9.1362,77.4705,9.1362]},{"type":"Feature","geometry":{"type":"Point","coordinates":[77.5139,9.137]},"properties":{"district":"Tenkasi","taluk":"Sankarankoil (Tk)","village":"south sankarankovil","name":"Adkundarkulam","area_type":"Rural","shop_code":"27CP002P1","search_string":"  sankarankoil (tk) tenkasi "},"bbox":[77.5139,9.137,77.5139,9.137]},{"type":"Feature","geometry":{"type":"Point","coordinates":[77.5654,9.1397]},"properties":{"district":"Tenkasi","taluk":"Sankarankoil (Tk)","village":"Navanithakhirishnapuram","name":"Navanithakhirishnapuram","area_type":"Rural","shop_code":"27CP031PY","search_string":"  sankarankoil (tk) tenkasi "},"bbox":[77.5654,9.1397,77.5654,9.1397]},{"type":"Feature","geometry":{"type":"Point","coordinates":[77.5183,9.1433]},"properties":{"district":"Tenkasi","taluk":"Sankarankoil (Tk)","village":"south sankarankovil","name":"Senthadi","area_type":"Rural","shop_code":"27CP002PY","search_string":"  sankarankoil (tk) tenkasi "},"bbox":[77.5183,9.1433,77.5183,9.1433]},{"type":"Feature","geometry":{"type":"Point","coordinates":[77.4949,9.1453]},"properties":{"district":"Tenkasi","taluk":"Sankarankoil (Tk)","village":"Poigaimedu","name":"Poigaimedu","area_type":"Rural","shop_code":"27CP002P2","search_string":"  sankarankoil (tk) tenkasi "},"bbox":[77.4949,9.1453,77.4949,9.1453]},{"type":"Feature","geometry":{"type":"Point","coordinates":[77.5676,9.155]},"properties":{"district":"Tenkasi","taluk":"Sankarankoil (Tk)","village":"south sankarankovil","name":"Ramanathapuram","area_type":"Rural","shop_code":"27CP001PN","search_string":"  sankarankoil (tk) tenkasi "},"bbox":[77.5676,9.155,77.5676,9.155]},{"type":"Feature","geometry":{"type":"Point","coordinates":[77.5135,9.1589]},"properties":{"district":"Tenkasi","taluk":"Sankarankoil (Tk)","village":"Kalappakulam","name":"Thalavaipuram","area_type":"Rural","shop_code":"27CP037P1","search_string":"  sankarankoil (tk) tenkasi "},"bbox":[77.5135,9.1589,77.5135,9.1589]},{"type":"Feature","geometry":{"type":"Point","coordinates":[77.4936,9.1621]},"properties":{"district":"Tenkasi","taluk":"Sankarankoil (Tk)","village":"Nochikulum","name":"Nochikulum","area_type":"Rural","shop_code":"27CP008PN","search_string":"  sankarankoil (tk) tenkasi "},"bbox":[77.4936,9.1621,77.4936,9.1621]},{"type":"Feature","geometry":{"type":"Point","coordinates":[77.5347,9.1667]},"properties":{"district":"Tenkasi","taluk":"Sankarankoil (Tk)","village":"Sankarankovil","name":"Odai theru","area_type":"Urban","shop_code":"27CA004PN","search_string":"  sankarankoil (tk) tenkasi "},"bbox":[77.5347,9.1667,77.5347,9.1667]},{"type":"Feature","geometry":{"type":"Point","coordinates":[77.5571,9.167]},"properties":{"district":"Tenkasi","taluk":"Sankarankoil (Tk)","village":"Sankarankovil","name":"Pattathur","area_type":"Urban","shop_code":"27CC004P1","search_string":"  sankarankoil (tk) tenkasi "},"bbox":[77.5571,9.167,77.5571,9.167]},{"type":"Feature","geometry":{"type":"Point","coordinates":[77.5389,9.1681]},"properties":{"district":"Tenkasi","taluk":"Sankarankoil (Tk)","village":"Sankarankovil","name":"Ganthi nagar Sankarankovil","area_type":"Urban","shop_code":"27CC016PN","search_string":"  sankarankoil (tk) tenkasi "},"bbox":[77.5389,9.1681,77.5389,9.1681]},{"type":"Feature","geometry":{"type":"Point","coordinates":[77.5393,9.1698]},"properties":{"district":"Tenkasi","taluk":"Sankarankoil (Tk)","village":"Sankarankovil","name":"Kalgumalai  Road","area_type":"Urban","shop_code":"27CC004PY","search_string":"  sankarankoil (tk) tenkasi "},"bbox":[77.5393,9.1698,77.5393,9.1698]},{"type":"Feature","geometry":{"type":"Point","coordinates":[77.5376,9.1701]},"properties":{"district":"Tenkasi","taluk":"Sankarankoil (Tk)","village":"Sankarankovil","name":"Ambedkar New 1St Street","area_type":"Urban","shop_code":"27CC001PN","search_string":"  sankarankoil (tk) tenkasi "},"bbox":[77.5376,9.1701,77.5376,9.1701]},{"type":"Feature","geometry":{"type":"Point","coordinates":[77.5315,9.1701]},"properties":{"district":"Tenkasi","taluk":"Sankarankoil (Tk)","village":"Sankarankovil","name":"96 Samysanathi Sankarankovil","area_type":"Urban","shop_code":"27CL001PN","search_string":"  sankarankoil (tk) tenkasi "},"bbox":[77.5315,9.1701,77.5315,9.1701]},{"type":"Feature","geometry":{"type":"Point","coordinates":[77.5449,9.1702]},"properties":{"district":"Tenkasi","taluk":"Sankarankoil (Tk)","village":"Sankarankovil","name":"Gaethamillath puthu  1 Street ii","area_type":"Urban","shop_code":"27CC019PN","search_string":"  sankarankoil (tk) tenkasi "},"bbox":[77.5449,9.1702,77.5449,9.1702]},{"type":"Feature","geometry":{"type":"Point","coordinates":[77.5375,9.1712]},"properties":{"district":"Tenkasi","taluk":"Sankarankoil (Tk)","village":"Sankarankovil","name":"Gaethamillath Puthu  1 Street","area_type":"Urban","shop_code":"27CC003PN","search_string":"  sankarankoil (tk) tenkasi "},"bbox":[77.5375,9.1712,77.5375,9.1712]},{"type":"Feature","geometry":{"type":"Point","coordinates":[77.5376,9.1722]},"properties":{"district":"Tenkasi","taluk":"Sankarankoil (Tk)","village":"Sankarankovil","name":"Ambedkar New 2nd Street","area_type":"Urban","shop_code":"27CC002PN","search_string":"  sankarankoil (tk) tenkasi "},"bbox":[77.5376,9.1722,77.5376,9.1722]},{"type":"Feature","geometry":{"type":"Point","coordinates":[77.5368,9.1739]},"properties":{"district":"Tenkasi","taluk":"Sankarankoil (Tk)","village":"Sankarankovil","name":"Vadakasi amman koil Street","area_type":"Urban","shop_code":"27CC020PN","search_string":"  sankarankoil (tk) tenkasi "},"bbox":[77.5368,9.1739,77.5368,9.1739]},{"type":"Feature","geometry":{"type":"Point","coordinates":[77.5335,9.1741]},"properties":{"district":"Tenkasi","taluk":"Sankarankoil (Tk)","village":"Sankarankovil","name":"Senivasha Compound","area_type":"Urban","shop_code":"27CL002PY","search_string":"  sankarankoil (tk) tenkasi "},"bbox":[77.5335,9.1741,77.5335,9.1741]},{"type":"Feature","geometry":{"type":"Point","coordinates":[77.5333,9.1741]},"properties":{"district":"Tenkasi","taluk":"Sankarankoil (Tk)","village":"Sankarankovil","name":"Srinivasa Compound","area_type":"Urban","shop_code":"27CA001PN","search_string":"  sankarankoil (tk) tenkasi "},"bbox":[77.5333,9.1741,77.5333,9.1741]},{"type":"Feature","geometry":{"type":"Point","coordinates":[77.5339,9.1743]},"properties":{"district":"Tenkasi","taluk":"Sankarankoil (Tk)","village":"Sankarankovil","name":"South Pudur","area_type":"Rural","shop_code":"27CL002P1","search_string":"  sankarankoil (tk) tenkasi "},"bbox":[77.5339,9.1743,77.5339,9.1743]},{"type":"Feature","geometry":{"type":"Point","coordinates":[77.5437,9.1748]},"properties":{"district":"Tenkasi","taluk":"Sankarankoil (Tk)","village":"Sankarankovil","name":"Krishnasami Veedhi","area_type":"Urban","shop_code":"27CA003PN","search_string":"  sankarankoil (tk) tenkasi "},"bbox":[77.5437,9.1748,77.5437,9.1748]},{"type":"Feature","geometry":{"type":"Point","coordinates":[77.5358,9.1755]},"properties":{"district":"Tenkasi","taluk":"Sankarankoil (Tk)","village":"Karivalamvanthanallur","name":"156-10 Karivalamvanthanallur Store-1","area_type":"Rural","shop_code":"27CP012PY","search_string":"  sankarankoil (tk) tenkasi "},"bbox":[77.5358,9.1755,77.5358,9.1755]},{"type":"Feature","geometry":{"type":"Point","coordinates":[77.5359,9.1755]},"properties":{"district":"Tenkasi","taluk":"Sankarankoil (Tk)","village":"Sankarankovil","name":"Main Road Sankarankovil","area_type":"Urban","shop_code":"27CC015PN","search_string":"  sankarankoil (tk) tenkasi "},"bbox":[77.5359,9.1755,77.5359,9.1755]},{"type":"Feature","geometry":{"type":"Point","coordinates":[77.5377,9.176]},"properties":{"district":"Tenkasi","taluk":"Sankarankoil (Tk)","village":"Sankarankovil","name":"Lakshmipuram Sankarankoil","area_type":"Urban","shop_code":"27CA002PN","search_string":"  sankarankoil (tk) tenkasi "},"bbox":[77.5377,9.176,77.5377,9.176]},{"type":"Feature","geometry":{"type":"Point","coordinates":[77.5364,9.178]},"properties":{"district":"Tenkasi","taluk":"Sankarankoil (Tk)","village":"Sankarankovil","name":"Gomathiapuram puthu  2 Street","area_type":"Urban","shop_code":"27CC014PN","search_string":"  sankarankoil (tk) tenkasi "},"bbox":[77.5364,9.178,77.5364,9.178]},{"type":"Feature","geometry":{"type":"Point","coordinates":[77.568,9.1787]},"properties":{"district":"Tenkasi","taluk":"Sankarankoil (Tk)","village":"Kalappakulam","name":"Seevalarainandal","area_type":"Rural","shop_code":"27CP037P2","search_string":"  sankarankoil (tk) tenkasi "},"bbox":[77.568,9.1787,77.568,9.1787]},{"type":"Feature","geometry":{"type":"Point","coordinates":[77.532,9.1792]},"properties":{"district":"Tenkasi","taluk":"Sankarankoil (Tk)","village":"Sankarankovil","name":"Senivasha Compound Two","area_type":"Urban","shop_code":"27CL003PN","search_string":"  sankarankoil (tk) tenkasi "},"bbox":[77.532,9.1792,77.532,9.1792]},{"type":"Feature","geometry":{"type":"Point","coordinates":[77.543,9.1794]},"properties":{"district":"Tenkasi","taluk":"Sankarankoil (Tk)","village":"Sankarankovil","name":"Ilavankulam road","area_type":"Urban","shop_code":"27CA007PN","search_string":"  sankarankoil (tk) tenkasi "},"bbox":[77.543,9.1794,77.543,9.1794]},{"type":"Feature","geometry":{"type":"Point","coordinates":[77.4951,9.181]},"properties":{"district":"Tenkasi","taluk":"Sankarankoil (Tk)","village":"Vadakkupudoor","name":"Irumankulam","area_type":"Rural","shop_code":"27CP007P1","search_string":"  sankarankoil (tk) tenkasi "},"bbox":[77.4951,9.181,77.4951,9.181]},{"type":"Feature","geometry":{"type":"Point","coordinates":[77.5059,9.1818]},"properties":{"district":"Tenkasi","taluk":"Sankarankoil (Tk)","village":"Vadakkupudoor","name":"Vadakkupudoor","area_type":"Rural","shop_code":"27CP007PY","search_string":"  sankarankoil (tk) tenkasi "},"bbox":[77.5059,9.1818,77.5059,9.1818]},{"type":"Feature","geometry":{"type":"Point","coordinates":[77.5604,9.1865]},"properties":{"district":"Tenkasi","taluk":"Sankarankoil (Tk)","village":"Kalappakulam","name":"Kalappakulam","area_type":"Rural","shop_code":"27CP037PY","search_string":"  sankarankoil (tk) tenkasi "},"bbox":[77.5604,9.1865,77.5604,9.1865]},{"type":"Feature","geometry":{"type":"Point","coordinates":[77.4775,9.1867]},"properties":{"district":"Tenkasi","taluk":"Sankarankoil (Tk)","village":"Veeriruppu","name":"Veeriruppu","area_type":"Rural","shop_code":"27CP009PY","search_string":"  sankarankoil (tk) tenkasi "},"bbox":[77.4775,9.1867,77.4775,9.1867]},{"type":"Feature","geometry":{"type":"Point","coordinates":[77.4773,9.187]},"properties":{"district":"Tenkasi","taluk":"Sankarankoil (Tk)","village":"Veeriruppu","name":"Adidravidar colony","area_type":"Rural","shop_code":"27CP009P1","search_string":"  sankarankoil (tk) tenkasi "},"bbox":[77.4773,9.187,77.4773,9.187]},{"type":"Feature","geometry":{"type":"Point","coordinates":[77.5419,9.1872]},"properties":{"district":"Tenkasi","taluk":"Sankarankoil (Tk)","village":"Kalappakulam","name":"Bharathinagar","area_type":"Rural","shop_code":"27CP045PN","search_string":"  sankarankoil (tk) tenkasi "},"bbox":[77.5419,9.1872,77.5419,9.1872]},{"type":"Feature","geometry":{"type":"Point","coordinates":[77.5319,9.1873]},"properties":{"district":"Tenkasi","taluk":"Sankarankoil (Tk)","village":"Kalappakulam","name":"N G O Colany","area_type":"Rural","shop_code":"27CC017PN","search_string":"  sankarankoil (tk) tenkasi "},"bbox":[77.5319,9.1873,77.5319,9.1873]},{"type":"Feature","geometry":{"type":"Point","coordinates":[77.5201,9.1896]},"properties":{"district":"Tenkasi","taluk":"Sankarankoil (Tk)","village":"Vadakkupudoor","name":"Atchampatti","area_type":"Rural","shop_code":"27CP007P2","search_string":"  sankarankoil (tk) tenkasi "},"bbox":[77.5201,9.1896,77.5201,9.1896]},{"type":"Feature","geometry":{"type":"Point","coordinates":[77.5428,9.199]},"properties":{"district":"Tenkasi","taluk":"Sankarankoil (Tk)","village":"Kalappakulam","name":"Puliampatti","area_type":"Rural","shop_code":"27CP039PN","search_string":"  sankarankoil (tk) tenkasi "},"bbox":[77.5428,9.199,77.5428,9.199]},{"type":"Feature","geometry":{"type":"Point","coordinates":[77.5467,9.2133]},"properties":{"district":"Tenkasi","taluk":"Sankarankoil (Tk)","village":"Vadikottai","name":"Nainapuram","area_type":"Rural","shop_code":"27CC006P1","search_string":"  sankarankoil (tk) tenkasi "},"bbox":[77.5467,9.2133,77.5467,9.2133]},{"type":"Feature","geometry":{"type":"Point","coordinates":[77.5209,9.2221]},"properties":{"district":"Tenkasi","taluk":"Sankarankoil (Tk)","village":"Vadikottai","name":"Vadikottai","area_type":"Rural","shop_code":"27CC006PY","search_string":"  sankarankoil (tk) tenkasi "},"bbox":[77.5209,9.2221,77.5209,9.2221]},{"type":"Feature","geometry":{"type":"Point","coordinates":[77.4983,9.2248]},"properties":{"district":"Tenkasi","taluk":"Sankarankoil (Tk)","village":"Perpattur","name":"Punnaivanaperi","area_type":"Rural","shop_code":"27CA005P2","search_string":"  sankarankoil (tk) tenkasi "},"bbox":[77.4983,9.2248,77.4983,9.2248]},{"type":"Feature","geometry":{"type":"Point","coordinates":[77.5498,9.2256]},"properties":{"district":"Tenkasi","taluk":"Sankarankoil (Tk)","village":"Manalur","name":"Manalur","area_type":"Rural","shop_code":"27CC005PN","search_string":"  sankarankoil (tk) tenkasi "},"bbox":[77.5498,9.2256,77.5498,9.2256]},{"type":"Feature","geometry":{"type":"Point","coordinates":[77.5317,9.227]},"properties":{"district":"Tenkasi","taluk":"Sankarankoil (Tk)","village":"Perpattur","name":"Perpattur","area_type":"Rural","shop_code":"27CA005PY","search_string":"  sankarankoil (tk) tenkasi "},"bbox":[77.5317,9.227,77.5317,9.227]},{"type":"Feature","geometry":{"type":"Point","coordinates":[77.4934,9.2273]},"properties":{"district":"Tenkasi","taluk":"Sankarankoil (Tk)","village":"Periur","name":"Periur","area_type":"Rural","shop_code":"27CP038PN","search_string":"  sankarankoil (tk) tenkasi "},"bbox":[77.4934,9.2273,77.4934,9.2273]},{"type":"Feature","geometry":{"type":"Point","coordinates":[77.5158,9.2379]},"properties":{"district":"Tenkasi","taluk":"Sankarankoil (Tk)","village":"Perpattur","name":"Ramalingapuram","area_type":"Rural","shop_code":"27CA005P1","search_string":"  sankarankoil (tk) tenkasi "},"bbox":[77.5158,9.2379,77.5158,9.2379]},{"type":"Feature","geometry":{"type":"Point","coordinates":[77.5893,9.2559]},"properties":{"district":"Tenkasi","taluk":"Sankarankoil (Tk)","village":"Vayali","name":"Vayali Women Shop","area_type":"Rural","shop_code":"27CW001PN","search_string":"  sankarankoil (tk) tenkasi "},"bbox":[77.5893,9.2559,77.5893,9.2559]},{"type":"Feature","geometry":{"type":"Point","coordinates":[77.5657,9.2569]},"properties":{"district":"Tenkasi","taluk":"Sankarankoil (Tk)","village":"Karivalamvanthanallur","name":"Chennikulum","area_type":"Rural","shop_code":"27CP010PY","search_string":"  sankarankoil (tk) tenkasi "},"bbox":[77.5657,9.2569,77.5657,9.2569]},{"type":"Feature","geometry":{"type":"Point","coordinates":[77.539,9.2584]},"properties":{"district":"Tenkasi","taluk":"Sankarankoil (Tk)","village":"Guvalaikanni","name":"Guvalaikanni","area_type":"Rural","shop_code":"27CC007PN","search_string":"  sankarankoil (tk) tenkasi "},"bbox":[77.539,9.2584,77.539,9.2584]},{"type":"Feature","geometry":{"type":"Point","coordinates":[77.5952,9.2598]},"properties":{"district":"Tenkasi","taluk":"Sankarankoil (Tk)","village":"Vayali","name":"Subbulapurum","area_type":"Rural","shop_code":"27CP011PY","search_string":"  sankarankoil (tk) tenkasi "},"bbox":[77.5952,9.2598,77.5952,9.2598]},{"type":"Feature","geometry":{"type":"Point","coordinates":[77.589,9.2604]},"properties":{"district":"Tenkasi","taluk":"Sankarankoil (Tk)","village":"Vayali","name":"Pudusubbulapurum","area_type":"Rural","shop_code":"27CP011P2","search_string":"  sankarankoil (tk) tenkasi "},"bbox":[77.589,9.2604,77.589,9.2604]},{"type":"Feature","geometry":{"type":"Point","coordinates":[77.4943,9.2612]},"properties":{"district":"Tenkasi","taluk":"Sankarankoil (Tk)","village":"Paniur","name":"Paniur","area_type":"Rural","shop_code":"27CC009PY","search_string":"  sankarankoil (tk) tenkasi "},"bbox":[77.4943,9.2612,77.4943,9.2612]},{"type":"Feature","geometry":{"type":"Point","coordinates":[77.5134,9.2638]},"properties":{"district":"Tenkasi","taluk":"Sankarankoil (Tk)","village":"Paniur","name":"Sokkalingapuram","area_type":"Rural","shop_code":"27CC009P1","search_string":"  sankarankoil (tk) tenkasi "},"bbox":[77.5134,9.2638,77.5134,9.2638]},{"type":"Feature","geometry":{"type":"Point","coordinates":[77.5305,9.2639]},"properties":{"district":"Tenkasi","taluk":"Sankarankoil (Tk)","village":"Karivalamvanthanallur","name":"Oppinayalpuram","area_type":"Rural","shop_code":"27CP012P1","search_string":"  sankarankoil (tk) tenkasi "},"bbox":[77.5305,9.2639,77.5305,9.2639]},{"type":"Feature","geometry":{"type":"Point","coordinates":[77.5966,9.2663]},"properties":{"district":"Tenkasi","taluk":"Sankarankoil (Tk)","village":"Vayali","name":"Samsiapuram","area_type":"Rural","shop_code":"27CP011P1","search_string":"  sankarankoil (tk) tenkasi "},"bbox":[77.5966,9.2663,77.5966,9.2663]},{"type":"Feature","geometry":{"type":"Point","coordinates":[77.5396,9.2721]},"properties":{"district":"Tenkasi","taluk":"Sankarankoil (Tk)","village":"Karivalamvanthanallur","name":"15-2 Karivalamvanthanallur Store-2","area_type":"Rural","shop_code":"27CP013PN","search_string":"  sankarankoil (tk) tenkasi "},"bbox":[77.5396,9.2721,77.5396,9.2721]},{"type":"Feature","geometry":{"type":"Point","coordinates":[77.5634,9.2767]},"properties":{"district":"Tenkasi","taluk":"Sankarankoil (Tk)","village":"Karivalamvanthanallur","name":"Subramaniapuram","area_type":"Rural","shop_code":"27CP010P1","search_string":"  sankarankoil (tk) tenkasi "},"bbox":[77.5634,9.2767,77.5634,9.2767]},{"type":"Feature","geometry":{"type":"Point","coordinates":[77.4831,9.2796]},"properties":{"district":"Tenkasi","taluk":"Sankarankoil (Tk)","village":"Paniur","name":"Vayalimitta","area_type":"Rural","shop_code":"27CC009P2","search_string":"  sankarankoil (tk) tenkasi "},"bbox":[77.4831,9.2796,77.4831,9.2796]},{"type":"Feature","geometry":{"type":"Point","coordinates":[77.515,9.2839]},"properties":{"district":"Tenkasi","taluk":"Sankarankoil (Tk)","village":"Paniur","name":"Gomathimuthupuram","area_type":"Rural","shop_code":"27CC010PN","search_string":"  sankarankoil (tk) tenkasi "},"bbox":[77.515,9.2839,77.515,9.2839]},{"type":"Feature","geometry":{"type":"Point","coordinates":[77.548,9.2906]},"properties":{"district":"Tenkasi","taluk":"Sankarankoil (Tk)","village":"Paruvagudi","name":"Paruvagudi","area_type":"Rural","shop_code":"27CC011PY","search_string":"  sankarankoil (tk) tenkasi "},"bbox":[77.548,9.2906,77.548,9.2906]},{"type":"Feature","geometry":{"type":"Point","coordinates":[77.5309,9.3017]},"properties":{"district":"Tenkasi","taluk":"Sankarankoil (Tk)","village":"Paruvagudi","name":"Atticheri","area_type":"Rural","shop_code":"27CC011P1","search_string":"  sankarankoil (tk) tenkasi "},"bbox":[77.5309,9.3017,77.5309,9.3017]},{"type":"Feature","geometry":{"type":"Point","coordinates":[77.558,9.3139]},"properties":{"district":"Tenkasi","taluk":"Sankarankoil (Tk)","village":"Panthapulli","name":"P Rattiarpatti","area_type":"Rural","shop_code":"27CC012PY","search_string":"  sankarankoil (tk) tenkasi "},"bbox":[77.558,9.3139,77.558,9.3139]},{"type":"Feature","geometry":{"type":"Point","coordinates":[77.5669,9.3209]},"properties":{"district":"Tenkasi","taluk":"Sankarankoil (Tk)","village":"Panthapulli","name":"Panthapulli","area_type":"Rural","shop_code":"27CC018PN","search_string":"  sankarankoil (tk) tenkasi "},"bbox":[77.5669,9.3209,77.5669,9.3209]},{"type":"Feature","geometry":{"type":"Point","coordinates":[77.5474,9.3376]},"properties":{"district":"Tenkasi","taluk":"Sankarankoil (Tk)","village":"Panthapulli","name":"Solaiseri","area_type":"Rural","shop_code":"27CC012P2","search_string":"  sankarankoil (tk) tenkasi "},"bbox":[77.5474,9.3376,77.5474,9.3376]},{"type":"Feature","geometry":{"type":"Point","coordinates":[77.584,9.3444]},"properties":{"district":"Tenkasi","taluk":"Sankarankoil (Tk)","village":"Panthapulli","name":"Senthadiarpuram","area_type":"Rural","shop_code":"27CC012P1","search_string":"  sankarankoil (tk) tenkasi "},"bbox":[77.584,9.3444,77.584,9.3444]},{"type":"Feature","geometry":{"type":"Point","coordinates":[77.5463,9.3471]},"properties":{"district":"Tenkasi","taluk":"Sankarankoil (Tk)","village":"perumalpatti","name":"perumalpatti","area_type":"Rural","shop_code":"27CC008PY","search_string":"  sankarankoil (tk) tenkasi "},"bbox":[77.5463,9.3471,77.5463,9.3471]},{"type":"Feature","geometry":{"type":"Point","coordinates":[77.5736,9.3472]},"properties":{"district":"Tenkasi","taluk":"Sankarankoil (Tk)","village":"Vazavandanpuram","name":"Vazavandanpuram","area_type":"Rural","shop_code":"27CC008P1","search_string":"  sankarankoil (tk) tenkasi "},"bbox":[77.5736,9.3472,77.5736,9.3472]},{"type":"Feature","geometry":{"type":"Point","coordinates":[77.5239,9.3557]},"properties":{"district":"Tenkasi","taluk":"Sankarankoil (Tk)","village":"perumalpatti","name":"Mangudi","area_type":"Rural","shop_code":"27CC013PN","search_string":"  sankarankoil (tk) tenkasi "},"bbox":[77.5239,9.3557,77.5239,9.3557]},{"type":"Feature","geometry":{"type":"Point","coordinates":[77.543,9.3719]},"properties":{"district":"Tenkasi","taluk":"Sankarankoil (Tk)","village":"Vazavandanpuram","name":"Varanaramapuram","area_type":"Rural","shop_code":"27CC008P2","search_string":"  sankarankoil (tk) tenkasi "},"bbox":[77.543,9.3719,77.543,9.3719]},{"type":"Feature","geometry":{"type":"Point","coordinates":[77.2616,8.9608]},"properties":{"district":"Tenkasi","taluk":"Senkottai (Tk)","village":"Vallam","name":"Kalingarcolony","area_type":"Rural","shop_code":"27EC012PN","search_string":"  senkottai (tk) tenkasi "},"bbox":[77.2616,8.9608,77.2616,8.9608]},{"type":"Feature","geometry":{"type":"Point","coordinates":[77.2539,8.9623]},"properties":{"district":"Tenkasi","taluk":"Senkottai (Tk)","village":"Vallam","name":"Vallam","area_type":"Rural","shop_code":"27EA048PN","search_string":"  senkottai (tk) tenkasi "},"bbox":[77.2539,8.9623,77.2539,8.9623]},{"type":"Feature","geometry":{"type":"Point","coordinates":[77.2745,8.965]},"properties":{"district":"Tenkasi","taluk":"Senkottai (Tk)","village":"Sumaitheerthapuram","name":"Kottakulam","area_type":"Rural","shop_code":"27EA027PN","search_string":"  senkottai (tk) tenkasi "},"bbox":[77.2745,8.965,77.2745,8.965]},{"type":"Feature","geometry":{"type":"Point","coordinates":[77.251,8.9692]},"properties":{"district":"Tenkasi","taluk":"Senkottai (Tk)","village":"Senkottai","name":"Senkottai 2","area_type":"Urban","shop_code":"27EA002PN","search_string":"  senkottai (tk) tenkasi "},"bbox":[77.251,8.9692,77.251,8.9692]},{"type":"Feature","geometry":{"type":"Point","coordinates":[77.2392,8.9697]},"properties":{"district":"Tenkasi","taluk":"Senkottai (Tk)","village":"Senkottai","name":"Kathiravan colony","area_type":"Urban","shop_code":"27EA001P1","search_string":"  senkottai (tk) tenkasi "},"bbox":[77.2392,8.9697,77.2392,8.9697]},{"type":"Feature","geometry":{"type":"Point","coordinates":[77.242,8.9713]},"properties":{"district":"Tenkasi","taluk":"Senkottai (Tk)","village":"Senkottai","name":"Senkottai 5","area_type":"Urban","shop_code":"27EA003PN","search_string":"  senkottai (tk) tenkasi "},"bbox":[77.242,8.9713,77.242,8.9713]},{"type":"Feature","geometry":{"type":"Point","coordinates":[77.2637,8.9715]},"properties":{"district":"Tenkasi","taluk":"Senkottai (Tk)","village":"Piranoor","name":"Piranoor","area_type":"Rural","shop_code":"27EA047PN","search_string":"  senkottai (tk) tenkasi "},"bbox":[77.2637,8.9715,77.2637,8.9715]},{"type":"Feature","geometry":{"type":"Point","coordinates":[77.245,8.9719]},"properties":{"district":"Tenkasi","taluk":"Senkottai (Tk)","village":"Senkottai","name":"Senkottai 1","area_type":"Urban","shop_code":"27EA001PY","search_string":"  senkottai (tk) tenkasi "},"bbox":[77.245,8.9719,77.245,8.9719]},{"type":"Feature","geometry":{"type":"Point","coordinates":[77.2508,8.9742]},"properties":{"district":"Tenkasi","taluk":"Senkottai (Tk)","village":"Senkottai","name":"Senkottai   3","area_type":"Urban","shop_code":"27EL001PN","search_string":"  senkottai (tk) tenkasi "},"bbox":[77.2508,8.9742,77.2508,8.9742]},{"type":"Feature","geometry":{"type":"Point","coordinates":[77.2505,8.9744]},"properties":{"district":"Tenkasi","taluk":"Senkottai (Tk)","village":"Senkottai","name":"Senkottai  1","area_type":"Urban","shop_code":"27EP001PY","search_string":"  senkottai (tk) tenkasi "},"bbox":[77.2505,8.9744,77.2505,8.9744]},{"type":"Feature","geometry":{"type":"Point","coordinates":[77.2482,8.9747]},"properties":{"district":"Tenkasi","taluk":"Senkottai (Tk)","village":"Senkottai","name":"Senkottai   4","area_type":"Urban","shop_code":"27EL002PN","search_string":"  senkottai (tk) tenkasi "},"bbox":[77.2482,8.9747,77.2482,8.9747]},{"type":"Feature","geometry":{"type":"Point","coordinates":[77.2555,8.9765]},