{"type":"FeatureCollection","features":[{"type":"Feature","geometry":{"type":"Point","coordinates":[79.2104,10.7303]},"properties":{"district":"Thanjavur","taluk":"Thanjavur (Tk)","village":"Kattur","name":"Kattur","area_type":"Rural","shop_code":"19AP068PN","search_string":"  thanjavur (tk) thanjavur "},"bbox":[79.2104,10.7303,79.2104,10.7303]},{"type":"Feature","geometry":{"type":"Point","coordinates":[78.9504,10.6757]},"properties":{"district":"Thanjavur","taluk":"Budalur","village":"Achampatti","name":"Achampatti","area_type":"Rural","shop_code":"19IP073PN","search_string":"  budalur thanjavur "},"bbox":[78.9504,10.6757,78.9504,10.6757]},{"type":"Feature","geometry":{"type":"Point","coordinates":[78.9064,10.6925]},"properties":{"district":"Thanjavur","taluk":"Budalur","village":"Puthukudi South","name":"Puthukudi South","area_type":"Rural","shop_code":"19IP078PN","search_string":"  budalur thanjavur "},"bbox":[78.9064,10.6925,78.9064,10.6925]},{"type":"Feature","geometry":{"type":"Point","coordinates":[78.9736,10.6937]},"properties":{"district":"Thanjavur","taluk":"Budalur","village":"T B Sanatoriyam","name":"T.B.Sanatorium","area_type":"Rural","shop_code":"19IP085PN","search_string":"  budalur thanjavur "},"bbox":[78.9736,10.6937,78.9736,10.6937]},{"type":"Feature","geometry":{"type":"Point","coordinates":[78.9437,10.7]},"properties":{"district":"Thanjavur","taluk":"Budalur","village":"Koonampatti","name":"Koonampatti","area_type":"Rural","shop_code":"19IP075P1","search_string":"  budalur thanjavur "},"bbox":[78.9437,10.7,78.9437,10.7]},{"type":"Feature","geometry":{"type":"Point","coordinates":[78.9317,10.701]},"properties":{"district":"Thanjavur","taluk":"Budalur","village":"Palayapatti South","name":"Palaiyapatti South","area_type":"Rural","shop_code":"19IP075PY","search_string":"  budalur thanjavur "},"bbox":[78.9317,10.701,78.9317,10.701]},{"type":"Feature","geometry":{"type":"Point","coordinates":[78.9022,10.7089]},"properties":{"district":"Thanjavur","taluk":"Budalur","village":"Thurusupatti","name":"Thurusupatti","area_type":"Rural","shop_code":"19IP076P1","search_string":"  budalur thanjavur "},"bbox":[78.9022,10.7089,78.9022,10.7089]},{"type":"Feature","geometry":{"type":"Point","coordinates":[78.9582,10.7093]},"properties":{"district":"Thanjavur","taluk":"Budalur","village":"Sengipatti","name":"Sengippatti","area_type":"Rural","shop_code":"19IP038PY","search_string":"  budalur thanjavur "},"bbox":[78.9582,10.7093,78.9582,10.7093]},{"type":"Feature","geometry":{"type":"Point","coordinates":[78.9158,10.711]},"properties":{"district":"Thanjavur","taluk":"Budalur","village":"Palayapattai North","name":"Palaiyapatti North","area_type":"Rural","shop_code":"19IP076PY","search_string":"  budalur thanjavur "},"bbox":[78.9158,10.711,78.9158,10.711]},{"type":"Feature","geometry":{"type":"Point","coordinates":[78.9728,10.7123]},"properties":{"district":"Thanjavur","taluk":"Budalur","village":"Ayyothipatti","name":"Ayyothipatti","area_type":"Rural","shop_code":"19IP038P1","search_string":"  budalur thanjavur "},"bbox":[78.9728,10.7123,78.9728,10.7123]},{"type":"Feature","geometry":{"type":"Point","coordinates":[78.9542,10.716]},"properties":{"district":"Thanjavur","taluk":"Budalur","village":"Sanurapatti","name":"Sanurpatti","area_type":"Rural","shop_code":"19IP074PY","search_string":"  budalur thanjavur "},"bbox":[78.9542,10.716,78.9542,10.716]},{"type":"Feature","geometry":{"type":"Point","coordinates":[78.917,10.7214]},"properties":{"district":"Thanjavur","taluk":"Budalur","village":"Valampakudi Part","name":"Valampakudi Part","area_type":"Rural","shop_code":"19IP110PN","search_string":"  budalur thanjavur "},"bbox":[78.917,10.7214,78.917,10.7214]},{"type":"Feature","geometry":{"type":"Point","coordinates":[78.884,10.7234]},"properties":{"district":"Thanjavur","taluk":"Budalur","village":"Puthukudi","name":"Puthukudi","area_type":"Rural","shop_code":"19IP113PN","search_string":"  budalur thanjavur "},"bbox":[78.884,10.7234,78.884,10.7234]},{"type":"Feature","geometry":{"type":"Point","coordinates":[78.9635,10.7314]},"properties":{"district":"Thanjavur","taluk":"Budalur","village":"Chinnamuthantipatti","name":"Chinnamuthantipatti","area_type":"Rural","shop_code":"19IP006PN","search_string":"  budalur thanjavur "},"bbox":[78.9635,10.7314,78.9635,10.7314]},{"type":"Feature","geometry":{"type":"Point","coordinates":[78.9475,10.7343]},"properties":{"district":"Thanjavur","taluk":"Budalur","village":"Puthukariyapatti","name":"Puthukariyapatti","area_type":"Rural","shop_code":"19IP074P1","search_string":"  budalur thanjavur "},"bbox":[78.9475,10.7343,78.9475,10.7343]},{"type":"Feature","geometry":{"type":"Point","coordinates":[78.9181,10.7349]},"properties":{"district":"Thanjavur","taluk":"Budalur","village":"Maneiyaripatti","name":"Manaiyeripatti","area_type":"Rural","shop_code":"19IP077PN","search_string":"  budalur thanjavur "},"bbox":[78.9181,10.7349,78.9181,10.7349]},{"type":"Feature","geometry":{"type":"Point","coordinates":[78.8884,10.735]},"properties":{"district":"Thanjavur","taluk":"Budalur","village":"Puthukudi North","name":"Puthukudi North","area_type":"Rural","shop_code":"19IP039PY","search_string":"  budalur thanjavur "},"bbox":[78.8884,10.735,78.8884,10.735]},{"type":"Feature","geometry":{"type":"Point","coordinates":[78.9877,10.7405]},"properties":{"district":"Thanjavur","taluk":"Budalur","village":"Ayyasamypatti","name":"Ayyasamypatti","area_type":"Rural","shop_code":"19IP104PN","search_string":"  budalur thanjavur "},"bbox":[78.9877,10.7405,78.9877,10.7405]},{"type":"Feature","geometry":{"type":"Point","coordinates":[78.9608,10.7481]},"properties":{"district":"Thanjavur","taluk":"Budalur","village":"Nanthavanpatti","name":"Nanthavanpatti","area_type":"Rural","shop_code":"19IP041PN","search_string":"  budalur thanjavur "},"bbox":[78.9608,10.7481,78.9608,10.7481]},{"type":"Feature","geometry":{"type":"Point","coordinates":[78.9766,10.749]},"properties":{"district":"Thanjavur","taluk":"Budalur","village":"Puthupatti","name":"Puthupatti","area_type":"Rural","shop_code":"19IP099PN","search_string":"  budalur thanjavur "},"bbox":[78.9766,10.749,78.9766,10.749]},{"type":"Feature","geometry":{"type":"Point","coordinates":[78.9929,10.7517]},"properties":{"district":"Thanjavur","taluk":"Budalur","village":"Maruthakudi","name":"Maruthakudi","area_type":"Rural","shop_code":"19IP064PN","search_string":"  budalur thanjavur "},"bbox":[78.9929,10.7517,78.9929,10.7517]},{"type":"Feature","geometry":{"type":"Point","coordinates":[78.9593,10.7573]},"properties":{"district":"Thanjavur","taluk":"Budalur","village":"Avarampattai","name":"Avarampatti","area_type":"Rural","shop_code":"19IP002PN","search_string":"  budalur thanjavur "},"bbox":[78.9593,10.7573,78.9593,10.7573]},{"type":"Feature","geometry":{"type":"Point","coordinates":[78.9997,10.7624]},"properties":{"district":"Thanjavur","taluk":"Budalur","village":"Sellappanpettai","name":"Sellappanpettai","area_type":"Rural","shop_code":"19IP005PN","search_string":"  budalur thanjavur "},"bbox":[78.9997,10.7624,78.9997,10.7624]},{"type":"Feature","geometry":{"type":"Point","coordinates":[78.961,10.7626]},"properties":{"district":"Thanjavur","taluk":"Budalur","village":"Muthuveerakanpatti","name":"Muthuveerakan Patti","area_type":"Rural","shop_code":"19IP043PN","search_string":"  budalur thanjavur "},"bbox":[78.961,10.7626,78.961,10.7626]},{"type":"Feature","geometry":{"type":"Point","coordinates":[78.961,10.7626]},"properties":{"district":"Thanjavur","taluk":"Budalur","village":"Veeramarasanpatti","name":"Veeramarasanpettai","area_type":"Rural","shop_code":"19IP042PN","search_string":"  budalur thanjavur "},"bbox":[78.961,10.7626,78.961,10.7626]},{"type":"Feature","geometry":{"type":"Point","coordinates":[78.9379,10.763]},"properties":{"district":"Thanjavur","taluk":"Budalur","village":"Indalur","name":"KOTTARAPATTI","area_type":"Rural","shop_code":"19IP008PN","search_string":"  budalur thanjavur "},"bbox":[78.9379,10.763,78.9379,10.763]},{"type":"Feature","geometry":{"type":"Point","coordinates":[78.912,10.7636]},"properties":{"district":"Thanjavur","taluk":"Budalur","village":"Vediyampattai","name":"Vendaiyampatti","area_type":"Rural","shop_code":"19IP084PN","search_string":"  budalur thanjavur "},"bbox":[78.912,10.7636,78.912,10.7636]},{"type":"Feature","geometry":{"type":"Point","coordinates":[78.8952,10.7656]},"properties":{"district":"Thanjavur","taluk":"Budalur","village":"Rayamutanpatti","name":"Rayamundanpatti","area_type":"Rural","shop_code":"19IP082PY","search_string":"  budalur thanjavur "},"bbox":[78.8952,10.7656,78.8952,10.7656]},{"type":"Feature","geometry":{"type":"Point","coordinates":[78.8969,10.7732]},"properties":{"district":"Thanjavur","taluk":"Budalur","village":"Sorakodipatti","name":"Sorakodipatti","area_type":"Rural","shop_code":"19IP083PN","search_string":"  budalur thanjavur "},"bbox":[78.8969,10.7732,78.8969,10.7732]},{"type":"Feature","geometry":{"type":"Point","coordinates":[78.9808,10.7774]},"properties":{"district":"Thanjavur","taluk":"Budalur","village":"Budhalur","name":"Budhalur.3","area_type":"Rural","shop_code":"19IP107PN","search_string":"  budalur thanjavur "},"bbox":[78.9808,10.7774,78.9808,10.7774]},{"type":"Feature","geometry":{"type":"Point","coordinates":[78.9833,10.7847]},"properties":{"district":"Thanjavur","taluk":"Budalur","village":"Kovilpathu","name":"Kovilpathu","area_type":"Rural","shop_code":"19IP045PN","search_string":"  budalur thanjavur "},"bbox":[78.9833,10.7847,78.9833,10.7847]},{"type":"Feature","geometry":{"type":"Point","coordinates":[79.0061,10.7856]},"properties":{"district":"Thanjavur","taluk":"Budalur","village":"Chithirakudi","name":"Chithirakkudi","area_type":"Rural","shop_code":"19IP007PN","search_string":"  budalur thanjavur "},"bbox":[79.0061,10.7856,79.0061,10.7856]},{"type":"Feature","geometry":{"type":"Point","coordinates":[78.9257,10.7866]},"properties":{"district":"Thanjavur","taluk":"Budalur","village":"Vinnoorpatti","name":"Vinnanoorpatti","area_type":"Rural","shop_code":"19IP102PN","search_string":"  budalur thanjavur "},"bbox":[78.9257,10.7866,78.9257,10.7866]},{"type":"Feature","geometry":{"type":"Point","coordinates":[78.9794,10.788]},"properties":{"district":"Thanjavur","taluk":"Budalur","village":"Budhalur","name":"Budhalur 1","area_type":"Rural","shop_code":"19IP003PN","search_string":"  budalur thanjavur "},"bbox":[78.9794,10.788,78.9794,10.788]},{"type":"Feature","geometry":{"type":"Point","coordinates":[78.9397,10.7883]},"properties":{"district":"Thanjavur","taluk":"Budalur","village":"Periyakankeyanpatti","name":"Periykankeyampatti","area_type":"Rural","shop_code":"19IP044PN","search_string":"  budalur thanjavur "},"bbox":[78.9397,10.7883,78.9397,10.7883]},{"type":"Feature","geometry":{"type":"Point","coordinates":[78.8964,10.792]},"properties":{"district":"Thanjavur","taluk":"Budalur","village":"Solagampatti","name":"Solagampatti","area_type":"Rural","shop_code":"19IP047PN","search_string":"  budalur thanjavur "},"bbox":[78.8964,10.792,78.8964,10.792]},{"type":"Feature","geometry":{"type":"Point","coordinates":[78.978,10.7951]},"properties":{"district":"Thanjavur","taluk":"Budalur","village":"Budhalur","name":"Budhalur 2","area_type":"Rural","shop_code":"19IP004PN","search_string":"  budalur thanjavur "},"bbox":[78.978,10.7951,78.978,10.7951]},{"type":"Feature","geometry":{"type":"Point","coordinates":[79.0087,10.7967]},"properties":{"district":"Thanjavur","taluk":"Budalur","village":"Gunamangalam","name":"Gunamangalam","area_type":"Rural","shop_code":"19IP088PN","search_string":"  budalur thanjavur "},"bbox":[79.0087,10.7967,79.0087,10.7967]},{"type":"Feature","geometry":{"type":"Point","coordinates":[78.8875,10.8057]},"properties":{"district":"Thanjavur","taluk":"Budalur","village":"Ponvilaithapatti","name":"Ponvilaithanpatti","area_type":"Rural","shop_code":"19IP115PN","search_string":"  budalur thanjavur "},"bbox":[78.8875,10.8057,78.8875,10.8057]},{"type":"Feature","geometry":{"type":"Point","coordinates":[79.019,10.8071]},"properties":{"district":"Thanjavur","taluk":"Budalur","village":"Rayathur","name":"Rayanthur","area_type":"Rural","shop_code":"19IP046PN","search_string":"  budalur thanjavur "},"bbox":[79.019,10.8071,79.019,10.8071]},{"type":"Feature","geometry":{"type":"Point","coordinates":[78.9592,10.8077]},"properties":{"district":"Thanjavur","taluk":"Budalur","village":"Budharayanallur","name":"Butharayanallur","area_type":"Rural","shop_code":"19IP052PN","search_string":"  budalur thanjavur "},"bbox":[78.9592,10.8077,78.9592,10.8077]},{"type":"Feature","geometry":{"type":"Point","coordinates":[78.973,10.809]},"properties":{"district":"Thanjavur","taluk":"Budalur","village":"Vinnamangalam","name":"Vinnamangalam","area_type":"Rural","shop_code":"19IP118PN","search_string":"  budalur thanjavur "},"bbox":[78.973,10.809,78.973,10.809]},{"type":"Feature","geometry":{"type":"Point","coordinates":[78.9366,10.8095]},"properties":{"district":"Thanjavur","taluk":"Budalur","village":"Nathamangalam","name":"Nathamankalam","area_type":"Rural","shop_code":"19IP023PN","search_string":"  budalur thanjavur "},"bbox":[78.9366,10.8095,78.9366,10.8095]},{"type":"Feature","geometry":{"type":"Point","coordinates":[78.8739,10.8126]},"properties":{"district":"Thanjavur","taluk":"Budalur","village":"Nedukulam Part","name":"Nedukulam Prat","area_type":"Rural","shop_code":"19IP100PN","search_string":"  budalur thanjavur "},"bbox":[78.8739,10.8126,78.8739,10.8126]},{"type":"Feature","geometry":{"type":"Point","coordinates":[78.9318,10.813]},"properties":{"district":"Thanjavur","taluk":"Budalur","village":"Orathur","name":"Orathur","area_type":"Rural","shop_code":"19IP022PN","search_string":"  budalur thanjavur "},"bbox":[78.9318,10.813,78.9318,10.813]},{"type":"Feature","geometry":{"type":"Point","coordinates":[78.9081,10.8135]},"properties":{"district":"Thanjavur","taluk":"Budalur","village":"Maraneri","name":"Maraneri","area_type":"Rural","shop_code":"19IP053PN","search_string":"  budalur thanjavur "},"bbox":[78.9081,10.8135,78.9081,10.8135]},{"type":"Feature","geometry":{"type":"Point","coordinates":[78.9035,10.8168]},"properties":{"district":"Thanjavur","taluk":"Budalur","village":"Kadampankudi","name":"Kadampankudi","area_type":"Rural","shop_code":"19IP018PN","search_string":"  budalur thanjavur "},"bbox":[78.9035,10.8168,78.9035,10.8168]},{"type":"Feature","geometry":{"type":"Point","coordinates":[79.0069,10.8186]},"properties":{"district":"Thanjavur","taluk":"Budalur","village":"Kalumangalam","name":"Kalumangalam","area_type":"Rural","shop_code":"19IP013PN","search_string":"  budalur thanjavur "},"bbox":[79.0069,10.8186,79.0069,10.8186]},{"type":"Feature","geometry":{"type":"Point","coordinates":[78.95,10.819]},"properties":{"district":"Thanjavur","taluk":"Budalur","village":"Arcod","name":"Arkadu","area_type":"Rural","shop_code":"19IP036PN","search_string":"  budalur thanjavur "},"bbox":[78.95,10.819,78.95,10.819]},{"type":"Feature","geometry":{"type":"Point","coordinates":[78.8824,10.8194]},"properties":{"district":"Thanjavur","taluk":"Budalur","village":"Kottarapatti","name":"INDALUR","area_type":"Rural","shop_code":"19IP009PN","search_string":"  budalur thanjavur "},"bbox":[78.8824,10.8194,78.8824,10.8194]},{"type":"Feature","geometry":{"type":"Point","coordinates":[78.9067,10.8208]},"properties":{"district":"Thanjavur","taluk":"Budalur","village":"Megalathur","name":"Megalathur","area_type":"Rural","shop_code":"19IP020PN","search_string":"  budalur thanjavur "},"bbox":[78.9067,10.8208,78.9067,10.8208]},{"type":"Feature","geometry":{"type":"Point","coordinates":[78.9833,10.823]},"properties":{"district":"Thanjavur","taluk":"Budalur","village":"Adanjur","name":"Adanjur","area_type":"Rural","shop_code":"19IP049PN","search_string":"  budalur thanjavur "},"bbox":[78.9833,10.823,78.9833,10.823]},{"type":"Feature","geometry":{"type":"Point","coordinates":[78.8972,10.8273]},"properties":{"district":"Thanjavur","taluk":"Budalur","village":"Katchamangalam","name":"Kachamankalam","area_type":"Rural","shop_code":"19IP021PN","search_string":"  budalur thanjavur "},"bbox":[78.8972,10.8273,78.8972,10.8273]},{"type":"Feature","geometry":{"type":"Point","coordinates":[78.9667,10.8278]},"properties":{"district":"Thanjavur","taluk":"Budalur","village":"Vengadasamuthiram","name":"Venkadasamuthiram-1","area_type":"Rural","shop_code":"19IP116PN","search_string":"  budalur thanjavur "},"bbox":[78.9667,10.8278,78.9667,10.8278]},{"type":"Feature","geometry":{"type":"Point","coordinates":[78.8564,10.8281]},"properties":{"district":"Thanjavur","taluk":"Budalur","village":"Pathirakudi","name":"Pathirakudi","area_type":"Rural","shop_code":"19IP062PY","search_string":"  budalur thanjavur "},"bbox":[78.8564,10.8281,78.8564,10.8281]},{"type":"Feature","geometry":{"type":"Point","coordinates":[78.9987,10.8285]},"properties":{"district":"Thanjavur","taluk":"Budalur","village":"Ammiyaagram","name":"Ammaiyakaram","area_type":"Rural","shop_code":"19IP119PY","search_string":"  budalur thanjavur "},"bbox":[78.9987,10.8285,78.9987,10.8285]},{"type":"Feature","geometry":{"type":"Point","coordinates":[78.8747,10.83]},"properties":{"district":"Thanjavur","taluk":"Budalur","village":"Seiyamangalam","name":"Seiyyamangalam","area_type":"Rural","shop_code":"19IP062P1","search_string":"  budalur thanjavur "},"bbox":[78.8747,10.83,78.8747,10.83]},{"type":"Feature","geometry":{"type":"Point","coordinates":[78.8109,10.8304]},"properties":{"district":"Thanjavur","taluk":"Budalur","village":"Thogur","name":"Thogur","area_type":"Rural","shop_code":"19IP061PY","search_string":"  budalur thanjavur "},"bbox":[78.8109,10.8304,78.8109,10.8304]},{"type":"Feature","geometry":{"type":"Point","coordinates":[78.9512,10.8309]},"properties":{"district":"Thanjavur","taluk":"Budalur","village":"Theetchasamuthiram","name":"Theetchasamuthiram","area_type":"Rural","shop_code":"19IP037PN","search_string":"  budalur thanjavur "},"bbox":[78.9512,10.8309,78.9512,10.8309]},{"type":"Feature","geometry":{"type":"Point","coordinates":[78.8238,10.8329]},"properties":{"district":"Thanjavur","taluk":"Budalur","village":"Kalanai","name":"Kallanai","area_type":"Rural","shop_code":"19IP061P1","search_string":"  budalur thanjavur "},"bbox":[78.8238,10.8329,78.8238,10.8329]},{"type":"Feature","geometry":{"type":"Point","coordinates":[78.9337,10.8335]},"properties":{"district":"Thanjavur","taluk":"Budalur","village":"Renganathapuram","name":"Renganathapuram","area_type":"Rural","shop_code":"19IP120PN","search_string":"  budalur thanjavur "},"bbox":[78.9337,10.8335,78.9337,10.8335]},{"type":"Feature","geometry":{"type":"Point","coordinates":[78.9272,10.8352]},"properties":{"district":"Thanjavur","taluk":"Budalur","village":"Rajagiri","name":"Rajakiri","area_type":"Rural","shop_code":"19IP072PN","search_string":"  budalur thanjavur "},"bbox":[78.9272,10.8352,78.9272,10.8352]},{"type":"Feature","geometry":{"type":"Point","coordinates":[78.9583,10.839]},"properties":{"district":"Thanjavur","taluk":"Budalur","village":"Koodananal","name":"Koodananal","area_type":"Urban","shop_code":"19IE008PN","search_string":"  budalur thanjavur "},"bbox":[78.9583,10.839,78.9583,10.839]},{"type":"Feature","geometry":{"type":"Point","coordinates":[78.9775,10.8402]},"properties":{"district":"Thanjavur","taluk":"Budalur","village":"Vengadasamuthiram","name":"Venkadasamuthiram-2","area_type":"Rural","shop_code":"19IP117PN","search_string":"  budalur thanjavur "},"bbox":[78.9775,10.8402,78.9775,10.8402]},{"type":"Feature","geometry":{"type":"Point","coordinates":[78.8628,10.8403]},"properties":{"district":"Thanjavur","taluk":"Budalur","village":"Sukkabar","name":"Sukkamabar","area_type":"Rural","shop_code":"19IP081PN","search_string":"  budalur thanjavur "},"bbox":[78.8628,10.8403,78.8628,10.8403]},{"type":"Feature","geometry":{"type":"Point","coordinates":[78.8874,10.8404]},"properties":{"district":"Thanjavur","taluk":"Budalur","village":"Koviladi","name":"Koviladi","area_type":"Rural","shop_code":"19IP028PN","search_string":"  budalur thanjavur "},"bbox":[78.8874,10.8404,78.8874,10.8404]},{"type":"Feature","geometry":{"type":"Point","coordinates":[78.9088,10.8448]},"properties":{"district":"Thanjavur","taluk":"Budalur","village":"Agarapettai","name":"Agarappettai","area_type":"Rural","shop_code":"19IP060PN","search_string":"  budalur thanjavur "},"bbox":[78.9088,10.8448,78.9088,10.8448]},{"type":"Feature","geometry":{"type":"Point","coordinates":[78.9219,10.8469]},"properties":{"district":"Thanjavur","taluk":"Budalur","village":"Nemam","name":"Nemam","area_type":"Rural","shop_code":"19IP058PN","search_string":"  budalur thanjavur "},"bbox":[78.9219,10.8469,78.9219,10.8469]},{"type":"Feature","geometry":{"type":"Point","coordinates":[78.9624,10.8475]},"properties":{"district":"Thanjavur","taluk":"Budalur","village":"Thirukattupalli","name":"Thirukkattuppalli-3","area_type":"Urban","shop_code":"19IE003PN","search_string":"  budalur thanjavur "},"bbox":[78.9624,10.8475,78.9624,10.8475]},{"type":"Feature","geometry":{"type":"Point","coordinates":[78.9386,10.8477]},"properties":{"district":"Thanjavur","taluk":"Budalur","village":"Palamanerzhi","name":"Palamarneri","area_type":"Rural","shop_code":"19IP059PN","search_string":"  budalur thanjavur "},"bbox":[78.9386,10.8477,78.9386,10.8477]},{"type":"Feature","geometry":{"type":"Point","coordinates":[78.9698,10.8499]},"properties":{"district":"Thanjavur","taluk":"Budalur","village":"Michaelpatti","name":"Michaelpatti","area_type":"Rural","shop_code":"19IE004PN","search_string":"  budalur thanjavur "},"bbox":[78.9698,10.8499,78.9698,10.8499]},{"type":"Feature","geometry":{"type":"Point","coordinates":[78.9539,10.8501]},"properties":{"district":"Thanjavur","taluk":"Budalur","village":"Thirukattupalli","name":"Thirukattuppalli-2","area_type":"Urban","shop_code":"19IE002PN","search_string":"  budalur thanjavur "},"bbox":[78.9539,10.8501,78.9539,10.8501]},{"type":"Feature","geometry":{"type":"Point","coordinates":[78.9579,10.8504]},"properties":{"district":"Thanjavur","taluk":"Budalur","village":"Onpathuveli","name":"Onpathuvaeli-2","area_type":"Urban","shop_code":"19IE007PN","search_string":"  budalur thanjavur "},"bbox":[78.9579,10.8504,78.9579,10.8504]},{"type":"Feature","geometry":{"type":"Point","coordinates":[78.954,10.8521]},"properties":{"district":"Thanjavur","taluk":"Budalur","village":"Thirukattupalli","name":"Thirukattuppalli-1","area_type":"Urban","shop_code":"19IE001PN","search_string":"  budalur thanjavur "},"bbox":[78.954,10.8521,78.954,10.8521]},{"type":"Feature","geometry":{"type":"Point","coordinates":[78.9188,10.8528]},"properties":{"district":"Thanjavur","taluk":"Budalur","village":"Thiruchanampoondi","name":"Thiruchinampondi","area_type":"Rural","shop_code":"19IP051PN","search_string":"  budalur thanjavur "},"bbox":[78.9188,10.8528,78.9188,10.8528]},{"type":"Feature","geometry":{"type":"Point","coordinates":[78.9691,10.8551]},"properties":{"district":"Thanjavur","taluk":"Budalur","village":"Nadupadukai","name":"Nadupadukai","area_type":"Urban","shop_code":"19IE006PN","search_string":"  budalur thanjavur "},"bbox":[78.9691,10.8551,78.9691,10.8551]},{"type":"Feature","geometry":{"type":"Point","coordinates":[78.9476,10.8557]},"properties":{"district":"Thanjavur","taluk":"Budalur","village":"Puthusathiram","name":"Puthusathiram","area_type":"Urban","shop_code":"19IE005PN","search_string":"  budalur thanjavur "},"bbox":[78.9476,10.8557,78.9476,10.8557]},{"type":"Feature","geometry":{"type":"Point","coordinates":[78.928,10.86]},"properties":{"district":"Thanjavur","taluk":"Budalur","village":"Elakattupadugai","name":"Elanrattupadugai","area_type":"Rural","shop_code":"19IP125PN","search_string":"  budalur thanjavur "},"bbox":[78.928,10.86,78.928,10.86]},{"type":"Feature","geometry":{"type":"Point","coordinates":[78.9419,10.8654]},"properties":{"district":"Thanjavur","taluk":"Budalur","village":"Alamelupuram","name":"Alamelupuram","area_type":"Rural","shop_code":"19IP050PN","search_string":"  budalur thanjavur "},"bbox":[78.9419,10.8654,78.9419,10.8654]},{"type":"Feature","geometry":{"type":"Point","coordinates":[78.9534,10.8673]},"properties":{"district":"Thanjavur","taluk":"Budalur","village":"Vishnampettai","name":"Vishnampettai","area_type":"Rural","shop_code":"19IP122PN","search_string":"  budalur thanjavur "},"bbox":[78.9534,10.8673,78.9534,10.8673]},{"type":"Feature","geometry":{"type":"Point","coordinates":[78.9614,10.8687]},"properties":{"district":"Thanjavur","taluk":"Budalur","village":"Pavanamangalam","name":"Bavanamangalam","area_type":"Rural","shop_code":"19IP123PN","search_string":"  budalur thanjavur "},"bbox":[78.9614,10.8687,78.9614,10.8687]},{"type":"Feature","geometry":{"type":"Point","coordinates":[78.9757,10.8704]},"properties":{"district":"Thanjavur","taluk":"Budalur","village":"Koothur","name":"Koothur","area_type":"Rural","shop_code":"19IP056PN","search_string":"  budalur thanjavur "},"bbox":[78.9757,10.8704,78.9757,10.8704]},{"type":"Feature","geometry":{"type":"Point","coordinates":[78.9721,10.8822]},"properties":{"district":"Thanjavur","taluk":"Budalur","village":"Villapuram","name":"Vittalapuram","area_type":"Rural","shop_code":"19IP124PN","search_string":"  budalur thanjavur "},"bbox":[78.9721,10.8822,78.9721,10.8822]},{"type":"Feature","geometry":{"type":"Point","coordinates":[78.9772,10.8836]},"properties":{"district":"Thanjavur","taluk":"Budalur","village":"Vanarankudi","name":"Vanarakudi","area_type":"Rural","shop_code":"19IP055PY","search_string":"  budalur thanjavur "},"bbox":[78.9772,10.8836,78.9772,10.8836]},{"type":"Feature","geometry":{"type":"Point","coordinates":[79.4665,10.8718]},"properties":{"district":"Thanjavur","taluk":"Kumbakonam (Tk)","village":"Naloor","name":"Naloor","area_type":"Rural","shop_code":"19DD118P1","search_string":"  kumbakonam (tk) thanjavur "},"bbox":[79.4665,10.8718,79.4665,10.8718]},{"type":"Feature","geometry":{"type":"Point","coordinates":[79.4541,10.8756]},"properties":{"district":"Thanjavur","taluk":"Kumbakonam (Tk)","village":"Ingikollai","name":"Ingikollai - 2","area_type":"Rural","shop_code":"19DD118PY","search_string":"  kumbakonam (tk) thanjavur "},"bbox":[79.4541,10.8756,79.4541,10.8756]},{"type":"Feature","geometry":{"type":"Point","coordinates":[79.4406,10.8773]},"properties":{"district":"Thanjavur","taluk":"Kumbakonam (Tk)","village":"Panthi","name":"Panthi","area_type":"Rural","shop_code":"19DD099P1","search_string":"  kumbakonam (tk) thanjavur "},"bbox":[79.4406,10.8773,79.4406,10.8773]},{"type":"Feature","geometry":{"type":"Point","coordinates":[79.4559,10.8782]},"properties":{"district":"Thanjavur","taluk":"Kumbakonam (Tk)","village":"Ingikollai","name":"Inngikollai - 1","area_type":"Rural","shop_code":"19DD099PY","search_string":"  kumbakonam (tk) thanjavur "},"bbox":[79.4559,10.8782,79.4559,10.8782]},{"type":"Feature","geometry":{"type":"Point","coordinates":[79.4338,10.8846]},"properties":{"district":"Thanjavur","taluk":"Kumbakonam (Tk)","village":"Nagarasampettai","name":"Nagarasampettai","area_type":"Rural","shop_code":"19DD109PY","search_string":"  kumbakonam (tk) thanjavur "},"bbox":[79.4338,10.8846,79.4338,10.8846]},{"type":"Feature","geometry":{"type":"Point","coordinates":[79.4573,10.888]},"properties":{"district":"Thanjavur","taluk":"Kumbakonam (Tk)","village":"Semmangudi","name":"Semmangudi","area_type":"Rural","shop_code":"19DD115PN","search_string":"  kumbakonam (tk) thanjavur "},"bbox":[79.4573,10.888,79.4573,10.888]},{"type":"Feature","geometry":{"type":"Point","coordinates":[79.4398,10.8909]},"properties":{"district":"Thanjavur","taluk":"Kumbakonam (Tk)","village":"Keezha Visaloor","name":"Keezha Visaloor","area_type":"Rural","shop_code":"19DD109P1","search_string":"  kumbakonam (tk) thanjavur "},"bbox":[79.4398,10.8909,79.4398,10.8909]},{"type":"Feature","geometry":{"type":"Point","coordinates":[79.4495,10.8912]},"properties":{"district":"Thanjavur","taluk":"Kumbakonam (Tk)","village":"Vanduvancherry","name":"Vanduvancherry","area_type":"Rural","shop_code":"19DD122PN","search_string":"  kumbakonam (tk) thanjavur "},"bbox":[79.4495,10.8912,79.4495,10.8912]},{"type":"Feature","geometry":{"type":"Point","coordinates":[79.4375,10.8932]},"properties":{"district":"Thanjavur","taluk":"Kumbakonam (Tk)","village":"Dhandalam","name":"Dhandalam","area_type":"Rural","shop_code":"19DD116PY","search_string":"  kumbakonam (tk) thanjavur "},"bbox":[79.4375,10.8932,79.4375,10.8932]},{"type":"Feature","geometry":{"type":"Point","coordinates":[79.3794,10.8966]},"properties":{"district":"Thanjavur","taluk":"Kumbakonam (Tk)","village":"Thillaiyambur","name":"Thillaiyambur","area_type":"Rural","shop_code":"19DD082PY","search_string":"  kumbakonam (tk) thanjavur "},"bbox":[79.3794,10.8966,79.3794,10.8966]},{"type":"Feature","geometry":{"type":"Point","coordinates":[79.4135,10.8979]},"properties":{"district":"Thanjavur","taluk":"Kumbakonam (Tk)","village":"Visaloor","name":"Visaloor","area_type":"Rural","shop_code":"19DD125PN","search_string":"  kumbakonam (tk) thanjavur "},"bbox":[79.4135,10.8979,79.4135,10.8979]},{"type":"Feature","geometry":{"type":"Point","coordinates":[79.4007,10.8994]},"properties":{"district":"Thanjavur","taluk":"Kumbakonam (Tk)","village":"Madagudi","name":"Madagudi","area_type":"Rural","shop_code":"19DD082P1","search_string":"  kumbakonam (tk) thanjavur "},"bbox":[79.4007,10.8994,79.4007,10.8994]},{"type":"Feature","geometry":{"type":"Point","coordinates":[79.4975,10.8999]},"properties":{"district":"Thanjavur","taluk":"Kumbakonam (Tk)","village":"Perappadi","name":"Perappadi","area_type":"Rural","shop_code":"19DD110P1","search_string":"  kumbakonam (tk) thanjavur "},"bbox":[79.4975,10.8999,79.4975,10.8999]},{"type":"Feature","geometry":{"type":"Point","coordinates":[79.4031,10.9009]},"properties":{"district":"Thanjavur","taluk":"Kumbakonam (Tk)","village":"Parutthicherry","name":"Parutthicherry","area_type":"Rural","shop_code":"19DD110PY","search_string":"  kumbakonam (tk) thanjavur "},"bbox":[79.4031,10.9009,79.4031,10.9009]},{"type":"Feature","geometry":{"type":"Point","coordinates":[79.449,10.9067]},"properties":{"district":"Thanjavur","taluk":"Kumbakonam (Tk)","village":"Maatthur","name":"Maatthur","area_type":"Rural","shop_code":"19DD108PN","search_string":"  kumbakonam (tk) thanjavur "},"bbox":[79.449,10.9067,79.449,10.9067]},{"type":"Feature","geometry":{"type":"Point","coordinates":[79.4211,10.907]},"properties":{"district":"Thanjavur","taluk":"Kumbakonam (Tk)","village":"Koliyakudi","name":"Koliyakudi","area_type":"Rural","shop_code":"19DD116P1","search_string":"  kumbakonam (tk) thanjavur "},"bbox":[79.4211,10.907,79.4211,10.907]},{"type":"Feature","geometry":{"type":"Point","coordinates":[79.4817,10.9071]},"properties":{"district":"Thanjavur","taluk":"Kumbakonam (Tk)","village":"Hoohur","name":"Hoohur","area_type":"Rural","shop_code":"19DD106P2","search_string":"  kumbakonam (tk) thanjavur "},"bbox":[79.4817,10.9071,79.4817,10.9071]},{"type":"Feature","geometry":{"type":"Point","coordinates":[79.404,10.908]},"properties":{"district":"Thanjavur","taluk":"Kumbakonam (Tk)","village":"Thippirajapuram","name":"Thippirajapuram","area_type":"Rural","shop_code":"19DD084PN","search_string":"  kumbakonam (tk) thanjavur "},"bbox":[79.404,10.908,79.404,10.908]},{"type":"Feature","geometry":{"type":"Point","coordinates":[79.4695,10.9119]},"properties":{"district":"Thanjavur","taluk":"Kumbakonam (Tk)","village":"Kotthangudi","name":"Kotthangudi","area_type":"Rural","shop_code":"19DD106PY","search_string":"  kumbakonam (tk) thanjavur "},"bbox":[79.4695,10.9119,79.4695,10.9119]},{"type":"Feature","geometry":{"type":"Point","coordinates":[79.3718,10.9119]},"properties":{"district":"Thanjavur","taluk":"Kumbakonam (Tk)","village":"Udaiyalur","name":"Udaiyalur","area_type":"Rural","shop_code":"19DD087PN","search_string":"  kumbakonam (tk) thanjavur "},"bbox":[79.3718,10.9119,79.3718,10.9119]},{"type":"Feature","geometry":{"type":"Point","coordinates":[79.3423,10.9126]},"properties":{"district":"Thanjavur","taluk":"Kumbakonam (Tk)","village":"Thenampadugai","name":"Thenampadugai","area_type":"Rural","shop_code":"19DD078P1","search_string":"  kumbakonam (tk) thanjavur "},"bbox":[79.3423,10.9126,79.3423,10.9126]},{"type":"Feature","geometry":{"type":"Point","coordinates":[79.4487,10.915]},"properties":{"district":"Thanjavur","taluk":"Kumbakonam (Tk)","village":"Natchiarkoil","name":"Natchiarkoil 1","area_type":"Rural","shop_code":"19DD127PN","search_string":"  kumbakonam (tk) thanjavur "},"bbox":[79.4487,10.915,79.4487,10.915]},{"type":"Feature","geometry":{"type":"Point","coordinates":[79.4256,10.9164]},"properties":{"district":"Thanjavur","taluk":"Kumbakonam (Tk)","village":"Enanallur","name":"Enanallur","area_type":"Rural","shop_code":"19DD098PN","search_string":"  kumbakonam (tk) thanjavur "},"bbox":[79.4256,10.9164,79.4256,10.9164]},{"type":"Feature","geometry":{"type":"Point","coordinates":[79.4646,10.9174]},"properties":{"district":"Thanjavur","taluk":"Kumbakonam (Tk)","village":"Covanur","name":"Covanur","area_type":"Rural","shop_code":"19DD104PY","search_string":"  kumbakonam (tk) thanjavur "},"bbox":[79.4646,10.9174,79.4646,10.9174]},{"type":"Feature","geometry":{"type":"Point","coordinates":[79.447,10.9192]},"properties":{"district":"Thanjavur","taluk":"Kumbakonam (Tk)","village":"Natchiarkoil","name":"Natchiarkoil - 2","area_type":"Rural","shop_code":"19DD128PN","search_string":"  kumbakonam (tk) thanjavur "},"bbox":[79.447,10.9192,79.447,10.9192]},{"type":"Feature","geometry":{"type":"Point","coordinates":[79.4456,10.9204]},"properties":{"district":"Thanjavur","taluk":"Kumbakonam (Tk)","village":"Iyyankuttai","name":"Iyyankuttai","area_type":"Rural","shop_code":"19DD157PN","search_string":"  kumbakonam (tk) thanjavur "},"bbox":[79.4456,10.9204,79.4456,10.9204]},{"type":"Feature","geometry":{"type":"Point","coordinates":[79.4407,10.9223]},"properties":{"district":"Thanjavur","taluk":"Kumbakonam (Tk)","village":"Thirunaraiyur","name":"Thirunaraiyur","area_type":"Rural","shop_code":"19DD119PN","search_string":"  kumbakonam (tk) thanjavur "},"bbox":[79.4407,10.9223,79.4407,10.9223]},{"type":"Feature","geometry":{"type":"Point","coordinates":[79.3641,10.9225]},"properties":{"district":"Thanjavur","taluk":"Kumbakonam (Tk)","village":"Keelappalaiyar","name":"Keelappalaiyar Mahalir Mandram","area_type":"Rural","shop_code":"19DW004PN","search_string":"  kumbakonam (tk) thanjavur "},"bbox":[79.3641,10.9225,79.3641,10.9225]},{"type":"Feature","geometry":{"type":"Point","coordinates":[79.3443,10.9236]},"properties":{"district":"Thanjavur","taluk":"Kumbakonam (Tk)","village":"Patteeswaram","name":"Patteeswaram 1","area_type":"Rural","shop_code":"19DD075PN","search_string":"  kumbakonam (tk) thanjavur "},"bbox":[79.3443,10.9236,79.3443,10.9236]},{"type":"Feature","geometry":{"type":"Point","coordinates":[79.4607,10.9252]},"properties":{"district":"Thanjavur","taluk":"Kumbakonam (Tk)","village":"Tukkatchi","name":"Tukkatchi - 1","area_type":"Rural","shop_code":"19DD120PN","search_string":"  kumbakonam (tk) thanjavur "},"bbox":[79.4607,10.9252,79.4607,10.9252]},{"type":"Feature","geometry":{"type":"Point","coordinates":[79.4588,10.9254]},"properties":{"district":"Thanjavur","taluk":"Kumbakonam (Tk)","village":"Kumaramangalam","name":"Kumaramangalam","area_type":"Rural","shop_code":"19DD104P1","search_string":"  kumbakonam (tk) thanjavur "},"bbox":[79.4588,10.9254,79.4588,10.9254]},{"type":"Feature","geometry":{"type":"Point","coordinates":[79.3857,10.9262]},"properties":{"district":"Thanjavur","taluk":"Kumbakonam (Tk)","village":"Puducherry","name":"Puducherry","area_type":"Rural","shop_code":"19DD060PY","search_string":"  kumbakonam (tk) thanjavur "},"bbox":[79.3857,10.9262,79.3857,10.9262]},{"type":"Feature","geometry":{"type":"Point","coordinates":[79.3304,10.9263]},"properties":{"district":"Thanjavur","taluk":"Kumbakonam (Tk)","village":"Thirumettraligai","name":"Thirumettraligai","area_type":"Rural","shop_code":"19DD056PN","search_string":"  kumbakonam (tk) thanjavur "},"bbox":[79.3304,10.9263,79.3304,10.9263]},{"type":"Feature","geometry":{"type":"Point","coordinates":[79.3447,10.9266]},"properties":{"district":"Thanjavur","taluk":"Kumbakonam (Tk)","village":"Patteeswaram","name":"Patteeswaram - 2","area_type":"Rural","shop_code":"19DD132PN","search_string":"  kumbakonam (tk) thanjavur "},"bbox":[79.3447,10.9266,79.3447,10.9266]},{"type":"Feature","geometry":{"type":"Point","coordinates":[79.484,10.9271]},"properties":{"district":"Thanjavur","taluk":"Kumbakonam (Tk)","village":"Tukkatchi","name":"Tukkatchi 2","area_type":"Rural","shop_code":"19DD121PN","search_string":"  kumbakonam (tk) thanjavur "},"bbox":[79.484,10.9271,79.484,10.9271]},{"type":"Feature","geometry":{"type":"Point","coordinates":[79.3807,10.9275]},"properties":{"district":"Thanjavur","taluk":"Kumbakonam (Tk)","village":"Melakorkai","name":"Melakorkai","area_type":"Rural","shop_code":"19DD060P1","search_string":"  kumbakonam (tk) thanjavur "},"bbox":[79.3807,10.9275,79.3807,10.9275]},{"type":"Feature","geometry":{"type":"Point","coordinates":[79.3585,10.9284]},"properties":{"district":"Thanjavur","taluk":"Kumbakonam (Tk)","village":"Pampappadaiyur","name":"Pampappadaiyur","area_type":"Rural","shop_code":"19DD048PN","search_string":"  kumbakonam (tk) thanjavur "},"bbox":[79.3585,10.9284,79.3585,10.9284]},{"type":"Feature","geometry":{"type":"Point","coordinates":[79.3704,10.9292]},"properties":{"district":"Thanjavur","taluk":"Kumbakonam (Tk)","village":"Sesambadi","name":"Sesambadi","area_type":"Rural","shop_code":"19DD077PN","search_string":"  kumbakonam (tk) thanjavur "},"bbox":[79.3704,10.9292,79.3704,10.9292]},{"type":"Feature","geometry":{"type":"Point","coordinates":[79.4293,10.93]},"properties":{"district":"Thanjavur","taluk":"Kumbakonam (Tk)","village":"Azhahaputhur","name":"Azhahaputhur","area_type":"Rural","shop_code":"19DD105P1","search_string":"  kumbakonam (tk) thanjavur "},"bbox":[79.4293,10.93,79.4293,10.93]},{"type":"Feature","geometry":{"type":"Point","coordinates":[79.3433,10.9336]},"properties":{"district":"Thanjavur","taluk":"Kumbakonam (Tk)","village":"Cholanmaligai","name":"Cholanmaligai","area_type":"Rural","shop_code":"19DD078PY","search_string":"  kumbakonam (tk) thanjavur "},"bbox":[79.3433,10.9336,79.3433,10.9336]},{"type":"Feature","geometry":{"type":"Point","coordinates":[79.44,10.9375]},"properties":{"district":"Thanjavur","taluk":"Kumbakonam (Tk)","village":"Sembiyavarambal","name":"Sembiyavarambal","area_type":"Rural","shop_code":"19DD114PY","search_string":"  kumbakonam (tk) thanjavur "},"bbox":[79.44,10.9375,79.44,10.9375]},{"type":"Feature","geometry":{"type":"Point","coordinates":[79.4555,10.9377]},"properties":{"district":"Thanjavur","taluk":"Kumbakonam (Tk)","village":"Thandanthottam","name":"Thandanthottam","area_type":"Rural","shop_code":"19DD117PY","search_string":"  kumbakonam (tk) thanjavur "},"bbox":[79.4555,10.9377,79.4555,10.9377]},{"type":"Feature","geometry":{"type":"Point","coordinates":[79.3038,10.9383]},"properties":{"district":"Thanjavur","taluk":"Kumbakonam (Tk)","village":"Sundaraperumal Koil","name":"Sundaraperumal Koil 1","area_type":"Rural","shop_code":"19DD079PN","search_string":"  kumbakonam (tk) thanjavur "},"bbox":[79.3038,10.9383,79.3038,10.9383]},{"type":"Feature","geometry":{"type":"Point","coordinates":[79.3037,10.9384]},"properties":{"district":"Thanjavur","taluk":"Kumbakonam (Tk)","village":"Sundaraperumal Koil","name":"Sundaraperumal Koil 2","area_type":"Rural","shop_code":"19DD080PN","search_string":"  kumbakonam (tk) thanjavur "},"bbox":[79.3037,10.9384,79.3037,10.9384]},{"type":"Feature","geometry":{"type":"Point","coordinates":[79.3995,10.9395]},"properties":{"district":"Thanjavur","taluk":"Kumbakonam (Tk)","village":"Maruthanallur","name":"Maruthanallur","area_type":"Rural","shop_code":"19DD070PN","search_string":"  kumbakonam (tk) thanjavur "},"bbox":[79.3995,10.9395,79.3995,10.9395]},{"type":"Feature","geometry":{"type":"Point","coordinates":[79.4186,10.94]},"properties":{"district":"Thanjavur","taluk":"Kumbakonam (Tk)","village":"Krishnapuram","name":"Krishnapuram - 2","area_type":"Rural","shop_code":"19DD105PY","search_string":"  kumbakonam (tk) thanjavur "},"bbox":[79.4186,10.94,79.4186,10.94]},{"type":"Feature","geometry":{"type":"Point","coordinates":[79.4026,10.9435]},"properties":{"district":"Thanjavur","taluk":"Kumbakonam (Tk)","village":"Palavathan Kattalai","name":"Palavathankattalai - 2","area_type":"Rural","shop_code":"19DD140PN","search_string":"  kumbakonam (tk) thanjavur "},"bbox":[79.4026,10.9435,79.4026,10.9435]},{"type":"Feature","geometry":{"type":"Point","coordinates":[79.4774,10.9436]},"properties":{"district":"Thanjavur","taluk":"Kumbakonam (Tk)","village":"Puthaharam","name":"Puthaharam","area_type":"Rural","shop_code":"19DD113PY","search_string":"  kumbakonam (tk) thanjavur "},"bbox":[79.4774,10.9436,79.4774,10.9436]},{"type":"Feature","geometry":{"type":"Point","coordinates":[79.3804,10.9438]},"properties":{"district":"Thanjavur","taluk":"Kumbakonam (Tk)","village":"Annalakraharam","name":"Annalahraharam - 2","area_type":"Rural","shop_code":"19DD133PN","search_string":"  kumbakonam (tk) thanjavur "},"bbox":[79.3804,10.9438,79.3804,10.9438]},{"type":"Feature","geometry":{"type":"Point","coordinates":[79.4027,10.944]},"properties":{"district":"Thanjavur","taluk":"Kumbakonam (Tk)","village":"Sakkottai","name":"Sakkottai 1","area_type":"Rural","shop_code":"19DD076PN","search_string":"  kumbakonam (tk) thanjavur "},"bbox":[79.4027,10.944,79.4027,10.944]},{"type":"Feature","geometry":{"type":"Point","coordinates":[79.4066,10.9446]},"properties":{"district":"Thanjavur","taluk":"Kumbakonam (Tk)","village":"Malaiyappanallur","name":"Malaiyappanallur","area_type":"Rural","shop_code":"19DD102P1","search_string":"  kumbakonam (tk) thanjavur "},"bbox":[79.4066,10.9446,79.4066,10.9446]},{"type":"Feature","geometry":{"type":"Point","coordinates":[79.3942,10.9446]},"properties":{"district":"Thanjavur","taluk":"Kumbakonam (Tk)","village":"Sakkottai","name":"Sakkottai - 2","area_type":"Rural","shop_code":"19DD134PN","search_string":"  kumbakonam (tk) thanjavur "},"bbox":[79.3942,10.9446,79.3942,10.9446]},{"type":"Feature","geometry":{"type":"Point","coordinates":[79.3305,10.9461]},"properties":{"district":"Thanjavur","taluk":"Kumbakonam (Tk)","village":"Thiruvalanjuli","name":"Thiruvalanjuli","area_type":"Rural","shop_code":"19DD085PY","search_string":"  kumbakonam (tk) thanjavur "},"bbox":[79.3305,10.9461,79.3305,10.9461]},{"type":"Feature","geometry":{"type":"Point","coordinates":[79.3378,10.9467]},"properties":{"district":"Thanjavur","taluk":"Kumbakonam (Tk)","village":"Thiruvalanzuli","name":"Thiruvalanzuli Mahalir Mandram","area_type":"Rural","shop_code":"19DW002PN","search_string":"  kumbakonam (tk) thanjavur "},"bbox":[79.3378,10.9467,79.3378,10.9467]},{"type":"Feature","geometry":{"type":"Point","coordinates":[79.3525,10.9475]},"properties":{"district":"Thanjavur","taluk":"Kumbakonam (Tk)","village":"Darasuram","name":"Tharasuram 5","area_type":"Urban","shop_code":"19DD156PN","search_string":"  kumbakonam (tk) thanjavur "},"bbox":[79.3525,10.9475,79.3525,10.9475]},{"type":"Feature","geometry":{"type":"Point","coordinates":[79.452,10.9476]},"properties":{"district":"Thanjavur","taluk":"Kumbakonam (Tk)","village":"Murukkangudi","name":"Murukkangudi","area_type":"Rural","shop_code":"19DD143PN","search_string":"  kumbakonam (tk) thanjavur "},"bbox":[79.452,10.9476,79.452,10.9476]},{"type":"Feature","geometry":{"type":"Point","coordinates":[79.4146,10.9484]},"properties":{"district":"Thanjavur","taluk":"Kumbakonam (Tk)","village":"Krishnapuram","name":"Krishnapuram - 1","area_type":"Rural","shop_code":"19DD102PY","search_string":"  kumbakonam (tk) thanjavur "},"bbox":[79.4146,10.9484,79.4146,10.9484]},{"type":"Feature","geometry":{"type":"Point","coordinates":[79.3756,10.9485]},"properties":{"district":"Thanjavur","taluk":"Kumbakonam (Tk)","village":"Kumbakonam","name":"Old Palace Street","area_type":"Urban","shop_code":"19DD026PN","search_string":"  kumbakonam (tk) thanjavur "},"bbox":[79.3756,10.9485,79.3756,10.9485]},{"type":"Feature","geometry":{"type":"Point","coordinates":[79.3787,10.9486]},"properties":{"district":"Thanjavur","taluk":"Kumbakonam (Tk)","village":"Ulloor","name":"Annai Anjugam Nagar","area_type":"Rural","shop_code":"19DD155PN","search_string":"  kumbakonam (tk) thanjavur "},"bbox":[79.3787,10.9486,79.3787,10.9486]},{"type":"Feature","geometry":{"type":"Point","coordinates":[79.3495,10.9487]},"properties":{"district":"Thanjavur","taluk":"Kumbakonam (Tk)","village":"Darasuram","name":"MELACHATHIRAM","area_type":"Urban","shop_code":"19DD137PN","search_string":"  kumbakonam (tk) thanjavur "},"bbox":[79.3495,10.9487,79.3495,10.9487]},{"type":"Feature","geometry":{"type":"Point","coordinates":[79.3787,10.9487]},"properties":{"district":"Thanjavur","taluk":"Kumbakonam (Tk)","village":"Annalakraharam","name":"Annalakraharam 1","area_type":"Rural","shop_code":"19DD047PN","search_string":"  kumbakonam (tk) thanjavur "},"bbox":[79.3787,10.9487,79.3787,10.9487]},{"type":"Feature","geometry":{"type":"Point","coordinates":[79.3677,10.9496]},"properties":{"district":"Thanjavur","taluk":"Kumbakonam (Tk)","village":"Darasuram","name":"Darasuram 3","area_type":"Urban","shop_code":"19DD044PN","search_string":"  kumbakonam (tk) thanjavur "},"bbox":[79.3677,10.9496,79.3677,10.9496]},{"type":"Feature","geometry":{"type":"Point","coordinates":[79.4746,10.9496]},"properties":{"district":"Thanjavur","taluk":"Kumbakonam (Tk)","village":"Irandamkattalai","name":"Irandamkattalai","area_type":"Rural","shop_code":"19DD113P1","search_string":"  kumbakonam (tk) thanjavur "},"bbox":[79.4746,10.9496,79.4746,10.9496]},{"type":"Feature","geometry":{"type":"Point","coordinates":[79.3882,10.95]},"properties":{"district":"Thanjavur","taluk":"Kumbakonam (Tk)","village":"Kumbakonam","name":"South Valluvar Street","area_type":"Urban","shop_code":"19DD038PN","search_string":"  kumbakonam (tk) thanjavur "},"bbox":[79.3882,10.95,79.3882,10.95]},{"type":"Feature","geometry":{"type":"Point","coordinates":[79.3609,10.95]},"properties":{"district":"Thanjavur","taluk":"Kumbakonam (Tk)","village":"Darasuram","name":"Darasuram 2","area_type":"Urban","shop_code":"19DD043PN","search_string":"  kumbakonam (tk) thanjavur "},"bbox":[79.3609,10.95,79.3609,10.95]},{"type":"Feature","geometry":{"type":"Point","coordinates":[79.3757,10.9509]},"properties":{"district":"Thanjavur","taluk":"Kumbakonam (Tk)","village":"Kumbakonam","name":"Thoppu Street","area_type":"Urban","shop_code":"19DD029PN","search_string":"  kumbakonam (tk) thanjavur "},"bbox":[79.3757,10.9509,79.3757,10.9509]},{"type":"Feature","geometry":{"type":"Point","coordinates":[79.3564,10.9513]},"properties":{"district":"Thanjavur","taluk":"Kumbakonam (Tk)","village":"Darasuram","name":"Darasuram - 4","area_type":"Urban","shop_code":"19DD135PN","search_string":"  kumbakonam (tk) thanjavur "},"bbox":[79.3564,10.9513,79.3564,10.9513]},{"type":"Feature","geometry":{"type":"Point","coordinates":[79.3548,10.9513]},"properties":{"district":"Thanjavur","taluk":"Kumbakonam (Tk)","village":"Darasuram","name":"Darasuram 1","area_type":"Urban","shop_code":"19DD042PN","search_string":"  kumbakonam (tk) thanjavur "},"bbox":[79.3548,10.9513,79.3548,10.9513]},{"type":"Feature","geometry":{"type":"Point","coordinates":[79.4363,10.9513]},"properties":{"district":"Thanjavur","taluk":"Kumbakonam (Tk)","village":"Villiavarambal","name":"Villiavarambal","area_type":"Rural","shop_code":"19DD114P1","search_string":"  kumbakonam (tk) thanjavur "},"bbox":[79.4363,10.9513,79.4363,10.9513]},{"type":"Feature","geometry":{"type":"Point","coordinates":[79.378,10.952]},"properties":{"district":"Thanjavur","taluk":"Kumbakonam (Tk)","village":"Kumbakonam","name":"Mela Paruthikkara Street 2","area_type":"Urban","shop_code":"19DD034PN","search_string":"  kumbakonam (tk) thanjavur "},"bbox":[79.378,10.952,79.378,10.952]},{"type":"Feature","geometry":{"type":"Point","coordinates":[79.3777,10.952]},"properties":{"district":"Thanjavur","taluk":"Kumbakonam (Tk)","village":"Kumbakonam","name":"Birmankoil Arasalaru Road","area_type":"Urban","shop_code":"19DD032PN","search_string":"  kumbakonam (tk) thanjavur "},"bbox":[79.3777,10.952,79.3777,10.952]},{"type":"Feature","geometry":{"type":"Point","coordinates":[79.3677,10.9521]},"properties":{"district":"Thanjavur","taluk":"Kumbakonam (Tk)","village":"Kumbakonam","name":"Duvaranchurichi North Street","area_type":"Urban","shop_code":"19DD027PN","search_string":"  kumbakonam (tk) thanjavur "},"bbox":[79.3677,10.9521,79.3677,10.9521]},{"type":"Feature","geometry":{"type":"Point","coordinates":[79.3843,10.9525]},"properties":{"district":"Thanjavur","taluk":"Kumbakonam (Tk)","village":"Kumbakonam","name":"M.C.S.R Street","area_type":"Urban","shop_code":"19DD037PN","search_string":"  kumbakonam (tk) thanjavur "},"bbox":[79.3843,10.9525,79.3843,10.9525]},{"type":"Feature","geometry":{"type":"Point","coordinates":[79.3348,10.953]},"properties":{"district":"Thanjavur","taluk":"Kumbakonam (Tk)","village":"T Mangudi","name":"T.Mangudi","area_type":"Rural","shop_code":"19DD085P1","search_string":"  kumbakonam (tk) thanjavur "},"bbox":[79.3348,10.953,79.3348,10.953]},{"type":"Feature","geometry":{"type":"Point","coordinates":[79.3859,10.9532]},"properties":{"district":"Thanjavur","taluk":"Kumbakonam (Tk)","village":"Kumbakonam","name":"Ellayi Steet","area_type":"Urban","shop_code":"19DD036PN","search_string":"  kumbakonam (tk) thanjavur "},"bbox":[79.3859,10.9532,79.3859,10.9532]},{"type":"Feature","geometry":{"type":"Point","coordinates":[79.398,10.9533]},"properties":{"district":"Thanjavur","taluk":"Kumbakonam (Tk)","village":"Kumbakonam","name":"Needamangalam Street","area_type":"Urban","shop_code":"19DD039PN","search_string":"  kumbakonam (tk) thanjavur "},"bbox":[79.398,10.9533,79.398,10.9533]},{"type":"Feature","geometry":{"type":"Point","coordinates":[79.384,10.9534]},"properties":{"district":"Thanjavur","taluk":"Kumbakonam (Tk)","village":"Kumbakonam","name":"Mela Pandukara Street","area_type":"Urban","shop_code":"19DD035PN","search_string":"  kumbakonam (tk) thanjavur "},"bbox":[79.384,10.9534,79.384,10.9534]},{"type":"Feature","geometry":{"type":"Point","coordinates":[79.3822,10.9535]},"properties":{"district":"Thanjavur","taluk":"Kumbakonam (Tk)","village":"Kumbakonam","name":"Melaparutthikkara Street - 1","area_type":"Urban","shop_code":"19DD033PN","search_string":"  kumbakonam (tk) thanjavur "},"bbox":[79.3822,10.9535,79.3822,10.9535]},{"type":"Feature","geometry":{"type":"Point","coordinates":[79.344,10.9536]},"properties":{"district":"Thanjavur","taluk":"Kumbakonam (Tk)","village":"Valaiyapettai","name":"Valaiyapettai","area_type":"Rural","shop_code":"19DD090PN","search_string":"  kumbakonam (tk) thanjavur "},"bbox":[79.344,10.9536,79.344,10.9536]},{"type":"Feature","geometry":{"type":"Point","coordinates":[79.4972,10.954]},"properties":{"district":"Thanjavur","taluk":"Kumbakonam (Tk)","village":"Ammangudi","name":"Ammangudi","area_type":"Rural","shop_code":"19DD096PY","search_string":"  kumbakonam (tk) thanjavur "},"bbox":[79.4972,10.954,79.4972,10.954]},{"type":"Feature","geometry":{"type":"Point","coordinates":[79.3658,10.9542]},"properties":{"district":"Thanjavur","taluk":"Kumbakonam (Tk)","village":"Kumbakonam","name":"Duvaranchurichi North Street - 2","area_type":"Urban","shop_code":"19DD028PN","search_string":"  kumbakonam (tk) thanjavur "},"bbox":[79.3658,10.9542,79.3658,10.9542]},{"type":"Feature","geometry":{"type":"Point","coordinates":[79.3658,10.9543]},"properties":{"district":"Thanjavur","taluk":"Kumbakonam (Tk)","village":"Kumbakonam","name":"Kambatta Viswanathar North","area_type":"Urban","shop_code":"19DD014PN","search_string":"  kumbakonam (tk) thanjavur "},"bbox":[79.3658,10.9543,79.3658,10.9543]},{"type":"Feature","geometry":{"type":"Point","coordinates":[79.3763,10.9543]},"properties":{"district":"Thanjavur","taluk":"Kumbakonam (Tk)","village":"Kumbakonam","name":"Sowrastra Middle Street","area_type":"Urban","shop_code":"19DD030PN","search_string":"  kumbakonam (tk) thanjavur "},"bbox":[79.3763,10.9543,79.3763,10.9543]},{"type":"Feature","geometry":{"type":"Point","coordinates":[79.3962,10.9545]},"properties":{"district":"Thanjavur","taluk":"Kumbakonam (Tk)","village":"Kumbakonam","name":"Anumarkoil Street","area_type":"Urban","shop_code":"19DD020PN","search_string":"  kumbakonam (tk) thanjavur "},"bbox":[79.3962,10.9545,79.3962,10.9545]},{"type":"Feature","geometry":{"type":"Point","coordinates":[79.3627,10.9547]},"properties":{"district":"Thanjavur","taluk":"Kumbakonam (Tk)","village":"Kumbakonam","name":"Nanayakara Street","area_type":"Urban","shop_code":"19DD013PN","search_string":"  kumbakonam (tk) thanjavur "},"bbox":[79.3627,10.9547,79.3627,10.9547]},{"type":"Feature","geometry":{"type":"Point","coordinates":[79.4166,10.9557]},"properties":{"district":"Thanjavur","taluk":"Kumbakonam (Tk)","village":"Seenivasanallur","name":"Seenivasanallur Mahalir Mandram","area_type":"Rural","shop_code":"19DW001PN","search_string":"  kumbakonam (tk) thanjavur "},"bbox":[79.4166,10.9557,79.4166,10.9557]},{"type":"Feature","geometry":{"type":"Point","coordinates":[79.3246,10.9557]},"properties":{"district":"Thanjavur","taluk":"Kumbakonam (Tk)","village":"Swamimalai","name":"Swamimalai 1","area_type":"Urban","shop_code":"19DD040PN","search_string":"  kumbakonam (tk) thanjavur "},"bbox":[79.3246,10.9557,79.3246,10.9557]},{"type":"Feature","geometry":{"type":"Point","coordinates":[79.4371,10.956]},"properties":{"district":"Thanjavur","taluk":"Kumbakonam (Tk)","village":"Ayyavadi","name":"Ayyavadi","area_type":"Rural","shop_code":"19DD117P1","search_string":"  kumbakonam (tk) thanjavur "},"bbox":[79.4371,10.956,79.4371,10.956]},{"type":"Feature","geometry":{"type":"Point","coordinates":[79.408,10.956]},"properties":{"district":"Thanjavur","taluk":"Kumbakonam (Tk)","village":"Palavathan Kattalai","name":"Palavatthankattalai 1","area_type":"Rural","shop_code":"19DD073PN","search_string":"  kumbakonam (tk) thanjavur "},"bbox":[79.408,10.956,79.408,10.956]},{"type":"Feature","geometry":{"type":"Point","coordinates":[79.363,10.9568]},"properties":{"district":"Thanjavur","taluk":"Kumbakonam (Tk)","village":"Kumbakonam","name":"Nellukadai Street","area_type":"Urban","shop_code":"19DD012PN","search_string":"  kumbakonam (tk) thanjavur "},"bbox":[79.363,10.9568,79.363,10.9568]},{"type":"Feature","geometry":{"type":"Point","coordinates":[79.3766,10.9569]},"properties":{"district":"Thanjavur","taluk":"Kumbakonam (Tk)","village":"Kumbakonam","name":"Sarangapani East Street","area_type":"Urban","shop_code":"19DD024PN","search_string":"  kumbakonam (tk) thanjavur "},"bbox":[79.3766,10.9569,79.3766,10.9569]},{"type":"Feature","geometry":{"type":"Point","coordinates":[79.3768,10.9569]},"properties":{"district":"Thanjavur","taluk":"Kumbakonam (Tk)","village":"Kumbakonam","name":"Birman Koil Kadai Steet","area_type":"Urban","shop_code":"19DD031PN","search_string":"  kumbakonam (tk) thanjavur "},"bbox":[79.3768,10.9569,79.3768,10.9569]},{"type":"Feature","geometry":{"type":"Point","coordinates":[79.3769,10.957]},"properties":{"district":"Thanjavur","taluk":"Kumbakonam (Tk)","village":"Kumbakonam","name":"Nageswaran Thirumanjanaveethi","area_type":"Urban","shop_code":"19DD023PN","search_string":"  kumbakonam (tk) thanjavur "},"bbox":[79.3769,10.957,79.3769,10.957]},{"type":"Feature","geometry":{"type":"Point","coordinates":[79.3716,10.957]},"properties":{"district":"Thanjavur","taluk":"Kumbakonam (Tk)","village":"Kumbakonam","name":"Jamila Complex","area_type":"Urban","shop_code":"19DD025PN","search_string":"  kumbakonam (tk) thanjavur "},"bbox":[79.3716,10.957,79.3716,10.957]},{"type":"Feature","geometry":{"type":"Point","coordinates":[79.4019,10.957]},"properties":{"district":"Thanjavur","taluk":"Kumbakonam (Tk)","village":"Palavathan Kattalai","name":"Palavathan Kattalai 3","area_type":"Rural","shop_code":"19DD159PN","search_string":"  kumbakonam (tk) thanjavur "},"bbox":[79.4019,10.957,79.4019,10.957]},{"type":"Feature","geometry":{"type":"Point","coordinates":[79.3309,10.9573]},"properties":{"district":"Thanjavur","taluk":"Kumbakonam (Tk)","village":"Swamimalai","name":"Swamimalai 2","area_type":"Urban","shop_code":"19DD041PN","search_string":"  kumbakonam (tk) thanjavur "},"bbox":[79.3309,10.9573,79.3309,10.9573]},{"type":"Feature","geometry":{"type":"Point","coordinates":[79.3609,10.9579]},"properties":{"district":"Thanjavur","taluk":"Kumbakonam (Tk)","village":"Kumbakonam","name":"Pettai North Street","area_type":"Urban","shop_code":"19DD011PN","search_string":"  kumbakonam (tk) thanjavur "},"bbox":[79.3609,10.9579,79.3609,10.9579]},{"type":"Feature","geometry":{"type":"Point","coordinates":[79.3663,10.9584]},"properties":{"district":"Thanjavur","taluk":"Kumbakonam (Tk)","village":"Kumbakonam","name":"Kgk Street","area_type":"Urban","shop_code":"19DD015PN","search_string":"  kumbakonam (tk) thanjavur "},"bbox":[79.3663,10.9584,79.3663,10.9584]},{"type":"Feature","geometry":{"type":"Point","coordinates":[79.3832,10.959]},"properties":{"district":"Thanjavur","taluk":"Kumbakonam (Tk)","village":"Kumbakonam","name":"Old Bus Stand","area_type":"Urban","shop_code":"19DD022PN","search_string":"  kumbakonam (tk) thanjavur "},"bbox":[79.3832,10.959,79.3832,10.959]},{"type":"Feature","geometry":{"type":"Point","coordinates":[79.4521,10.9591]},"properties":{"district":"Thanjavur","taluk":"Kumbakonam (Tk)","village":"Poundareegapuram","name":"Poundareegapuram","area_type":"Rural","shop_code":"19DD111PN","search_string":"  kumbakonam (tk) thanjavur "},"bbox":[79.4521,10.9591,79.4521,10.9591]},{"type":"Feature","geometry":{"type":"Point","coordinates":[79.3796,10.9594]},"properties":{"district":"Thanjavur","taluk":"Kumbakonam (Tk)","village":"Keeranur","name":"Keeranur","area_type":"Rural","shop_code":"19DD106P1","search_string":"  kumbakonam (tk) thanjavur "},"bbox":[79.3796,10.9594,79.3796,10.9594]},{"type":"Feature","geometry":{"type":"Point","coordinates":[79.3963,10.9595]},"properties":{"district":"Thanjavur","taluk":"Kumbakonam (Tk)","village":"Kumbakonam","name":"Sri Ram Nagar","area_type":"Urban","shop_code":"19DD019PN","search_string":"  kumbakonam (tk) thanjavur "},"bbox":[79.3963,10.9595,79.3963,10.9595]},{"type":"Feature","geometry":{"type":"Point","coordinates":[79.3839,10.9595]},"properties":{"district":"Thanjavur","taluk":"Kumbakonam (Tk)","village":"Kumbakonam","name":"Uppukkara Street","area_type":"Urban","shop_code":"19DD021PN","search_string":"  kumbakonam (tk) thanjavur "},"bbox":[79.3839,10.9595,79.3839,10.9595]},{"type":"Feature","geometry":{"type":"Point","coordinates":[79.3905,10.9604]},"properties":{"district":"Thanjavur","taluk":"Kumbakonam (Tk)","village":"Kumbakonam","name":"Gandhi Nagar","area_type":"Urban","shop_code":"19DD017PN","search_string":"  kumbakonam (tk) thanjavur "},"bbox":[79.3905,10.9604,79.3905,10.9604]},{"type":"Feature","geometry":{"type":"Point","coordinates":[79.3846,10.9606]},"properties":{"district":"Thanjavur","taluk":"Kumbakonam (Tk)","village":"Kumbakonam","name":"Nageswaran Thirumanjanaveedhi","area_type":"Urban","shop_code":"19DD016PN","search_string":"  kumbakonam (tk) thanjavur "},"bbox":[79.3846,10.9606,79.3846,10.9606]},{"type":"Feature","geometry":{"type":"Point","coordinates":[79.4317,10.9608]},"properties":{"district":"Thanjavur","taluk":"Kumbakonam (Tk)","village":"Thirunageshwaram","name":"Thirunageswaram 3","area_type":"Urban","shop_code":"19DD092PN","search_string":"  kumbakonam (tk) thanjavur "},"bbox":[79.4317,10.9608,79.4317,10.9608]},{"type":"Feature","geometry":{"type":"Point","coordinates":[79.373,10.9609]},"properties":{"district":"Thanjavur","taluk":"Kumbakonam (Tk)","village":"Kumbakonam","name":"Patrachariar Street","area_type":"Urban","shop_code":"19DE004PN","search_string":"  kumbakonam (tk) thanjavur "},"bbox":[79.373,10.9609,79.373,10.9609]},{"type":"Feature","geometry":{"type":"Point","coordinates":[79.3746,10.9621]},"properties":{"district":"Thanjavur","taluk":"Kumbakonam (Tk)","village":"Kumbakonam","name":"Dukkampalaya Street","area_type":"Urban","shop_code":"19DE005PN","search_string":"  kumbakonam (tk) thanjavur "},"bbox":[79.3746,10.9621,79.3746,10.9621]},{"type":"Feature","geometry":{"type":"Point","coordinates":[79.3923,10.9624]},"properties":{"district":"Thanjavur","taluk":"Kumbakonam (Tk)","village":"Kumbakonam","name":"Municipal T-B","area_type":"Urban","shop_code":"19DD018PN","search_string":"  kumbakonam (tk) thanjavur "},"bbox":[79.3923,10.9624,79.3923,10.9624]},{"type":"Feature","geometry":{"type":"Point","coordinates":[79.3813,10.9633]},"properties":{"district":"Thanjavur","taluk":"Kumbakonam (Tk)","village":"Kumbakonam","name":"Yaanaiyadi","area_type":"Urban","shop_code":"19DE006PN","search_string":"  kumbakonam (tk) thanjavur "},"bbox":[79.3813,10.9633,79.3813,10.9633]},{"type":"Feature","geometry":{"type":"Point","coordinates":[79.3695,10.9637]},"properties":{"district":"Thanjavur","taluk":"Kumbakonam (Tk)","village":"Kumbakonam","name":"Reddi Rayar Kulam South Tank","area_type":"Urban","shop_code":"19DD010PN","search_string":"  kumbakonam (tk) thanjavur "},"bbox":[79.3695,10.9637,79.3695,10.9637]},{"type":"Feature","geometry":{"type":"Point","coordinates":[79.4289,10.9647]},"properties":{"district":"Thanjavur","taluk":"Kumbakonam (Tk)","village":"Thirunageshwaram","name":"Thirunageswaram - 1","area_type":"Urban","shop_code":"19DD094PN","search_string":"  kumbakonam (tk) thanjavur "},"bbox":[79.4289,10.9647,79.4289,10.9647]},{"type":"Feature","geometry":{"type":"Point","coordinates":[79.3696,10.9648]},"properties":{"district":"Thanjavur","taluk":"Kumbakonam (Tk)","village":"Kumbakonam","name":"Alvan Koil Street","area_type":"Urban","shop_code":"19DD009PN","search_string":"  kumbakonam (tk) thanjavur "},"bbox":[79.3696,10.9648,79.3696,10.9648]},{"type":"Feature","geometry":{"type":"Point","coordinates":[79.4297,10.9654]},"properties":{"district":"Thanjavur","taluk":"Kumbakonam (Tk)","village":"Thirunageshwaram","name":"Thirunakeswaram - 2","area_type":"Urban","shop_code":"19DD095PY","search_string":"  kumbakonam (tk) thanjavur "},"bbox":[79.4297,10.9654,79.4297,10.9654]},{"type":"Feature","geometry":{"type":"Point","coordinates":[79.3438,10.9662]},"properties":{"district":"Thanjavur","taluk":"Kumbakonam (Tk)","village":"Baburajapuram","name":"Baburajapuram","area_type":"Rural","shop_code":"19DD052PN","search_string":"  kumbakonam (tk) thanjavur "},"bbox":[79.3438,10.9662,79.3438,10.9662]},{"type":"Feature","geometry":{"type":"Point","coordinates":[79.3976,10.967]},"properties":{"district":"Thanjavur","taluk":"Kumbakonam (Tk)","village":"Ulloor","name":"Ulloor Mahalir Mandram","area_type":"Rural","shop_code":"19DW003PN","search_string":"  kumbakonam (tk) thanjavur "},"bbox":[79.3976,10.967,79.3976,10.967]},{"type":"Feature","geometry":{"type":"Point","coordinates":[79.3773,10.9671]},"properties":{"district":"Thanjavur","taluk":"Kumbakonam (Tk)","village":"Kumbakonam","name":"Kalyanaraman Street","area_type":"Urban","shop_code":"19DD008PN","search_string":"  kumbakonam (tk) thanjavur "},"bbox":[79.3773,10.9671,79.3773,10.9671]},{"type":"Feature","geometry":{"type":"Point","coordinates":[79.3704,10.9671]},"properties":{"district":"Thanjavur","taluk":"Kumbakonam (Tk)","village":"Kumbakonam","name":"Ragoji Street","area_type":"Urban","shop_code":"19DD004PN","search_string":"  kumbakonam (tk) thanjavur "},"bbox":[79.3704,10.9671,79.3704,10.9671]},{"type":"Feature","geometry":{"type":"Point","coordinates":[79.3854,10.9675]},"properties":{"district":"Thanjavur","taluk":"Kumbakonam (Tk)","village":"Kumbakonam","name":"Banadurai West Street","area_type":"Urban","shop_code":"19DE003PN","search_string":"  kumbakonam (tk) thanjavur "},"bbox":[79.3854,10.9675,79.3854,10.9675]},{"type":"Feature","geometry":{"type":"Point","coordinates":[79.3856,10.9676]},"properties":{"district":"Thanjavur","taluk":"Kumbakonam (Tk)","village":"Kumbakonam","name":"Dr. Moorthy Road","area_type":"Urban","shop_code":"19DE001PN","search_string":"  kumbakonam (tk) thanjavur "},"bbox":[79.3856,10.9676,79.3856,10.9676]},{"type":"Feature","geometry":{"type":"Point","coordinates":[79.3858,10.9676]},"properties":{"district":"Thanjavur","taluk":"Kumbakonam (Tk)","village":"Kumbakonam","name":"Banadurai South Veethi","area_type":"Urban","shop_code":"19DE002PN","search_string":"  kumbakonam (tk) thanjavur "},"bbox":[79.3858,10.9676,79.3858,10.9676]},{"type":"Feature","geometry":{"type":"Point","coordinates":[79.3603,10.9681]},"properties":{"district":"Thanjavur","taluk":"Kumbakonam (Tk)","village":"Kumbakonam","name":"Ccws Melakottaiyur Melaveedhi","area_type":"Urban","shop_code":"19DD001PN","search_string":"  kumbakonam (tk) thanjavur "},"bbox":[79.3603,10.9681,79.3603,10.9681]},{"type":"Feature","geometry":{"type":"Point","coordinates":[79.3784,10.9684]},"properties":{"district":"Thanjavur","taluk":"Kumbakonam (Tk)","village":"Kumbakonam","name":"Palaya Palakkari","area_type":"Urban","shop_code":"19DD006PN","search_string":"  kumbakonam (tk) thanjavur "},"bbox":[79.3784,10.9684,79.3784,10.9684]},{"type":"Feature","geometry":{"type":"Point","coordinates":[79.494,10.9684]},"properties":{"district":"Thanjavur","taluk":"Kumbakonam (Tk)","village":"Katchukattu","name":"Katchukattu","area_type":"Rural","shop_code":"19DD097PN","search_string":"  kumbakonam (tk) thanjavur "},"bbox":[79.494,10.9684,79.494,10.9684]},{"type":"Feature","geometry":{"type":"Point","coordinates":[79.4944,10.9686]},"properties":{"district":"Thanjavur","taluk":"Kumbakonam (Tk)","village":"Elanthurai","name":"Elanthurai","area_type":"Rural","shop_code":"19DD100P1","search_string":"  kumbakonam (tk) thanjavur "},"bbox":[79.4944,10.9686,79.4944,10.9686]},{"type":"Feature","geometry":{"type":"Point","coordinates":[79.3807,10.969]},"properties":{"district":"Thanjavur","taluk":"Kumbakonam (Tk)","village":"Kumbakonam","name":"Sakaji Street","area_type":"Urban","shop_code":"19DD007PN","search_string":"  kumbakonam (tk) thanjavur "},"bbox":[79.3807,10.969,79.3807,10.969]},{"type":"Feature","geometry":{"type":"Point","coordinates":[79.4945,10.9691]},"properties":{"district":"Thanjavur","taluk":"Kumbakonam (Tk)","village":"Vilangudi","name":"Vilangudi","area_type":"Rural","shop_code":"19DD096P1","search_string":"  kumbakonam (tk) thanjavur "},"bbox":[79.4945,10.9691,79.4945,10.9691]},{"type":"Feature","geometry":{"type":"Point","coordinates":[79.3679,10.9692]},"properties":{"district":"Thanjavur","taluk":"Kumbakonam (Tk)","village":"Kumbakonam","name":"Sarvamaniya Street","area_type":"Urban","shop_code":"19DD002PN","search_string":"  kumbakonam (tk) thanjavur "},"bbox":[79.3679,10.9692,79.3679,10.9692]},{"type":"Feature","geometry":{"type":"Point","coordinates":[79.4946,10.9693]},"properties":{"district":"Thanjavur","taluk":"Kumbakonam (Tk)","village":"Mallapuram","name":"Mallapuram","area_type":"Rural","shop_code":"19DD100PY","search_string":"  kumbakonam (tk) thanjavur "},"bbox":[79.4946,10.9693,79.4946,10.9693]},{"type":"Feature","geometry":{"type":"Point","coordinates":[79.3704,10.9703]},"properties":{"district":"Thanjavur","taluk":"Kumbakonam (Tk)","village":"Kumbakonam","name":"Perumandi Mainroad","area_type":"Urban","shop_code":"19DD005PN","search_string":"  kumbakonam (tk) thanjavur "},"bbox":[79.3704,10.9703,79.3704,10.9703]},{"type":"Feature","geometry":{"type":"Point","coordinates":[79.4355,10.9704]},"properties":{"district":"Thanjavur","taluk":"Kumbakonam (Tk)","village":"Thirunageshwaram","name":"Thirunageshwaram - 4","area_type":"Urban","shop_code":"19DD095P1","search_string":"  kumbakonam (tk) thanjavur "},"bbox":[79.4355,10.9704,79.4355,10.9704]},{"type":"Feature","geometry":{"type":"Point","coordinates":[79.4613,10.9706]},"properties":{"district":"Thanjavur","taluk":"Kumbakonam (Tk)","village":"Maangudi","name":"Maangudi","area_type":"Rural","shop_code":"19DD107PN","search_string":"  kumbakonam (tk) thanjavur "},"bbox":[79.4613,10.9706,79.4613,10.9706]},{"type":"Feature","geometry":{"type":"Point","coordinates":[79.401,10.971]},"properties":{"district":"Thanjavur","taluk":"Kumbakonam (Tk)","village":"Ulloor","name":"Ullur","area_type":"Rural","shop_code":"19DD088PN","search_string":"  kumbakonam (tk) thanjavur "},"bbox":[79.401,10.971,79.401,10.971]},{"type":"Feature","geometry":{"type":"Point","coordinates":[79.3661,10.9712]},"properties":{"district":"Thanjavur","taluk":"Kumbakonam (Tk)","village":"Kumbakonam","name":"Mohammadiar Pudu Street","area_type":"Urban","shop_code":"19DD003PN","search_string":"  kumbakonam (tk) thanjavur "},"bbox":[79.3661,10.9712,79.3661,10.9712]},{"type":"Feature","geometry":{"type":"Point","coordinates":[79.3777,10.9722]},"properties":{"district":"Thanjavur","taluk":"Kumbakonam (Tk)","village":"Perumandi","name":"Perumandi - 2","area_type":"Rural","shop_code":"19DD139PN","search_string":"  kumbakonam (tk) thanjavur "},"bbox":[79.3777,10.9722,79.3777,10.9722]},{"type":"Feature","geometry":{"type":"Point","coordinates":[79.4736,10.973]},"properties":{"district":"Thanjavur","taluk":"Kumbakonam (Tk)","village":"South Moolangudi","name":"South Moolangudi","area_type":"Rural","shop_code":"19DD126P1","search_string":"  kumbakonam (tk) thanjavur "},"bbox":[79.4736,10.973,79.4736,10.973]},{"type":"Feature","geometry":{"type":"Point","coordinates":[79.381,10.9732]},"properties":{"district":"Thanjavur","taluk":"Kumbakonam (Tk)","village":"Perumandi","name":"Perumandi 1","area_type":"Rural","shop_code":"19DD074PN","search_string":"  kumbakonam (tk) thanjavur "},"bbox":[79.381,10.9732,79.381,10.9732]},{"type":"Feature","geometry":{"type":"Point","coordinates":[79.3658,10.9733]},"properties":{"district":"Thanjavur","taluk":"Kumbakonam (Tk)","village":"Muppakoil","name":"Muppakoil","area_type":"Rural","shop_code":"19DD059PN","search_string":"  kumbakonam (tk) thanjavur "},"bbox":[79.3658,10.9733,79.3658,10.9733]},{"type":"Feature","geometry":{"type":"Point","coordinates":[79.437,10.9734]},"properties":{"district":"Thanjavur","taluk":"Kumbakonam (Tk)","village":"Sannapuram","name":"Sannapuram","area_type":"Urban","shop_code":"19DD093PY","search_string":"  kumbakonam (tk) thanjavur "},"bbox":[79.437,10.9734,79.437,10.9734]},{"type":"Feature","geometry":{"type":"Point","coordinates":[79.2661,10.9746]},"properties":{"district":"Thanjavur","taluk":"Kumbakonam (Tk)","village":"Vilandakandam","name":"Vilandakandam","area_type":"Rural","shop_code":"19DD051P1","search_string":"  kumbakonam (tk) thanjavur "},"bbox":[79.2661,10.9746,79.2661,10.9746]},{"type":"Feature","geometry":{"type":"Point","coordinates":[79.4714,10.9779]},"properties":{"district":"Thanjavur","taluk":"Kumbakonam (Tk)","village":"Andhamangalam","name":"Andhamangalam","area_type":"Urban","shop_code":"19DD093P1","search_string":"  kumbakonam (tk) thanjavur "},"bbox":[79.4714,10.9779,79.4714,10.9779]},{"type":"Feature","geometry":{"type":"Point","coordinates":[79.3757,10.9779]},"properties":{"district":"Thanjavur","taluk":"Kumbakonam (Tk)","village":"Perumandi","name":"Perumandi 3","area_type":"Rural","shop_code":"19DD158PN","search_string":"  kumbakonam (tk) thanjavur "},"bbox":[79.3757,10.9779,79.3757,10.9779]},{"type":"Feature","geometry":{"type":"Point","coordinates":[79.3911,10.9789]},"properties":{"district":"Thanjavur","taluk":"Kumbakonam (Tk)","village":"Chinnakaruppur","name":"Chinnakaruppur 2","area_type":"Rural","shop_code":"19DD058PN","search_string":"  kumbakonam (tk) thanjavur "},"bbox":[79.3911,10.9789,79.3911,10.9789]},{"type":"Feature","geometry":{"type":"Point","coordinates":[79.338,10.9805]},"properties":{"district":"Thanjavur","taluk":"Kumbakonam (Tk)","village":"Innambur","name":"Innambur","area_type":"Rural","shop_code":"19DD055PN","search_string":"  kumbakonam (tk) thanjavur "},"bbox":[79.338,10.9805,79.338,10.9805]},{"type":"Feature","geometry":{"type":"Point","coordinates":[79.483,10.9811]},"properties":{"district":"Thanjavur","taluk":"Kumbakonam (Tk)","village":"Vittaloor","name":"Vittaloor","area_type":"Rural","shop_code":"19DD126PY","search_string":"  kumbakonam (tk) thanjavur "},"bbox":[79.483,10.9811,79.483,10.9811]},{"type":"Feature","geometry":{"type":"Point","coordinates":[79.3965,10.9854]},"properties":{"district":"Thanjavur","taluk":"Kumbakonam (Tk)","village":"Chinnakaruppur","name":"Chinnakkaruppur - 3","area_type":"Rural","shop_code":"19DD145PN","search_string":"  kumbakonam (tk) thanjavur "},"bbox":[79.3965,10.9854,79.3965,10.9854]},{"type":"Feature","geometry":{"type":"Point","coordinates":[79.4224,10.9857]},"properties":{"district":"Thanjavur","taluk":"Kumbakonam (Tk)","village":"Ammachatthiram","name":"Ammachatthiram","area_type":"Rural","shop_code":"19DD046PN","search_string":"  kumbakonam (tk) thanjavur "},"bbox":[79.4224,10.9857,79.4224,10.9857]},{"type":"Feature","geometry":{"type":"Point","coordinates":[79.3784,10.987]},"properties":{"district":"Thanjavur","taluk":"Kumbakonam (Tk)","village":"Asoor","name":"Asoor","area_type":"Rural","shop_code":"19DD049PN","search_string":"  kumbakonam (tk) thanjavur "},"bbox":[79.3784,10.987,79.3784,10.987]},{"type":"Feature","geometry":{"type":"Point","coordinates":[79.3925,10.9872]},"properties":{"district":"Thanjavur","taluk":"Kumbakonam (Tk)","village":"Chinnakaruppur","name":"Chinnakaruppur 1","area_type":"Rural","shop_code":"19DD057PN","search_string":"  kumbakonam (tk) thanjavur "},"bbox":[79.3925,10.9872,79.3925,10.9872]},{"type":"Feature","geometry":{"type":"Point","coordinates":[79.3551,10.9917]},"properties":{"district":"Thanjavur","taluk":"Kumbakonam (Tk)","village":"Araharam","name":"Araharam","area_type":"Rural","shop_code":"19DD054PN","search_string":"  kumbakonam (tk) thanjavur "},"bbox":[79.3551,10.9917,79.3551,10.9917]},{"type":"Feature","geometry":{"type":"Point","coordinates":[79.4062,10.9923]},"properties":{"district":"Thanjavur","taluk":"Kumbakonam (Tk)","village":"Kallapuliyur","name":"Kallapuliyur - 1","area_type":"Rural","shop_code":"19DD063PY","search_string":"  kumbakonam (tk) thanjavur "},"bbox":[79.4062,10.9923,79.4062,10.9923]},{"type":"Feature","geometry":{"type":"Point","coordinates":[79.3778,10.9966]},"properties":{"district":"Thanjavur","taluk":"Kumbakonam (Tk)","village":"Kadichambadi","name":"Kadichambadi","area_type":"Rural","shop_code":"19DD062PN","search_string":"  kumbakonam (tk) thanjavur "},"bbox":[79.3778,10.9966,79.3778,10.9966]},{"type":"Feature","geometry":{"type":"Point","coordinates":[79.378,10.9966]},"properties":{"district":"Thanjavur","taluk":"Kumbakonam (Tk)","village":"Neelatthanallur","name":"Neelatthanallur","area_type":"Rural","shop_code":"19DD072PY","search_string":"  kumbakonam (tk) thanjavur "},"bbox":[79.378,10.9966,79.378,10.9966]},{"type":"Feature","geometry":{"type":"Point","coordinates":[79.3779,10.9967]},"properties":{"district":"Thanjavur","taluk":"Kumbakonam (Tk)","village":"Devanancherry","name":"Devanancherry","area_type":"Rural","shop_code":"19DD053PY","search_string":"  kumbakonam (tk) thanjavur "},"bbox":[79.3779,10.9967,79.3779,10.9967]},{"type":"Feature","geometry":{"type":"Point","coordinates":[79.3713,11.0009]},"properties":{"district":"Thanjavur","taluk":"Kumbakonam (Tk)","village":"Paratai","name":"Paratai","area_type":"Rural","shop_code":"19DD089P1","search_string":"  kumbakonam (tk) thanjavur "},"bbox":[79.3713,11.0009,79.3713,11.0009]},{"type":"Feature","geometry":{"type":"Point","coordinates":[79.3335,11.0036]},"properties":{"district":"Thanjavur","taluk":"Kumbakonam (Tk)","village":"Thiruppurambiyam","name":"Thiruppurambiyam - 2","area_type":"Rural","shop_code":"19DD136PN","search_string":"  kumbakonam (tk) thanjavur "},"bbox":[79.3335,11.0036,79.3335,11.0036]},{"type":"Feature","geometry":{"type":"Point","coordinates":[79.3334,11.0075]},"properties":{"district":"Thanjavur","taluk":"Kumbakonam (Tk)","village":"Thiruppurambiyam","name":"Thiruppurambiyam 1","area_type":"Rural","shop_code":"19DD086PN","search_string":"  kumbakonam (tk) thanjavur "},"bbox":[79.3334,11.0075,79.3334,11.0075]},{"type":"Feature","geometry":{"type":"Point","coordinates":[79.3335,11.0075]},"properties":{"district":"Thanjavur","taluk":"Kumbakonam (Tk)","village":"Nagakudi","name":"Nagakudi","area_type":"Rural","shop_code":"19DD067P1","search_string":"  kumbakonam (tk) thanjavur "},"bbox":[79.3335,11.0075,79.3335,11.0075]},{"type":"Feature","geometry":{"type":"Point","coordinates":[79.3336,11.0076]},"properties":{"district":"Thanjavur","taluk":"Kumbakonam (Tk)","village":"Valapuram","name":"Valapuram","area_type":"Rural","shop_code":"19DD089PY","search_string":"  kumbakonam (tk) thanjavur "},"bbox":[79.3336,11.0076,79.3336,11.0076]},{"type":"Feature","geometry":{"type":"Point","coordinates":[79.3336,11.0077]},"properties":{"district":"Thanjavur","taluk":"Kumbakonam (Tk)","village":"Kudithangi","name":"Kudithangi","area_type":"Rural","shop_code":"19DD066P1","search_string":"  kumbakonam (tk) thanjavur "},"bbox":[79.3336,11.0077,79.3336,11.0077]},{"type":"Feature","geometry":{"type":"Point","coordinates":[79.3842,11.0098]},"properties":{"district":"Thanjavur","taluk":"Kumbakonam (Tk)","village":"Agarathur","name":"Agarathur","area_type":"Rural","shop_code":"19DD050PN","search_string":"  kumbakonam (tk) thanjavur "},"bbox":[79.3842,11.0098,79.3842,11.0098]},{"type":"Feature","geometry":{"type":"Point","coordinates":[79.4025,11.0127]},"properties":{"district":"Thanjavur","taluk":"Kumbakonam (Tk)","village":"Kallapuliyur","name":"Kallapuliyur - 2","area_type":"Rural","shop_code":"19DD063P1","search_string":"  kumbakonam (tk) thanjavur "},"bbox":[79.4025,11.0127,79.4025,11.0127]},{"type":"Feature","geometry":{"type":"Point","coordinates":[79.3534,11.0142]},"properties":{"district":"Thanjavur","taluk":"Kumbakonam (Tk)","village":"Kotthangudi Thattumal","name":"Kotthangudi Thattumal","area_type":"Rural","shop_code":"19DD067PY","search_string":"  kumbakonam (tk) thanjavur "},"bbox":[79.3534,11.0142,79.3534,11.0142]},{"type":"Feature","geometry":{"type":"Point","coordinates":[79.3442,11.0176]},"properties":{"district":"Thanjavur","taluk":"Kumbakonam (Tk)","village":"Kotthangudi","name":"Kotthangudi","area_type":"Rural","shop_code":"19DD066PY","search_string":"  kumbakonam (tk) thanjavur "},"bbox":[79.3442,11.0176,79.3442,11.0176]},{"type":"Feature","geometry":{"type":"Point","coordinates":[79.3872,11.0215]},"properties":{"district":"Thanjavur","taluk":"Kumbakonam (Tk)","village":"Kallur","name":"Kallur","area_type":"Rural","shop_code":"19DD064PY","search_string":"  kumbakonam (tk) thanjavur "},"bbox":[79.3872,11.0215,79.3872,11.0215]},{"type":"Feature","geometry":{"type":"Point","coordinates":[79.3674,11.0219]},"properties":{"district":"Thanjavur","taluk":"Kumbakonam (Tk)","village":"Thirunallur","name":"Thirunallur","area_type":"Rural","shop_code":"19DD053P1","search_string":"  kumbakonam (tk) thanjavur "},"bbox":[79.3674,11.0219,79.3674,11.0219]},{"type":"Feature","geometry":{"type":"Point","coordinates":[79.3672,11.0221]},"properties":{"district":"Thanjavur","taluk":"Kumbakonam (Tk)","village":"Melathukurichi","name":"Melathukurichi","area_type":"Rural","shop_code":"19DD072P1","search_string":"  kumbakonam (tk) thanjavur "},"bbox":[79.3672,11.0221,79.3672,11.0221]},{"type":"Feature","geometry":{"type":"Point","coordinates":[79.3942,11.0275]},"properties":{"district":"Thanjavur","taluk":"Kumbakonam (Tk)","village":"Serugudi","name":"Serugudi","area_type":"Rural","shop_code":"19DD064P1","search_string":"  kumbakonam (tk) thanjavur "},"bbox":[79.3942,11.0275,79.3942,11.0275]},{"type":"Feature","geometry":{"type":"Point","coordinates":[79.3844,11.033]},"properties":{"district":"Thanjavur","taluk":"Kumbakonam (Tk)","village":"Uthamathani","name":"Uthamathani","area_type":"Rural","shop_code":"19DD069P1","search_string":"  kumbakonam (tk) thanjavur "},"bbox":[79.3844,11.033,79.3844,11.033]},{"type":"Feature","geometry":{"type":"Point","coordinates":[79.4072,11.0331]},"properties":{"district":"Thanjavur","taluk":"Kumbakonam (Tk)","village":"Kalambaram","name":"Kalambaram","area_type":"Rural","shop_code":"19DD065PN","search_string":"  kumbakonam (tk) thanjavur "},"bbox":[79.4072,11.0331,79.4072,11.0331]},{"type":"Feature","geometry":{"type":"Point","coordinates":[79.398,11.0425]},"properties":{"district":"Thanjavur","taluk":"Kumbakonam (Tk)","village":"Kumarangudi","name":"Kumarangudi","area_type":"Rural","shop_code":"19DD069PY","search_string":"  kumbakonam (tk) thanjavur "},"bbox":[79.398,11.0425,79.398,11.0425]},{"type":"Feature","geometry":{"type":"Point","coordinates":[79.4074,11.0531]},"properties":{"district":"Thanjavur","taluk":"Kumbakonam (Tk)","village":"Cholapuram","name":"Cholapuram - 2","area_type":"Urban","shop_code":"19DD131PN","search_string":"  kumbakonam (tk) thanjavur "},"bbox":[79.4074,11.0531,79.4074,11.0531]},{"type":"Feature","geometry":{"type":"Point","coordinates":[79.4143,11.054]},"properties":{"district":"Thanjavur","taluk":"Kumbakonam (Tk)","village":"Cholapuram","name":"Cholapuram 1","area_type":"Urban","shop_code":"19DD045PN","search_string":"  kumbakonam (tk) thanjavur "},"bbox":[79.4143,11.054,79.4143,11.054]},{"type":"Feature","geometry":{"type":"Point","coordinates":[79.4145,11.0541]},"properties":{"district":"Thanjavur","taluk":"Kumbakonam (Tk)","village":"Atthiyur","name":"Atthiyur","area_type":"Rural","shop_code":"19DD051PY","search_string":"  kumbakonam (tk) thanjavur "},"bbox":[79.4145,11.0541,79.4145,11.0541]},{"type":"Feature","geometry":{"type":"Point","coordinates":[79.1739,10.4132]},"properties":{"district":"Thanjavur","taluk":"Orathanadu (Tk)","village":"Maligaipunjai","name":"Maligaipunjai","area_type":"Rural","shop_code":"19FP111P1","search_string":"  orathanadu (tk) thanjavur "},"bbox":[79.1739,10.4132,79.1739,10.4132]},{"type":"Feature","geometry":{"type":"Point","coordinates":[79.1541,10.4266]},"properties":{"district":"Thanjavur","taluk":"Orathanadu (Tk)","village":"NeiveliSouth","name":"Neiveli-South","area_type":"Rural","shop_code":"19FP111PY","search_string":"  orathanadu (tk) thanjavur "},"bbox":[79.1541,10.4266,79.1541,10.4266]},{"type":"Feature","geometry":{"type":"Point","coordinates":[79.212,10.4268]},"properties":{"district":"Thanjavur","taluk":"Orathanadu (Tk)","village":"Venkarai","name":"Venkarai-2","area_type":"Rural","shop_code":"19FP116P1","search_string":"  orathanadu (tk) thanjavur "},"bbox":[79.212,10.4268,79.212,10.4268]},{"type":"Feature","geometry":{"type":"Point","coordinates":[79.1561,10.43]},"properties":{"district":"Thanjavur","taluk":"Orathanadu (Tk)","village":"NeiveliNorth","name":"Neiveli North-2","area_type":"Rural","shop_code":"19FP110P1","search_string":"  orathanadu (tk) thanjavur "},"bbox":[79.1561,10.43,79.1561,10.43]},{"type":"Feature","geometry":{"type":"Point","coordinates":[79.1515,10.4384]},"properties":{"district":"Thanjavur","taluk":"Orathanadu (Tk)","village":"NeiveliNorth","name":"Neiveli-North","area_type":"Rural","shop_code":"19FP110PY","search_string":"  orathanadu (tk) thanjavur "},"bbox":[79.1515,10.4384,79.1515,10.4384]},{"type":"Feature","geometry":{"type":"Point","coordinates":[79.1894,10.4481]},"properties":{"district":"Thanjavur","taluk":"Orathanadu (Tk)","village":"Kattuvanberai","name":"Kattuvanberai","area_type":"Rural","shop_code":"19FP117P2","search_string":"  orathanadu (tk) thanjavur "},"bbox":[79.1894,10.4481,79.1894,10.4481]},{"type":"Feature","geometry":{"type":"Point","coordinates":[79.1891,10.4483]},"properties":{"district":"Thanjavur","taluk":"Orathanadu (Tk)","village":"Kottaikkadu","name":"Kottaikkadu","area_type":"Rural","shop_code":"19FP116P2","search_string":"  orathanadu (tk) thanjavur "},"bbox":[79.1891,10.4483,79.1891,10.4483]},{"type":"Feature","geometry":{"type":"Point","coordinates":[79.1891,10.4484]},"properties":{"district":"Thanjavur","taluk":"Orathanadu (Tk)","village":"Chenniyaviduthi","name":"Chenniyaviduthi-1","area_type":"Rural","shop_code":"19FP117PY","search_string":"  orathanadu (tk) thanjavur "},"bbox":[79.1891,10.4484,79.1891,10.4484]},{"type":"Feature","geometry":{"type":"Point","coordinates":[79.1892,10.4485]},"properties":{"district":"Thanjavur","taluk":"Orathanadu (Tk)","village":"Chenniyaviduthi","name":"Cenniyaviduthi-2","area_type":"Rural","shop_code":"19FP117P1","search_string":"  orathanadu (tk) thanjavur "},"bbox":[79.1892,10.4485,79.1892,10.4485]},{"type":"Feature","geometry":{"type":"Point","coordinates":[79.189,10.4485]},"properties":{"district":"Thanjavur","taluk":"Orathanadu (Tk)","village":"Venkarai","name":"Venkarai-1","area_type":"Rural","shop_code":"19FP116PY","search_string":"  orathanadu (tk) thanjavur "},"bbox":[79.189,10.4485,79.189,10.4485]},{"type":"Feature","geometry":{"type":"Point","coordinates":[79.1911,10.4718]},"properties":{"district":"Thanjavur","taluk":"Orathanadu (Tk)","village":"Vettuvakottai","name":"Vettuvakottai-2","area_type":"Rural","shop_code":"19FP114PY","search_string":"  orathanadu (tk) thanjavur "},"bbox":[79.1911,10.4718,79.1911,10.4718]},{"type":"Feature","geometry":{"type":"Point","coordinates":[79.1865,10.4778]},"properties":{"district":"Thanjavur","taluk":"Orathanadu (Tk)","village":"Santhaipettai","name":"Santhaipettai","area_type":"Rural","shop_code":"19FP114P1","search_string":"  orathanadu (tk) thanjavur "},"bbox":[79.1865,10.4778,79.1865,10.4778]},{"type":"Feature","geometry":{"type":"Point","coordinates":[79.1745,10.482]},"properties":{"district":"Thanjavur","taluk":"Orathanadu (Tk)","village":"Sivaviduthi","name":"Sivaviduthi","area_type":"Rural","shop_code":"19FP105PN","search_string":"  orathanadu (tk) thanjavur "},"bbox":[79.1745,10.482,79.1745,10.482]},{"type":"Feature","geometry":{"type":"Point","coordinates":[79.2067,10.4845]},"properties":{"district":"Thanjavur","taluk":"Orathanadu (Tk)","village":"Puthuviduthi","name":"Puthuviduthi","area_type":"Rural","shop_code":"19FP135PN","search_string":"  orathanadu (tk) thanjavur "},"bbox":[79.2067,10.4845,79.2067,10.4845]},{"type":"Feature","geometry":{"type":"Point","coordinates":[79.1585,10.4902]},"properties":{"district":"Thanjavur","taluk":"Orathanadu (Tk)","village":"Kaduvettividuthi","name":"Kaduvettividuthi","area_type":"Rural","shop_code":"19FP106PY","search_string":"  orathanadu (tk) thanjavur "},"bbox":[79.1585,10.4902,79.1585,10.4902]},{"type":"Feature","geometry":{"type":"Point","coordinates":[79.1917,10.4914]},"properties":{"district":"Thanjavur","taluk":"Orathanadu (Tk)","village":"Keelauranipuram","name":"Keelauranipuram","area_type":"Rural","shop_code":"19FP108P1","search_string":"  orathanadu (tk) thanjavur "},"bbox":[79.1917,10.4914,79.1917,10.4914]},{"type":"Feature","geometry":{"type":"Point","coordinates":[79.1937,10.4939]},"properties":{"district":"Thanjavur","taluk":"Orathanadu (Tk)","village":"Vettuvakottai","name":"Vettuvakottai-1","area_type":"Rural","shop_code":"19FP113PY","search_string":"  orathanadu (tk) thanjavur "},"bbox":[79.1937,10.4939,79.1937,10.4939]},{"type":"Feature","geometry":{"type":"Point","coordinates":[79.195,10.4942]},"properties":{"district":"Thanjavur","taluk":"Orathanadu (Tk)","village":"Kaariyaviduthi","name":"Kaariyaviduthi","area_type":"Rural","shop_code":"19FP113P2","search_string":"  orathanadu (tk) thanjavur "},"bbox":[79.195,10.4942,79.195,10.4942]},{"type":"Feature","geometry":{"type":"Point","coordinates":[79.1924,10.4943]},"properties":{"district":"Thanjavur","taluk":"Orathanadu (Tk)","village":"Pattu Vidudhi","name":"Pattu Vidudhi","area_type":"Rural","shop_code":"19FP113P1","search_string":"  orathanadu (tk) thanjavur "},"bbox":[79.1924,10.4943,79.1924,10.4943]},{"type":"Feature","geometry":{"type":"Point","coordinates":[79.1735,10.5005]},"properties":{"district":"Thanjavur","taluk":"Orathanadu (Tk)","village":"Panikondanviduthi","name":"Panikondanviduthi","area_type":"Rural","shop_code":"19FP108PY","search_string":"  orathanadu (tk) thanjavur "},"bbox":[79.1735,10.5005,79.1735,10.5005]},{"type":"Feature","geometry":{"type":"Point","coordinates":[79.2209,10.5018]},"properties":{"district":"Thanjavur","taluk":"Orathanadu (Tk)","village":"Thalikaividuthi","name":"Thalikaividuthi","area_type":"Rural","shop_code":"19FP097PN","search_string":"  orathanadu (tk) thanjavur "},"bbox":[79.2209,10.5018,79.2209,10.5018]},{"type":"Feature","geometry":{"type":"Point","coordinates":[79.2626,10.5045]},"properties":{"district":"Thanjavur","taluk":"Orathanadu (Tk)","village":"Kilamangalam","name":"Kilamangalam-2","area_type":"Rural","shop_code":"19FP089P1","search_string":"  orathanadu (tk) thanjavur "},"bbox":[79.2626,10.5045,79.2626,10.5045]},{"type":"Feature","geometry":{"type":"Point","coordinates":[79.1554,10.5066]},"properties":{"district":"Thanjavur","taluk":"Orathanadu (Tk)","village":"Kavalipatti","name":"Kavalipatti","area_type":"Rural","shop_code":"19FP107PY","search_string":"  orathanadu (tk) thanjavur "},"bbox":[79.1554,10.5066,79.1554,10.5066]},{"type":"Feature","geometry":{"type":"Point","coordinates":[79.1462,10.5076]},"properties":{"district":"Thanjavur","taluk":"Orathanadu (Tk)","village":"Sevvaypatti","name":"Sevvaypatti","area_type":"Rural","shop_code":"19FP107P1","search_string":"  orathanadu (tk) thanjavur "},"bbox":[79.1462,10.5076,79.1462,10.5076]},{"type":"Feature","geometry":{"type":"Point","coordinates":[79.309,10.508]},"properties":{"district":"Thanjavur","taluk":"Orathanadu (Tk)","village":"Ramapuram","name":"Ramapuram","area_type":"Rural","shop_code":"19FP074PN","search_string":"  orathanadu (tk) thanjavur "},"bbox":[79.309,10.508,79.309,10.508]},{"type":"Feature","geometry":{"type":"Point","coordinates":[79.163,10.5102]},"properties":{"district":"Thanjavur","taluk":"Orathanadu (Tk)","village":"Rajalividuthi","name":"Rajalividuthi","area_type":"Rural","shop_code":"19FP104PY","search_string":"  orathanadu (tk) thanjavur "},"bbox":[79.163,10.5102,79.163,10.5102]},{"type":"Feature","geometry":{"type":"Point","coordinates":[79.2917,10.5103]},"properties":{"district":"Thanjavur","taluk":"Orathanadu (Tk)","village":"Ambulapattu South","name":"Ambulapattu-South","area_type":"Rural","shop_code":"19FP073PN","search_string":"  orathanadu (tk) thanjavur "},"bbox":[79.2917,10.5103,79.2917,10.5103]},{"type":"Feature","geometry":{"type":"Point","coordinates":[79.2838,10.5112]},"properties":{"district":"Thanjavur","taluk":"Orathanadu (Tk)","village":"Madayakkollai","name":"Madayakkollai","area_type":"Rural","shop_code":"19FP103PN","search_string":"  orathanadu (tk) thanjavur "},"bbox":[79.2838,10.5112,79.2838,10.5112]},{"type":"Feature","geometry":{"type":"Point","coordinates":[79.3208,10.5116]},"properties":{"district":"Thanjavur","taluk":"Orathanadu (Tk)","village":"Gopalapuram","name":"Gopalapuram","area_type":"Rural","shop_code":"19FP075PN","search_string":"  orathanadu (tk) thanjavur "},"bbox":[79.3208,10.5116,79.3208,10.5116]},{"type":"Feature","geometry":{"type":"Point","coordinates":[79.2586,10.5143]},"properties":{"district":"Thanjavur","taluk":"Orathanadu (Tk)","village":"Kilamangalam","name":"Kilamangalam","area_type":"Rural","shop_code":"19FP089PY","search_string":"  orathanadu (tk) thanjavur "},"bbox":[79.2586,10.5143,79.2586,10.5143]},{"type":"Feature","geometry":{"type":"Point","coordinates":[79.3476,10.5154]},"properties":{"district":"Thanjavur","taluk":"Orathanadu (Tk)","village":"Mullurpattikkadu","name":"Mullurpattikkadu","area_type":"Rural","shop_code":"19FP079PN","search_string":"  orathanadu (tk) thanjavur "},"bbox":[79.3476,10.5154,79.3476,10.5154]},{"type":"Feature","geometry":{"type":"Point","coordinates":[79.2179,10.5155]},"properties":{"district":"Thanjavur","taluk":"Orathanadu (Tk)","village":"Akkaraivattam","name":"111-Akkaraivattam","area_type":"Rural","shop_code":"19FP099PN","search_string":"  orathanadu (tk) thanjavur "},"bbox":[79.2179,10.5155,79.2179,10.5155]},{"type":"Feature","geometry":{"type":"Point","coordinates":[79.191,10.5177]},"properties":{"district":"Thanjavur","taluk":"Orathanadu (Tk)","village":"Unjividuthi","name":"Unjividuthi","area_type":"Rural","shop_code":"19FP100PY","search_string":"  orathanadu (tk) thanjavur "},"bbox":[79.191,10.5177,79.191,10.5177]},{"type":"Feature","geometry":{"type":"Point","coordinates":[79.2083,10.5186]},"properties":{"district":"Thanjavur","taluk":"Orathanadu (Tk)","village":"Akkaraivattam  West","name":"105-Akkaraivattam - West","area_type":"Rural","shop_code":"19FP098P1","search_string":"  orathanadu (tk) thanjavur "},"bbox":[79.2083,10.5186,79.2083,10.5186]},{"type":"Feature","geometry":{"type":"Point","coordinates":[79.2505,10.52]},"properties":{"district":"Thanjavur","taluk":"Orathanadu (Tk)","village":"Yoganayakipuram","name":"Yoganayakipuram","area_type":"Rural","shop_code":"19FP092PN","search_string":"  orathanadu (tk) thanjavur "},"bbox":[79.2505,10.52,79.2505,10.52]},{"type":"Feature","geometry":{"type":"Point","coordinates":[79.2849,10.5219]},"properties":{"district":"Thanjavur","taluk":"Orathanadu (Tk)","village":"Avidainallavijayapuram","name":"Avidainallavijayapuram","area_type":"Rural","shop_code":"19FP081P1","search_string":"  orathanadu (tk) thanjavur "},"bbox":[79.2849,10.5219,79.2849,10.5219]},{"type":"Feature","geometry":{"type":"Point","coordinates":[79.3316,10.5219]},"properties":{"district":"Thanjavur","taluk":"Orathanadu (Tk)","village":"Thethadikkollai","name":"Thethadikkollai","area_type":"Rural","shop_code":"19FP076P1","search_string":"  orathanadu (tk) thanjavur "},"bbox":[79.3316,10.5219,79.3316,10.5219]},{"type":"Feature","geometry":{"type":"Point","coordinates":[79.2002,10.5221]},"properties":{"district":"Thanjavur","taluk":"Orathanadu (Tk)","village":"Chinna Ammagudi","name":"Chinna Ammagudi","area_type":"Rural","shop_code":"19FP102PN","search_string":"  orathanadu (tk) thanjavur "},"bbox":[79.2002,10.5221,79.2002,10.5221]},{"type":"Feature","geometry":{"type":"Point","coordinates":[79.1578,10.5242]},"properties":{"district":"Thanjavur","taluk":"Orathanadu (Tk)","village":"Samathuvapuram","name":"Samathuvapuram","area_type":"Rural","shop_code":"19FP104P1","search_string":"  orathanadu (tk) thanjavur "},"bbox":[79.1578,10.5242,79.1578,10.5242]},{"type":"Feature","geometry":{"type":"Point","coordinates":[79.218,10.5247]},"properties":{"district":"Thanjavur","taluk":"Orathanadu (Tk)","village":"Akkaraivattam","name":"105-Akkaraivattam","area_type":"Rural","shop_code":"19FP098PY","search_string":"  orathanadu (tk) thanjavur "},"bbox":[79.218,10.5247,79.218,10.5247]},{"type":"Feature","geometry":{"type":"Point","coordinates":[79.2862,10.5257]},"properties":{"district":"Thanjavur","taluk":"Orathanadu (Tk)","village":"Cholakankudikadu","name":"Cholakankudikadu","area_type":"Rural","shop_code":"19FP083PN","search_string":"  orathanadu (tk) thanjavur "},"bbox":[79.2862,10.5257,79.2862,10.5257]},{"type":"Feature","geometry":{"type":"Point","coordinates":[79.248,10.5267]},"properties":{"district":"Thanjavur","taluk":"Orathanadu (Tk)","village":"Therkukottai","name":"Therkukottai","area_type":"Rural","shop_code":"19FP093PN","search_string":"  orathanadu (tk) thanjavur "},"bbox":[79.248,10.5267,79.248,10.5267]},{"type":"Feature","geometry":{"type":"Point","coordinates":[79.3086,10.5272]},"properties":{"district":"Thanjavur","taluk":"Orathanadu (Tk)","village":"Ambulapattu North","name":"Ambulapattu-North","area_type":"Rural","shop_code":"19FP076PY","search_string":"  orathanadu (tk) thanjavur "},"bbox":[79.3086,10.5272,79.3086,10.5272]},{"type":"Feature","geometry":{"type":"Point","coordinates":[79.2602,10.5286]},"properties":{"district":"Thanjavur","taluk":"Orathanadu (Tk)","village":"Cholakankarai","name":"Cholakankarai","area_type":"Rural","shop_code":"19FP091PN","search_string":"  orathanadu (tk) thanjavur "},"bbox":[79.2602,10.5286,79.2602,10.5286]},{"type":"Feature","geometry":{"type":"Point","coordinates":[79.3575,10.5314]},"properties":{"district":"Thanjavur","taluk":"Orathanadu (Tk)","village":"Kannukudi East","name":"Kannukudi-East","area_type":"Rural","shop_code":"19FP078PY","search_string":"  orathanadu (tk) thanjavur "},"bbox":[79.3575,10.5314,79.3575,10.5314]},{"type":"Feature","geometry":{"type":"Point","coordinates":[79.1749,10.5315]},"properties":{"district":"Thanjavur","taluk":"Orathanadu (Tk)","village":"Eluppaividuthi","name":"Eluppaividuthi","area_type":"Rural","shop_code":"19FP087PN","search_string":"  orathanadu (tk) thanjavur "},"bbox":[79.1749,10.5315,79.1749,10.5315]},{"type":"Feature","geometry":{"type":"Point","coordinates":[79.2859,10.532]},"properties":{"district":"Thanjavur","taluk":"Orathanadu (Tk)","village":"Sankarantheru","name":"Sankarantheru","area_type":"Rural","shop_code":"19FP080P1","search_string":"  orathanadu (tk) thanjavur "},"bbox":[79.2859,10.532,79.2859,10.532]},{"type":"Feature","geometry":{"type":"Point","coordinates":[79.2832,10.5342]},"properties":{"district":"Thanjavur","taluk":"Orathanadu (Tk)","village":"Vedavijapuram","name":"Vedavijapuram","area_type":"Rural","shop_code":"19FP082PN","search_string":"  orathanadu (tk) thanjavur "},"bbox":[79.2832,10.5342,79.2832,10.5342]},{"type":"Feature","geometry":{"type":"Point","coordinates":[79.3386,10.5373]},"properties":{"district":"Thanjavur","taluk":"Orathanadu (Tk)","village":"Kannukudi South","name":"Kannukudi -South","area_type":"Rural","shop_code":"19FP077P1","search_string":"  orathanadu (tk) thanjavur "},"bbox":[79.3386,10.5373,79.3386,10.5373]},{"type":"Feature","geometry":{"type":"Point","coordinates":[79.2501,10.5379]},"properties":{"district":"Thanjavur","taluk":"Orathanadu (Tk)","village":"Sankaranarkudikadu","name":"Sankaranarkudikadu","area_type":"Rural","shop_code":"19FP094PN","search_string":"  orathanadu (tk) thanjavur "},"bbox":[79.2501,10.5379,79.2501,10.5379]},{"type":"Feature","geometry":{"type":"Point","coordinates":[79.342,10.5384]},"properties":{"district":"Thanjavur","taluk":"Orathanadu (Tk)","village":"Valaiyartheru","name":"Valaiyartheru","area_type":"Rural","shop_code":"19FP078P1","search_string":"  orathanadu (tk) thanjavur "},"bbox":[79.342,10.5384,79.342,10.5384]},{"type":"Feature","geometry":{"type":"Point","coordinates":[79.3703,10.5391]},"properties":{"district":"Thanjavur","taluk":"Orathanadu (Tk)","village":"Paravathur","name":"Paravathur","area_type":"Rural","shop_code":"19FP065PN","search_string":"  orathanadu (tk) thanjavur "},"bbox":[79.3703,10.5391,79.3703,10.5391]},{"type":"Feature","geometry":{"type":"Point","coordinates":[79.2138,10.5403]},"properties":{"district":"Thanjavur","taluk":"Orathanadu (Tk)","village":"Krishnapuram","name":"Krishnapuram","area_type":"Rural","shop_code":"19FP088PN","search_string":"  orathanadu (tk) thanjavur "},"bbox":[79.2138,10.5403,79.2138,10.5403]},{"type":"Feature","geometry":{"type":"Point","coordinates":[79.2452,10.5417]},"properties":{"district":"Thanjavur","taluk":"Orathanadu (Tk)","village":"Vadakkukottai","name":"Vadakkukottai","area_type":"Rural","shop_code":"19FP095PN","search_string":"  orathanadu (tk) thanjavur "},"bbox":[79.2452,10.5417,79.2452,10.5417]},{"type":"Feature","geometry":{"type":"Point","coordinates":[79.3337,10.5434]},"properties":{"district":"Thanjavur","taluk":"Orathanadu (Tk)","village":"Kannukudi West","name":"Kannukudi-West","area_type":"Rural","shop_code":"19FP077PY","search_string":"  orathanadu (tk) thanjavur "},"bbox":[79.3337,10.5434,79.3337,10.5434]},{"type":"Feature","geometry":{"type":"Point","coordinates":[79.29,10.544]},