{"type":"FeatureCollection","features":[{"type":"Feature","geometry":{"type":"Point","coordinates":[78.40530399800008,11.939054111000075]},"properties":{"ps_code":"P1","ps_name":"A.PALLIPATTI","name":"P1 A.PALLIPATTI","dept_code":"","status":true}},{"type":"Feature","geometry":{"type":"Point","coordinates":[78.12143417900006,12.076035864000062]},"properties":{"ps_code":"P2","ps_name":"ADHIYAMANKKOTTAI","name":"P2 ADHIYAMANKKOTTAI","dept_code":"","status":true}},{"type":"Feature","geometry":{"type":"Point","coordinates":[78.26056235100003,11.976242506000062]},"properties":{"ps_code":"P3","ps_name":"BOMMIDI","name":"P3 BOMMIDI","dept_code":"","status":true}},{"type":"Feature","geometry":{"type":"Point","coordinates":[78.15932961900006,12.12900105600005]},"properties":{"ps_code":"P4","ps_name":"DAHRMAPURI PS","name":"P4 DAHRMAPURI PS","dept_code":"","status":true}},{"type":"Feature","geometry":{"type":"Point","coordinates":[77.80206445100004,12.00720095500003]},"properties":{"ps_code":"P5","ps_name":"ERIYUR","name":"P5 ERIYUR","dept_code":"","status":true}},{"type":"Feature","geometry":{"type":"Point","coordinates":[78.47982418300006,12.059175801000038]},"properties":{"ps_code":"P6","ps_name":"HARUR","name":"P6 HARUR","dept_code":"","status":true}},{"type":"Feature","geometry":{"type":"Point","coordinates":[77.77598170600004,12.122032921000027]},"properties":{"ps_code":"P7","ps_name":"HOGENEKKAL","name":"P7 HOGENEKKAL","dept_code":"","status":true}},{"type":"Feature","geometry":{"type":"Point","coordinates":[78.05523871700007,12.13110931500006]},"properties":{"ps_code":"P8","ps_name":"INDUR","name":"P8 INDUR","dept_code":"","status":true}},{"type":"Feature","geometry":{"type":"Point","coordinates":[78.29018527100004,12.083409112000027]},"properties":{"ps_code":"P9","ps_name":"KADATHUR","name":"P9 KADATHUR","dept_code":"","status":true}},{"type":"Feature","geometry":{"type":"Point","coordinates":[78.31668659100006,12.205321543000025]},"properties":{"ps_code":"P10","ps_name":"KAMBAINALLUR","name":"P10 KAMBAINALLUR","dept_code":"","status":true}},{"type":"Feature","geometry":{"type":"Point","coordinates":[78.20222764600004,12.304683440000076]},"properties":{"ps_code":"P11","ps_name":"KARIMANGALAM","name":"P11 KARIMANGALAM","dept_code":"","status":true}},{"type":"Feature","geometry":{"type":"Point","coordinates":[78.66976057800008,11.982334429000048]},"properties":{"ps_code":"P12","ps_name":"KOTTAPATTY","name":"P12 KOTTAPATTY","dept_code":"","status":true}},{"type":"Feature","geometry":{"type":"Point","coordinates":[78.24712538900008,12.207737317000067]},"properties":{"ps_code":"P13","ps_name":"KRISHNAPURAM","name":"P13 KRISHNAPURAM","dept_code":"","status":true}},{"type":"Feature","geometry":{"type":"Point","coordinates":[78.06319330400004,12.408783416000063]},"properties":{"ps_code":"P14","ps_name":"MAHENDRAMANGALAM","name":"P14 MAHENDRAMANGALAM","dept_code":"","status":true}},{"type":"Feature","geometry":{"type":"Point","coordinates":[78.00228567000005,12.385001419000048]},"properties":{"ps_code":"P15","ps_name":"MARANDAHALLI","name":"P15 MARANDAHALLI","dept_code":"","status":true}},{"type":"Feature","geometry":{"type":"Point","coordinates":[78.05457392700004,12.208337207000056]},"properties":{"ps_code":"P20","ps_name":"PAPPARAPATTI","name":"P20 PAPPARAPATTI","dept_code":"","status":true}},{"type":"Feature","geometry":{"type":"Point","coordinates":[78.17322860100006,12.145660882000072]},"properties":{"ps_code":"P16","ps_name":"MATHIKONPALAYAM","name":"P16 MATHIKONPALAYAM","dept_code":"","status":true}},{"type":"Feature","geometry":{"type":"Point","coordinates":[78.39386489400005,12.128088503000072]},"properties":{"ps_code":"P17","ps_name":"MORAPPUR","name":"P17 MORAPPUR","dept_code":"","status":true}},{"type":"Feature","geometry":{"type":"Point","coordinates":[78.07280649000006,12.305571009000062]},"properties":{"ps_code":"P18","ps_name":"PALACODE","name":"P18 PALACODE","dept_code":"","status":true}},{"type":"Feature","geometry":{"type":"Point","coordinates":[77.94281374000008,12.46227693700007]},"properties":{"ps_code":"P19","ps_name":"PANCHAPALLI","name":"P19 PANCHAPALLI","dept_code":"","status":true}},{"type":"Feature","geometry":{"type":"Point","coordinates":[78.36517529800005,11.915144782000027]},"properties":{"ps_code":"P21","ps_name":"PAPPIREDDIPATTI","name":"P21 PAPPIREDDIPATTI","dept_code":"","status":true}},{"type":"Feature","geometry":{"type":"Point","coordinates":[77.89209934000007,12.13408839300007]},"properties":{"ps_code":"P22","ps_name":"PENNAGARAM","name":"P22 PENNAGARAM","dept_code":"","status":true}},{"type":"Feature","geometry":{"type":"Point","coordinates":[77.94318914500008,11.968539639000028]},"properties":{"ps_code":"P23","ps_name":"PERUMBALAI","name":"P23 PERUMBALAI","dept_code":"","status":true}},{"type":"Feature","geometry":{"type":"Point","coordinates":[78.05219178300007,11.942403059000071]},"properties":{"ps_code":"P24","ps_name":"THOPPUR","name":"P24 THOPPUR","dept_code":"","status":true}}]}