{"type":"FeatureCollection","features":[{"type":"Feature","geometry":{"type":"Point","coordinates":[77.72936900000008,12.350926000000072]},"properties":{"ps_code":"P1","ps_name":"ANCHETTY","name":"P1 ANCHETTY","dept_code":"","status":true}},{"type":"Feature","geometry":{"type":"Point","coordinates":[77.86881700000004,12.834641000000033]},"properties":{"ps_code":"P2","ps_name":"BAGALUR","name":"P2 BAGALUR","dept_code":"","status":true}},{"type":"Feature","geometry":{"type":"Point","coordinates":[77.80646300000006,12.694898000000023]},"properties":{"ps_code":"P18","ps_name":"MATHIGIRI","name":"P18 MATHIGIRI","dept_code":"","status":true}},{"type":"Feature","geometry":{"type":"Point","coordinates":[78.35640400000005,12.543492000000072]},"properties":{"ps_code":"P3","ps_name":"BARGUR","name":"P3 BARGUR","dept_code":"","status":true}},{"type":"Feature","geometry":{"type":"Point","coordinates":[78.30664900000005,12.30624400000005]},"properties":{"ps_code":"P4","ps_name":"BARUR","name":"P4 BARUR","dept_code":"","status":true}},{"type":"Feature","geometry":{"type":"Point","coordinates":[77.97191155300004,12.804010686000026]},"properties":{"ps_code":"P5","ps_name":"BERIGAI","name":"P5 BERIGAI","dept_code":"","status":true}},{"type":"Feature","geometry":{"type":"Point","coordinates":[77.79100378700008,12.521074560000045]},"properties":{"ps_code":"P6","ps_name":"DENKANIKOTTAI","name":"P6 DENKANIKOTTAI","dept_code":"","status":true}},{"type":"Feature","geometry":{"type":"Point","coordinates":[78.11306600000006,12.575491000000056]},"properties":{"ps_code":"P7","ps_name":"GURUBARAPALLI","name":"P7 GURUBARAPALLI","dept_code":"","status":true}},{"type":"Feature","geometry":{"type":"Point","coordinates":[77.85812500000003,12.72620500000005]},"properties":{"ps_code":"P8","ps_name":"HUDCO","name":"P8 HUDCO","dept_code":"","status":true}},{"type":"Feature","geometry":{"type":"Point","coordinates":[78.37384077900003,12.233481356000027]},"properties":{"ps_code":"P10","ps_name":"KALLAVI","name":"P10 KALLAVI","dept_code":"","status":true}},{"type":"Feature","geometry":{"type":"Point","coordinates":[78.48661700000008,12.310434000000043]},"properties":{"ps_code":"P23","ps_name":"SAMALPATTY","name":"P23 SAMALPATTY","dept_code":"","status":true}},{"type":"Feature","geometry":{"type":"Point","coordinates":[78.30795900000004,12.540986000000032]},"properties":{"ps_code":"P11","ps_name":"KANDHIKUPPAM","name":"P11 KANDHIKUPPAM","dept_code":"","status":true}},{"type":"Feature","geometry":{"type":"Point","coordinates":[78.19311100000004,12.473826000000031]},"properties":{"ps_code":"P16","ps_name":"KRP DAM","name":"P16 KRP DAM","dept_code":"","status":true}},{"type":"Feature","geometry":{"type":"Point","coordinates":[78.21900300000004,12.419781000000057]},"properties":{"ps_code":"P12","ps_name":"KAVERIPATTINAM","name":"P12 KAVERIPATTINAM","dept_code":"","status":true}},{"type":"Feature","geometry":{"type":"Point","coordinates":[77.85366500000003,12.604530000000068]},"properties":{"ps_code":"P13","ps_name":"KELAMANGALAM","name":"P13 KELAMANGALAM","dept_code":"","status":true}},{"type":"Feature","geometry":{"type":"Point","coordinates":[78.20799200000005,12.525599000000057]},"properties":{"ps_code":"P14","ps_name":"KRISHNAGIRI TALUK","name":"P14 KRISHNAGIRI TALUK","dept_code":"","status":true}},{"type":"Feature","geometry":{"type":"Point","coordinates":[78.21828000000005,12.53165800000005]},"properties":{"ps_code":"P15","ps_name":"KRISHNAGIRI TOWN","name":"P15 KRISHNAGIRI TOWN","dept_code":"","status":true}},{"type":"Feature","geometry":{"type":"Point","coordinates":[78.25228700000008,12.62444400000004]},"properties":{"ps_code":"P17","ps_name":"MAHARAJAKADAI","name":"P17 MAHARAJAKADAI","dept_code":"","status":true}},{"type":"Feature","geometry":{"type":"Point","coordinates":[78.20908500000007,12.542625000000044]},"properties":{"ps_code":"P9","ps_name":"HOSUR TOWN","name":"P9 HOSUR TOWN","dept_code":"","status":true}},{"type":"Feature","geometry":{"type":"Point","coordinates":[78.41250300000007,12.383166000000074]},"properties":{"ps_code":"P19","ps_name":"MATHUR","name":"P19 MATHUR","dept_code":"","status":true}},{"type":"Feature","geometry":{"type":"Point","coordinates":[78.28873800000008,12.361709000000076]},"properties":{"ps_code":"P20","ps_name":"NAGARASAMAPATTI","name":"P20 NAGARASAMAPATTI","dept_code":"","status":true}},{"type":"Feature","geometry":{"type":"Point","coordinates":[78.36374300000006,12.33158000000003]},"properties":{"ps_code":"P21","ps_name":"POCHAMPALLI","name":"P21 POCHAMPALLI","dept_code":"","status":true}},{"type":"Feature","geometry":{"type":"Point","coordinates":[78.03118000000006,12.511156000000028]},"properties":{"ps_code":"P22","ps_name":"ROYAKOTTAI","name":"P22 ROYAKOTTAI","dept_code":"","status":true}},{"type":"Feature","geometry":{"type":"Point","coordinates":[78.01678300000003,12.667782000000045]},"properties":{"ps_code":"P24","ps_name":"SHOOLAGIRI","name":"P24 SHOOLAGIRI","dept_code":"","status":true}},{"type":"Feature","geometry":{"type":"Point","coordinates":[78.61825100000004,12.254345000000058]},"properties":{"ps_code":"P25","ps_name":"SINGARAPETTI","name":"P25 SINGARAPETTI","dept_code":"","status":true}},{"type":"Feature","geometry":{"type":"Point","coordinates":[77.79893900000008,12.763070000000027]},"properties":{"ps_code":"P26","ps_name":"SIPCOT","name":"P26 SIPCOT","dept_code":"","status":true}},{"type":"Feature","geometry":{"type":"Point","coordinates":[77.65305000000006,12.583883000000071]},"properties":{"ps_code":"P27","ps_name":"THALLY","name":"P27 THALLY","dept_code":"","status":true}},{"type":"Feature","geometry":{"type":"Point","coordinates":[77.93906100000004,12.606423000000063]},"properties":{"ps_code":"P28","ps_name":"UDDANAPALLI","name":"P28 UDDANAPALLI","dept_code":"","status":true}},{"type":"Feature","geometry":{"type":"Point","coordinates":[78.53308900000007,12.264124000000038]},"properties":{"ps_code":"P29","ps_name":"UTHANGARAI","name":"P29 UTHANGARAI","dept_code":"","status":true}},{"type":"Feature","geometry":{"type":"Point","coordinates":[78.19420700000006,12.702033000000029]},"properties":{"ps_code":"P30","ps_name":"VEPPANAPALLI","name":"P30 VEPPANAPALLI","dept_code":"","status":true}}]}