{"type":"FeatureCollection","features":[{"type":"Feature","geometry":{"type":"Point","coordinates":[78.81254577600004,9.995927811000058]},"properties":{"ps_code":"P1","ps_name":"ARAVAYAL","name":"P1 ARAVAYAL","dept_code":"","status":true}},{"type":"Feature","geometry":{"type":"Point","coordinates":[78.81455402500006,9.951399256000059]},"properties":{"ps_code":"P2","ps_name":"DEVAKOTTAI TOWN","name":"P2 DEVAKOTTAI TOWN","dept_code":"","status":true}},{"type":"Feature","geometry":{"type":"Point","coordinates":[78.77864074700005,10.166242599000043]},"properties":{"ps_code":"P2","ps_name":"CHETTINADU","name":"P2 CHETTINADU","dept_code":"","status":true}},{"type":"Feature","geometry":{"type":"Point","coordinates":[78.80047005500006,9.965743370000041]},"properties":{"ps_code":"P3","ps_name":"DEVAKOTTAI TALUK","name":"P3 DEVAKOTTAI TALUK","dept_code":"","status":true}},{"type":"Feature","geometry":{"type":"Point","coordinates":[78.60872048000004,9.631577724000067]},"properties":{"ps_code":"P5","ps_name":"ELAYANKUDI","name":"P5 ELAYANKUDI","dept_code":"","status":true}},{"type":"Feature","geometry":{"type":"Point","coordinates":[78.63522635900006,9.847227886000042]},"properties":{"ps_code":"P6","ps_name":"KALAIYARKOVIL","name":"P6 KALAIYARKOVIL","dept_code":"","status":true}},{"type":"Feature","geometry":{"type":"Point","coordinates":[78.66516518800006,9.983834193000064]},"properties":{"ps_code":"P7","ps_name":"KALLAL","name":"P7 KALLAL","dept_code":"","status":true}},{"type":"Feature","geometry":{"type":"Point","coordinates":[78.68451378000003,9.929299616000037]},"properties":{"ps_code":"P37","ps_name":"VELAYUTHA PATTINAM","name":"P37 VELAYUTHA PATTINAM","dept_code":"","status":true}},{"type":"Feature","geometry":{"type":"Point","coordinates":[78.77954101600005,10.075778008000043]},"properties":{"ps_code":"P9","ps_name":"KARAIKUDI NORTH","name":"P9 KARAIKUDI NORTH","dept_code":"","status":true}},{"type":"Feature","geometry":{"type":"Point","coordinates":[78.77915954600007,10.075597763000076]},"properties":{"ps_code":"P10","ps_name":"KARAIKUDI SOUTH","name":"P10 KARAIKUDI SOUTH","dept_code":"","status":true}},{"type":"Feature","geometry":{"type":"Point","coordinates":[78.66066861200005,10.183458269000027]},"properties":{"ps_code":"P11","ps_name":"KEELASEVALPATTI","name":"P11 KEELASEVALPATTI","dept_code":"","status":true}},{"type":"Feature","geometry":{"type":"Point","coordinates":[78.69916067300005,10.115299927000024]},"properties":{"ps_code":"P12","ps_name":"KUNDRAKUDI","name":"P12 KUNDRAKUDI","dept_code":"","status":true}},{"type":"Feature","geometry":{"type":"Point","coordinates":[78.53717357400006,9.978611615000034]},"properties":{"ps_code":"P13","ps_name":"MADAGUPATTI","name":"P13 MADAGUPATTI","dept_code":"","status":true}},{"type":"Feature","geometry":{"type":"Point","coordinates":[78.45809197900007,9.689665374000072]},"properties":{"ps_code":"P14","ps_name":"MANAMADURAI","name":"P14 MANAMADURAI","dept_code":"","status":true}},{"type":"Feature","geometry":{"type":"Point","coordinates":[78.67237854000007,10.080539703000056]},"properties":{"ps_code":"P15","ps_name":"NACHIYAPURAM","name":"P15 NACHIYAPURAM","dept_code":"","status":true}},{"type":"Feature","geometry":{"type":"Point","coordinates":[78.53291443700004,10.225727370000072]},"properties":{"ps_code":"P16","ps_name":"NERKUPPAI","name":"P16 NERKUPPAI","dept_code":"","status":true}},{"type":"Feature","geometry":{"type":"Point","coordinates":[78.29511275300007,9.739554940000062]},"properties":{"ps_code":"P17","ps_name":"PALAYANOOR","name":"P17 PALAYANOOR","dept_code":"","status":true}},{"type":"Feature","geometry":{"type":"Point","coordinates":[78.79728444000006,10.155073385000037]},"properties":{"ps_code":"P18","ps_name":"PALLATHUR","name":"P18 PALLATHUR","dept_code":"","status":true}},{"type":"Feature","geometry":{"type":"Point","coordinates":[78.59351553900007,10.262091699000052]},"properties":{"ps_code":"P19","ps_name":"POOLANKURICHI","name":"P19 POOLANKURICHI","dept_code":"","status":true}},{"type":"Feature","geometry":{"type":"Point","coordinates":[78.27624100000008,9.85796300000004]},"properties":{"ps_code":"P20","ps_name":"POOVANTHI","name":"P20 POOVANTHI","dept_code":"","status":true}},{"type":"Feature","geometry":{"type":"Point","coordinates":[78.38786499100007,10.311722712000062]},"properties":{"ps_code":"P21","ps_name":"PUZHUTHIPATTI","name":"P21 PUZHUTHIPATTI","dept_code":"","status":true}},{"type":"Feature","geometry":{"type":"Point","coordinates":[78.85089657600008,10.097237809000035]},"properties":{"ps_code":"P22","ps_name":"SAKKOTTAI","name":"P22 SAKKOTTAI","dept_code":"","status":true}},{"type":"Feature","geometry":{"type":"Point","coordinates":[78.71943405400003,9.616323212000054]},"properties":{"ps_code":"P23","ps_name":"SALAIGRAMAM","name":"P23 SALAIGRAMAM","dept_code":"","status":true}},{"type":"Feature","geometry":{"type":"Point","coordinates":[78.41409301800007,10.185450554000056]},"properties":{"ps_code":"P24","ps_name":"SINGAMPUNERI","name":"P24 SINGAMPUNERI","dept_code":"","status":true}},{"type":"Feature","geometry":{"type":"Point","coordinates":[78.46563053900007,9.716574793000063]},"properties":{"ps_code":"P25","ps_name":"SIPCOT","name":"P25 SIPCOT","dept_code":"","status":true}},{"type":"Feature","geometry":{"type":"Point","coordinates":[78.48915863000008,9.858126640000023]},"properties":{"ps_code":"P26","ps_name":"SIVAGANGAI TALUK","name":"P26 SIVAGANGAI TALUK","dept_code":"","status":true}},{"type":"Feature","geometry":{"type":"Point","coordinates":[78.48298645000006,9.852605820000065]},"properties":{"ps_code":"P27","ps_name":"SIVAGANGAI TOWN","name":"P27 SIVAGANGAI TOWN","dept_code":"","status":true}},{"type":"Feature","geometry":{"type":"Point","coordinates":[78.76825446000004,10.017642505000026]},"properties":{"ps_code":"P28","ps_name":"SOMANATHAPURAM","name":"P28 SOMANATHAPURAM","dept_code":"","status":true}},{"type":"Feature","geometry":{"type":"Point","coordinates":[78.48369631000008,10.112038772000062]},"properties":{"ps_code":"P29","ps_name":"S.S.KOTTAI","name":"P29 S.S.KOTTAI","dept_code":"","status":true}},{"type":"Feature","geometry":{"type":"Point","coordinates":[78.48030090300006,10.172226906000049]},"properties":{"ps_code":"P30","ps_name":"S.V.MANGALAM","name":"P30 S.V.MANGALAM","dept_code":"","status":true}},{"type":"Feature","geometry":{"type":"Point","coordinates":[78.56268622500005,10.062002535000033]},"properties":{"ps_code":"P31","ps_name":"THIRUKOSTIYUR","name":"P31 THIRUKOSTIYUR","dept_code":"","status":true}},{"type":"Feature","geometry":{"type":"Point","coordinates":[78.34145757500005,9.776548220000052]},"properties":{"ps_code":"P32","ps_name":"THIRUPPACHETHI","name":"P32 THIRUPPACHETHI","dept_code":"","status":true}},{"type":"Feature","geometry":{"type":"Point","coordinates":[78.58879852300004,10.151119232000042]},"properties":{"ps_code":"P33","ps_name":"KANDAVARAYANPATTI","name":"P33 KANDAVARAYANPATTI","dept_code":"","status":true}},{"type":"Feature","geometry":{"type":"Point","coordinates":[78.59968464000008,10.110883236000063]},"properties":{"ps_code":"P33","ps_name":"THIRUPPATHUR TOWN","name":"P33 THIRUPPATHUR TOWN","dept_code":"","status":true}},{"type":"Feature","geometry":{"type":"Point","coordinates":[78.26093555800009,9.823737378000033]},"properties":{"ps_code":"P34","ps_name":"THIRUPPUVANAM","name":"P34 THIRUPPUVANAM","dept_code":"","status":true}},{"type":"Feature","geometry":{"type":"Point","coordinates":[78.77022552500006,9.832845688000077]},"properties":{"ps_code":"P35","ps_name":"THIRUVEGAMPAT","name":"P35 THIRUVEGAMPAT","dept_code":"","status":true}},{"type":"Feature","geometry":{"type":"Point","coordinates":[78.50649218400008,10.319896763000031]},"properties":{"ps_code":"P36","ps_name":"ULAGAMPATTI","name":"P36 ULAGAMPATTI","dept_code":"","status":true}},{"type":"Feature","geometry":{"type":"Point","coordinates":[78.79359436000004,10.080646515000069]},"properties":{"ps_code":"P38","ps_name":"ALAGAPPURAM","name":"P38 ALAGAPPURAM","dept_code":"","status":true}}]}