{"type":"FeatureCollection","features":[{"type":"Feature","geometry":{"type":"Point","coordinates":[79.38553504900005,10.340407697000046]},"properties":{"ps_code":"P1","ps_name":"ADIRAMPATTINAM","name":"P1 ADIRAMPATTINAM","dept_code":"","status":true}},{"type":"Feature","geometry":{"type":"Point","coordinates":[79.31806855400004,10.784321954000063]},"properties":{"ps_code":"P2","ps_name":"AMMAPETTAI","name":"P2 AMMAPETTAI","dept_code":"","status":true}},{"type":"Feature","geometry":{"type":"Point","coordinates":[79.32099914600008,10.791655540000022]},"properties":{"ps_code":"P5","ps_name":"HT MANGALAM","name":"P5 HT MANGALAM","dept_code":"","status":true}},{"type":"Feature","geometry":{"type":"Point","coordinates":[79.18819534800008,10.885711507000053]},"properties":{"ps_code":"P3","ps_name":"AYYAMPETTAI","name":"P3 AYYAMPETTAI","dept_code":"","status":true}},{"type":"Feature","geometry":{"type":"Point","coordinates":[78.97713882500005,10.793567351000036]},"properties":{"ps_code":"P4","ps_name":"BUDALUR","name":"P4 BUDALUR","dept_code":"","status":true}},{"type":"Feature","geometry":{"type":"Point","coordinates":[79.26570892300003,10.946139336000044]},"properties":{"ps_code":"P6","ps_name":"KABISTHALAM","name":"P6 KABISTHALAM","dept_code":"","status":true}},{"type":"Feature","geometry":{"type":"Point","coordinates":[79.03679657000004,10.811783791000039]},"properties":{"ps_code":"P7","ps_name":"KALLAPERAMBUR","name":"P7 KALLAPERAMBUR","dept_code":"","status":true}},{"type":"Feature","geometry":{"type":"Point","coordinates":[79.39348602300004,10.966038704000027]},"properties":{"ps_code":"P8","ps_name":"KUMBAKONAM EAST","name":"P8 KUMBAKONAM EAST","dept_code":"","status":true}},{"type":"Feature","geometry":{"type":"Point","coordinates":[79.36552429200003,10.955349922000039]},"properties":{"ps_code":"P9","ps_name":"KUMBAKONAM TALUK","name":"P9 KUMBAKONAM TALUK","dept_code":"","status":true}},{"type":"Feature","geometry":{"type":"Point","coordinates":[79.39318353200008,10.480224755000052]},"properties":{"ps_code":"P11","ps_name":"MADUKKUR","name":"P11 MADUKKUR","dept_code":"","status":true}},{"type":"Feature","geometry":{"type":"Point","coordinates":[79.04154205300006,10.87840557100003]},"properties":{"ps_code":"P12","ps_name":"MARUVUR","name":"P12 MARUVUR","dept_code":"","status":true}},{"type":"Feature","geometry":{"type":"Point","coordinates":[79.23860931400003,10.856666565000069]},"properties":{"ps_code":"P13","ps_name":"MELATTUR","name":"P13 MELATTUR","dept_code":"","status":true}},{"type":"Feature","geometry":{"type":"Point","coordinates":[79.04305267300003,10.858888626000066]},"properties":{"ps_code":"P14","ps_name":"NADUCAUVERY","name":"P14 NADUCAUVERY","dept_code":"","status":true}},{"type":"Feature","geometry":{"type":"Point","coordinates":[79.44514465300006,10.914933205000068]},"properties":{"ps_code":"P15","ps_name":"NATCHIYAR KOIL","name":"P15 NATCHIYAR KOIL","dept_code":"","status":true}},{"type":"Feature","geometry":{"type":"Point","coordinates":[79.25396051400008,10.621358317000045]},"properties":{"ps_code":"P16","ps_name":"ORATHANADU","name":"P16 ORATHANADU","dept_code":"","status":true}},{"type":"Feature","geometry":{"type":"Point","coordinates":[79.51103210400004,11.131472588000065]},"properties":{"ps_code":"P17","ps_name":"PANDANALLUR","name":"P17 PANDANALLUR","dept_code":"","status":true}},{"type":"Feature","geometry":{"type":"Point","coordinates":[79.26963806200007,10.92436409000004]},"properties":{"ps_code":"P18","ps_name":"PAPANASAM","name":"P18 PAPANASAM","dept_code":"","status":true}},{"type":"Feature","geometry":{"type":"Point","coordinates":[79.28233444100005,10.537979839000059]},"properties":{"ps_code":"P19","ps_name":"PAPPANADU","name":"P19 PAPPANADU","dept_code":"","status":true}},{"type":"Feature","geometry":{"type":"Point","coordinates":[79.34724100500006,10.926278424000031]},"properties":{"ps_code":"P20","ps_name":"PATTEESWARAM","name":"P20 PATTEESWARAM","dept_code":"","status":true}},{"type":"Feature","geometry":{"type":"Point","coordinates":[79.31683860000004,10.417259700000045]},"properties":{"ps_code":"P21","ps_name":"PATTUKOTTAI TALUK","name":"P21 PATTUKOTTAI TALUK","dept_code":"","status":true}},{"type":"Feature","geometry":{"type":"Point","coordinates":[79.32023620600006,10.42669963800006]},"properties":{"ps_code":"P22","ps_name":"PATTUKOTTAI TOWN","name":"P22 PATTUKOTTAI TOWN","dept_code":"","status":true}},{"type":"Feature","geometry":{"type":"Point","coordinates":[79.19023588900006,10.280621970000027]},"properties":{"ps_code":"P23","ps_name":"PERAVURANI","name":"P23 PERAVURANI","dept_code":"","status":true}},{"type":"Feature","geometry":{"type":"Point","coordinates":[79.28206634500003,10.25270557400006]},"properties":{"ps_code":"P24","ps_name":"SB CHATRAM","name":"P24 SB CHATRAM","dept_code":"","status":true}},{"type":"Feature","geometry":{"type":"Point","coordinates":[78.95780181900005,10.709628105000036]},"properties":{"ps_code":"P25","ps_name":"SENGIPATTI","name":"P25 SENGIPATTI","dept_code":"","status":true}},{"type":"Feature","geometry":{"type":"Point","coordinates":[79.33568283800008,10.959958409000023]},"properties":{"ps_code":"P26","ps_name":"SWAMIMALAI","name":"P26 SWAMIMALAI","dept_code":"","status":true}},{"type":"Feature","geometry":{"type":"Point","coordinates":[79.09826019400003,10.733595738000076]},"properties":{"ps_code":"P27","ps_name":"TAMIL UNIVERSITY","name":"P27 TAMIL UNIVERSITY","dept_code":"","status":true}},{"type":"Feature","geometry":{"type":"Point","coordinates":[79.14062175600003,10.795405047000031]},"properties":{"ps_code":"P28","ps_name":"TAN EAST","name":"P28 TAN EAST","dept_code":"","status":true}},{"type":"Feature","geometry":{"type":"Point","coordinates":[79.12937164300007,10.768428802000074]},"properties":{"ps_code":"P29","ps_name":"TAN SOUTH","name":"P29 TAN SOUTH","dept_code":"","status":true}},{"type":"Feature","geometry":{"type":"Point","coordinates":[79.14105224600007,10.78817176800004]},"properties":{"ps_code":"P31","ps_name":"TAN TALUK","name":"P31 TAN TALUK","dept_code":"","status":true}},{"type":"Feature","geometry":{"type":"Point","coordinates":[79.19863128700007,10.366961479000054]},"properties":{"ps_code":"P32","ps_name":"THIRUCHITRAMBALAM","name":"P32 THIRUCHITRAMBALAM","dept_code":"","status":true}},{"type":"Feature","geometry":{"type":"Point","coordinates":[78.95482397000006,10.849157603000037]},"properties":{"ps_code":"P33","ps_name":"THIRUKATTUPALLI","name":"P33 THIRUKATTUPALLI","dept_code":"","status":true}},{"type":"Feature","geometry":{"type":"Point","coordinates":[79.48664093000008,10.985025406000034]},"properties":{"ps_code":"P34","ps_name":"THIRUNEELAKUDI","name":"P34 THIRUNEELAKUDI","dept_code":"","status":true}},{"type":"Feature","geometry":{"type":"Point","coordinates":[79.45290163700008,11.091357881000022]},"properties":{"ps_code":"P35","ps_name":"THIRUPPANANTHAL","name":"P35 THIRUPPANANTHAL","dept_code":"","status":true}},{"type":"Feature","geometry":{"type":"Point","coordinates":[79.09883880600006,10.878100395000047]},"properties":{"ps_code":"P36","ps_name":"THIRUVAIYAR W","name":"P36 THIRUVAIYAR W","dept_code":"","status":true}},{"type":"Feature","geometry":{"type":"Point","coordinates":[79.45492975200006,10.998356262000073]},"properties":{"ps_code":"P37","ps_name":"THIRUVIDAIMARUTHUR","name":"P37 THIRUVIDAIMARUTHUR","dept_code":"","status":true}},{"type":"Feature","geometry":{"type":"Point","coordinates":[79.16197967500005,10.505022049000047]},"properties":{"ps_code":"P38","ps_name":"THIRUVONAM","name":"P38 THIRUVONAM","dept_code":"","status":true}},{"type":"Feature","geometry":{"type":"Point","coordinates":[78.82418823200004,10.832602501000054]},"properties":{"ps_code":"P39","ps_name":"THOGUR","name":"P39 THOGUR","dept_code":"","status":true}},{"type":"Feature","geometry":{"type":"Point","coordinates":[79.10435485800008,10.75866699200003]},"properties":{"ps_code":"P40","ps_name":"TMCH","name":"P40 TMCH","dept_code":"","status":true}},{"type":"Feature","geometry":{"type":"Point","coordinates":[79.06230926500007,10.716670036000039]},"properties":{"ps_code":"P42","ps_name":"VALLAM","name":"P42 VALLAM","dept_code":"","status":true}},{"type":"Feature","geometry":{"type":"Point","coordinates":[79.18844604500003,10.390619278000031]},"properties":{"ps_code":"P43","ps_name":"VATTATHIKOTTAI","name":"P43 VATTATHIKOTTAI","dept_code":"","status":true}},{"type":"Feature","geometry":{"type":"Point","coordinates":[79.37463886800003,10.958571931000051]},"properties":{"ps_code":"P10","ps_name":"KUMBAKONAM WEST","name":"P10 KUMBAKONAM WEST","dept_code":"","status":true}},{"type":"Feature","geometry":{"type":"Point","coordinates":[79.13285064700005,10.77435588800006]},"properties":{"ps_code":"P30","ps_name":"TAN WEST","name":"P30 TAN WEST","dept_code":"","status":true}}]}