{"type":"FeatureCollection","features":[{"type":"Feature","geometry":{"type":"Point","coordinates":[79.54422200000005,12.640356000000054]},"properties":{"ps_code":"P1","ps_name":"ANAKKAVUR","name":"P1 ANAKKAVUR","dept_code":"","status":true}},{"type":"Feature","geometry":{"type":"Point","coordinates":[79.28557780000006,12.673418200000071]},"properties":{"ps_code":"P3","ps_name":"ARANI TOWN","name":"P3 ARANI TOWN","dept_code":"","status":true}},{"type":"Feature","geometry":{"type":"Point","coordinates":[79.28203582800006,12.672683716000051]},"properties":{"ps_code":"P2","ps_name":"ARANI TALUK","name":"P2 ARANI TALUK","dept_code":"","status":true}},{"type":"Feature","geometry":{"type":"Point","coordinates":[79.51622500000008,12.837645000000066]},"properties":{"ps_code":"P4","ps_name":"BRAMMADESAM","name":"P4 BRAMMADESAM","dept_code":"","status":true}},{"type":"Feature","geometry":{"type":"Point","coordinates":[78.79312300000004,12.303560000000061]},"properties":{"ps_code":"P5","ps_name":"CHENGAM","name":"P5 CHENGAM","dept_code":"","status":true}},{"type":"Feature","geometry":{"type":"Point","coordinates":[79.34815800000007,12.463935000000049]},"properties":{"ps_code":"P6","ps_name":"CHETPET","name":"P6 CHETPET","dept_code":"","status":true}},{"type":"Feature","geometry":{"type":"Point","coordinates":[79.54123687700007,12.66676807400006]},"properties":{"ps_code":"P7","ps_name":"CHEYYAR","name":"P7 CHEYYAR","dept_code":"","status":true}},{"type":"Feature","geometry":{"type":"Point","coordinates":[79.48334300000005,12.439436000000057]},"properties":{"ps_code":"P8","ps_name":"DESUR","name":"P8 DESUR","dept_code":"","status":true}},{"type":"Feature","geometry":{"type":"Point","coordinates":[79.67925500000007,12.774818000000039]},"properties":{"ps_code":"P9","ps_name":"DUSI","name":"P9 DUSI","dept_code":"","status":true}},{"type":"Feature","geometry":{"type":"Point","coordinates":[78.88814300000007,12.592684000000077]},"properties":{"ps_code":"P10","ps_name":"JAMANAMARATHUR","name":"P10 JAMANAMARATHUR","dept_code":"","status":true}},{"type":"Feature","geometry":{"type":"Point","coordinates":[78.96483600000005,12.404576000000077]},"properties":{"ps_code":"P11","ps_name":"KADALADI","name":"P11 KADALADI","dept_code":"","status":true}},{"type":"Feature","geometry":{"type":"Point","coordinates":[79.21615600600006,12.629298210000059]},"properties":{"ps_code":"P12","ps_name":"KALAMBUR","name":"P12 KALAMBUR","dept_code":"","status":true}},{"type":"Feature","geometry":{"type":"Point","coordinates":[79.11083700000006,12.438804000000061]},"properties":{"ps_code":"P13","ps_name":"KALASAPAKKAM","name":"P13 KALASAPAKKAM","dept_code":"","status":true}},{"type":"Feature","geometry":{"type":"Point","coordinates":[79.16702634200004,12.751520442000071]},"properties":{"ps_code":"P14","ps_name":"KANNAMANGALAM","name":"P14 KANNAMANGALAM","dept_code":"","status":true}},{"type":"Feature","geometry":{"type":"Point","coordinates":[79.70113500000008,12.494000000000028]},"properties":{"ps_code":"P15","ps_name":"KILKODUNGALUR","name":"P15 KILKODUNGALUR","dept_code":"","status":true}},{"type":"Feature","geometry":{"type":"Point","coordinates":[79.22484800000007,12.24646400000006]},"properties":{"ps_code":"P16","ps_name":"KILPENNATHUR","name":"P16 KILPENNATHUR","dept_code":"","status":true}},{"type":"Feature","geometry":{"type":"Point","coordinates":[79.17594909700006,12.327567101000056]},"properties":{"ps_code":"P17","ps_name":"MANGALAM","name":"P17 MANGALAM","dept_code":"","status":true}},{"type":"Feature","geometry":{"type":"Point","coordinates":[78.72378300000008,12.274350000000027]},"properties":{"ps_code":"P18","ps_name":"MELCHENGAM","name":"P18 MELCHENGAM","dept_code":"","status":true}},{"type":"Feature","geometry":{"type":"Point","coordinates":[79.48449700000003,12.759286000000031]},"properties":{"ps_code":"P19","ps_name":"MORANAM","name":"P19 MORANAM","dept_code":"","status":true}},{"type":"Feature","geometry":{"type":"Point","coordinates":[78.94344329800003,12.270720482000058]},"properties":{"ps_code":"P20","ps_name":"PACHAL","name":"P20 PACHAL","dept_code":"","status":true}},{"type":"Feature","geometry":{"type":"Point","coordinates":[79.43464900000004,12.566148000000055]},"properties":{"ps_code":"P21","ps_name":"PERANAMALLUR","name":"P21 PERANAMALLUR","dept_code":"","status":true}},{"type":"Feature","geometry":{"type":"Point","coordinates":[79.12252400000006,12.508101000000067]},"properties":{"ps_code":"P22","ps_name":"POLUR","name":"P22 POLUR","dept_code":"","status":true}},{"type":"Feature","geometry":{"type":"Point","coordinates":[79.53959655800008,12.47096061700006]},"properties":{"ps_code":"P23","ps_name":"PONNUR","name":"P23 PONNUR","dept_code":"","status":true}},{"type":"Feature","geometry":{"type":"Point","coordinates":[78.87243300000006,12.360020000000077]},"properties":{"ps_code":"P24","ps_name":"PUDUPALAYAM","name":"P24 PUDUPALAYAM","dept_code":"","status":true}},{"type":"Feature","geometry":{"type":"Point","coordinates":[79.15883300000007,12.644814000000054]},"properties":{"ps_code":"P25","ps_name":"SANTHAVASAL","name":"P25 SANTHAVASAL","dept_code":"","status":true}},{"type":"Feature","geometry":{"type":"Point","coordinates":[78.85867309600008,12.179738998000062]},"properties":{"ps_code":"P26","ps_name":"SATHANURDAM","name":"P26 SATHANURDAM","dept_code":"","status":true}},{"type":"Feature","geometry":{"type":"Point","coordinates":[79.08421600000008,12.094376000000068]},"properties":{"ps_code":"P29","ps_name":"THATCHAMPET","name":"P29 THATCHAMPET","dept_code":"","status":true}},{"type":"Feature","geometry":{"type":"Point","coordinates":[78.94938300000007,12.153528000000051]},"properties":{"ps_code":"P27","ps_name":"THANDRAMPET","name":"P27 THANDRAMPET","dept_code":"","status":true}},{"type":"Feature","geometry":{"type":"Point","coordinates":[78.83446600000008,12.106657000000041]},"properties":{"ps_code":"P28","ps_name":"THANIPADI","name":"P28 THANIPADI","dept_code":"","status":true}},{"type":"Feature","geometry":{"type":"Point","coordinates":[79.55100400000003,12.401164000000051]},"properties":{"ps_code":"P30","ps_name":"THELLAR","name":"P30 THELLAR","dept_code":"","status":true}},{"type":"Feature","geometry":{"type":"Point","coordinates":[79.02032900000006,12.109317000000033]},"properties":{"ps_code":"P35","ps_name":"VANAPURAM","name":"P35 VANAPURAM","dept_code":"","status":true}},{"type":"Feature","geometry":{"type":"Point","coordinates":[79.60454559300007,12.506884575000072]},"properties":{"ps_code":"P36","ps_name":"VANDAVASI NORTH","name":"P36 VANDAVASI NORTH","dept_code":"","status":true}},{"type":"Feature","geometry":{"type":"Point","coordinates":[79.60432434100005,12.505644798000048]},"properties":{"ps_code":"P37","ps_name":"VANDAVASI SOUTH","name":"P37 VANDAVASI SOUTH","dept_code":"","status":true}},{"type":"Feature","geometry":{"type":"Point","coordinates":[79.13040200000006,12.091669000000024]},"properties":{"ps_code":"P38","ps_name":"VERAIYUR","name":"P38 VERAIYUR","dept_code":"","status":true}},{"type":"Feature","geometry":{"type":"Point","coordinates":[79.24443800000006,12.114483000000064]},"properties":{"ps_code":"P39","ps_name":"VETTAVALAM","name":"P39 VETTAVALAM","dept_code":"","status":true}},{"type":"Feature","geometry":{"type":"Point","coordinates":[79.50670623800005,12.500807762000022]},"properties":{"ps_code":"P34","ps_name":"VADAVANAKAMABADI","name":"P34 VADAVANAKAMABADI","dept_code":"","status":true}},{"type":"Feature","geometry":{"type":"Point","coordinates":[79.06134796100008,12.254424095000047]},"properties":{"ps_code":"P32","ps_name":"THIRUVANNAMALAI TALUK","name":"P32 THIRUVANNAMALAI TALUK","dept_code":"","status":true}},{"type":"Feature","geometry":{"type":"Point","coordinates":[79.06991400000004,12.230220000000031]},"properties":{"ps_code":"P33","ps_name":"THIRUVANNAMALAI TOWN","name":"P33 THIRUVANNAMALAI TOWN","dept_code":"","status":true}},{"type":"Feature","geometry":{"type":"Point","coordinates":[79.07593536400003,12.234995842000046]},"properties":{"ps_code":"P31","ps_name":"THIRUVANNAMALAI EAST","name":"P31 THIRUVANNAMALAI EAST","dept_code":"","status":true}},{"type":"Feature","geometry":{"type":"Point","coordinates":[79.54138183600008,12.666933060000076]},"properties":{"ps_code":"P40","ps_name":"Cheyyar AWPS","name":"P40 Cheyyar AWPS","dept_code":"","status":true}},{"type":"Feature","geometry":{"type":"Point","coordinates":[79.60522460900006,12.506528854000067]},"properties":{"ps_code":"P41","ps_name":"Vandavasi AWPS","name":"P41 Vandavasi AWPS","dept_code":"","status":true}}]}