{"type":"FeatureCollection","features":[{"type":"Feature","geometry":{"type":"Point","coordinates":[77.93718719500004,8.606815338000047]},"properties":{"ps_code":"P1","ps_name":"ALWARTHIRUNAGIRI","name":"P1 ALWARTHIRUNAGIRI","dept_code":"","status":true}},{"type":"Feature","geometry":{"type":"Point","coordinates":[78.09270300000003,8.57293100000004]},"properties":{"ps_code":"P2","ps_name":"ARUMUGANERI","name":"P2 ARUMUGANERI","dept_code":"","status":true}},{"type":"Feature","geometry":{"type":"Point","coordinates":[78.06975900000003,8.61805000000004]},"properties":{"ps_code":"P3","ps_name":"AUTHOOR","name":"P3 AUTHOOR","dept_code":"","status":true}},{"type":"Feature","geometry":{"type":"Point","coordinates":[78.05324600000006,9.01770700000003]},"properties":{"ps_code":"P4","ps_name":"EPPODUMVENDRAN","name":"P4 EPPODUMVENDRAN","dept_code":"","status":true}},{"type":"Feature","geometry":{"type":"Point","coordinates":[78.02195739700005,8.624299049000058]},"properties":{"ps_code":"P5","ps_name":"ERAL","name":"P5 ERAL","dept_code":"","status":true}},{"type":"Feature","geometry":{"type":"Point","coordinates":[78.00120400000003,9.153516000000025]},"properties":{"ps_code":"P6","ps_name":"ETTAIYAPURAM","name":"P6 ETTAIYAPURAM","dept_code":"","status":true}},{"type":"Feature","geometry":{"type":"Point","coordinates":[78.24553303200008,9.205989894000027]},"properties":{"ps_code":"P7","ps_name":"KADALKUDI","name":"P7 KADALKUDI","dept_code":"","status":true}},{"type":"Feature","geometry":{"type":"Point","coordinates":[77.85631377100003,8.994777723000027]},"properties":{"ps_code":"P8","ps_name":"KADAMBUR","name":"P8 KADAMBUR","dept_code":"","status":true}},{"type":"Feature","geometry":{"type":"Point","coordinates":[77.70209749500003,9.14753161300007]},"properties":{"ps_code":"P9","ps_name":"KALUGUMALAI","name":"P9 KALUGUMALAI","dept_code":"","status":true}},{"type":"Feature","geometry":{"type":"Point","coordinates":[77.77257600000007,8.947489000000076]},"properties":{"ps_code":"P10","ps_name":"KAYATHAR","name":"P10 KAYATHAR","dept_code":"","status":true}},{"type":"Feature","geometry":{"type":"Point","coordinates":[77.91036841100004,9.072755793000056]},"properties":{"ps_code":"P11","ps_name":"KOPPAMPATTI","name":"P11 KOPPAMPATTI","dept_code":"","status":true}},{"type":"Feature","geometry":{"type":"Point","coordinates":[77.87585449200003,9.17593574500006]},"properties":{"ps_code":"P12","ps_name":"KOVILPATTI EAST","name":"P12 KOVILPATTI EAST","dept_code":"","status":true}},{"type":"Feature","geometry":{"type":"Point","coordinates":[77.85472869900008,9.16837692300004]},"properties":{"ps_code":"P13","ps_name":"KOVILPATTI WEST","name":"P13 KOVILPATTI WEST","dept_code":"","status":true}},{"type":"Feature","geometry":{"type":"Point","coordinates":[78.05243600000006,8.399964000000068]},"properties":{"ps_code":"P14","ps_name":"KULASEKARAPATTINAM","name":"P14 KULASEKARAPATTINAM","dept_code":"","status":true}},{"type":"Feature","geometry":{"type":"Point","coordinates":[78.18849400000005,9.003085000000056]},"properties":{"ps_code":"P15","ps_name":"KULATHUR","name":"P15 KULATHUR","dept_code":"","status":true}},{"type":"Feature","geometry":{"type":"Point","coordinates":[78.04154900000003,8.591539000000068]},"properties":{"ps_code":"P16","ps_name":"KURUMBUR","name":"P16 KURUMBUR","dept_code":"","status":true}},{"type":"Feature","geometry":{"type":"Point","coordinates":[77.89353179900007,8.86299705500005]},"properties":{"ps_code":"P17","ps_name":"MANIYACHI","name":"P17 MANIYACHI","dept_code":"","status":true}},{"type":"Feature","geometry":{"type":"Point","coordinates":[78.03330903000005,9.289631876000044]},"properties":{"ps_code":"P18","ps_name":"MASARPATTI","name":"P18 MASARPATTI","dept_code":"","status":true}},{"type":"Feature","geometry":{"type":"Point","coordinates":[77.99983256800004,8.474327895000044]},"properties":{"ps_code":"P19","ps_name":"MEIGNANAPURAM","name":"P19 MEIGNANAPURAM","dept_code":"","status":true}},{"type":"Feature","geometry":{"type":"Point","coordinates":[77.83070531700008,8.713269869000044]},"properties":{"ps_code":"P20","ps_name":"MURAPPANADU","name":"P20 MURAPPANADU","dept_code":"","status":true}},{"type":"Feature","geometry":{"type":"Point","coordinates":[78.12449076300004,8.743437075000031]},"properties":{"ps_code":"P21","ps_name":"MUTHAIAYAPURAM","name":"P21 MUTHAIAYAPURAM","dept_code":"","status":true}},{"type":"Feature","geometry":{"type":"Point","coordinates":[77.78920745800008,9.142446518000042]},"properties":{"ps_code":"P22","ps_name":"NALATTINPUDHUR","name":"P22 NALATTINPUDHUR","dept_code":"","status":true}},{"type":"Feature","geometry":{"type":"Point","coordinates":[77.84345245400004,8.857930183000065]},"properties":{"ps_code":"P23","ps_name":"NARAIKINARU","name":"P23 NARAIKINARU","dept_code":"","status":true}},{"type":"Feature","geometry":{"type":"Point","coordinates":[77.97864169100006,8.563223837000066]},"properties":{"ps_code":"P24","ps_name":"NAZERTH","name":"P24 NAZERTH","dept_code":"","status":true}},{"type":"Feature","geometry":{"type":"Point","coordinates":[78.02118601200004,8.915737695000075]},"properties":{"ps_code":"P25","ps_name":"OTTAPIDARAM","name":"P25 OTTAPIDARAM","dept_code":"","status":true}},{"type":"Feature","geometry":{"type":"Point","coordinates":[77.96967315700005,9.000141144000054]},"properties":{"ps_code":"P26","ps_name":"PASUVANTHANAI","name":"P26 PASUVANTHANAI","dept_code":"","status":true}},{"type":"Feature","geometry":{"type":"Point","coordinates":[78.04437255900007,8.736589432000073]},"properties":{"ps_code":"P28","ps_name":"PUDHUKOTTAI","name":"P28 PUDHUKOTTAI","dept_code":"","status":true}},{"type":"Feature","geometry":{"type":"Point","coordinates":[78.13593200000008,9.291015000000073]},"properties":{"ps_code":"P29","ps_name":"PUDHUR","name":"P29 PUDHUR","dept_code":"","status":true}},{"type":"Feature","geometry":{"type":"Point","coordinates":[77.84817504900008,8.825120926000068]},"properties":{"ps_code":"P30","ps_name":"PULIYAMPATTI","name":"P30 PULIYAMPATTI","dept_code":"","status":true}},{"type":"Feature","geometry":{"type":"Point","coordinates":[78.02644348100006,8.872528076000037]},"properties":{"ps_code":"P27","ps_name":"PUDHIYAMPUTHUR","name":"P27 PUDHIYAMPUTHUR","dept_code":"","status":true}},{"type":"Feature","geometry":{"type":"Point","coordinates":[78.12141000000008,9.243055000000027]},"properties":{"ps_code":"P31","ps_name":"SANKARLINGAPURAM","name":"P31 SANKARLINGAPURAM","dept_code":"","status":true}},{"type":"Feature","geometry":{"type":"Point","coordinates":[77.90868300000005,8.441868000000056]},"properties":{"ps_code":"P32","ps_name":"SATHANKULAM","name":"P32 SATHANKULAM","dept_code":"","status":true}},{"type":"Feature","geometry":{"type":"Point","coordinates":[78.03733062700007,8.684254646000056]},"properties":{"ps_code":"P33","ps_name":"SAWYERPURAM","name":"P33 SAWYERPURAM","dept_code":"","status":true}},{"type":"Feature","geometry":{"type":"Point","coordinates":[77.82864700000005,8.661657000000048]},"properties":{"ps_code":"P34","ps_name":"SETHINGANALLUR","name":"P34 SETHINGANALLUR","dept_code":"","status":true}},{"type":"Feature","geometry":{"type":"Point","coordinates":[78.08311300000008,8.807476000000065]},"properties":{"ps_code":"P28","ps_name":"SIPCOT","name":"P28 SIPCOT","dept_code":"","status":true}},{"type":"Feature","geometry":{"type":"Point","coordinates":[77.90811157200005,8.62540817300004]},"properties":{"ps_code":"P36","ps_name":"SRIVAIKUNDAM","name":"P36 SRIVAIKUNDAM","dept_code":"","status":true}},{"type":"Feature","geometry":{"type":"Point","coordinates":[78.31832122800006,9.105772018000039]},"properties":{"ps_code":"P37","ps_name":"SURANGUDI","name":"P37 SURANGUDI","dept_code":"","status":true}},{"type":"Feature","geometry":{"type":"Point","coordinates":[78.14551300000005,8.83604900000006]},"properties":{"ps_code":"P38","ps_name":"THALAMUTHU","name":"P38 THALAMUTHU","dept_code":"","status":true}},{"type":"Feature","geometry":{"type":"Point","coordinates":[78.17173004200004,8.892518044000042]},"properties":{"ps_code":"P39","ps_name":"THARUVAIKULAM","name":"P39 THARUVAIKULAM","dept_code":"","status":true}},{"type":"Feature","geometry":{"type":"Point","coordinates":[78.02055900000005,8.828962000000047]},"properties":{"ps_code":"P40","ps_name":"THATTAMPARAI","name":"P40 THATTAMPARAI","dept_code":"","status":true}},{"type":"Feature","geometry":{"type":"Point","coordinates":[77.93612700000006,8.371531000000061]},"properties":{"ps_code":"P41","ps_name":"THATTARAMADAM","name":"P41 THATTARAMADAM","dept_code":"","status":true}},{"type":"Feature","geometry":{"type":"Point","coordinates":[78.17522600000007,8.753108000000054]},"properties":{"ps_code":"P44","ps_name":"THERMAL NAGAR","name":"P44 THERMAL NAGAR","dept_code":"","status":true}},{"type":"Feature","geometry":{"type":"Point","coordinates":[78.15774000000005,8.803446000000065]},"properties":{"ps_code":"P46","ps_name":"TUK CENTRAL","name":"P46 TUK CENTRAL","dept_code":"","status":true}},{"type":"Feature","geometry":{"type":"Point","coordinates":[78.16312408400006,8.811637878000056]},"properties":{"ps_code":"P47","ps_name":"TUK NORTH","name":"P47 TUK NORTH","dept_code":"","status":true}},{"type":"Feature","geometry":{"type":"Point","coordinates":[78.13682556200007,8.800304413000049]},"properties":{"ps_code":"P45","ps_name":"TUK SOUTH","name":"P45 TUK SOUTH","dept_code":"","status":true}},{"type":"Feature","geometry":{"type":"Point","coordinates":[78.12606811500007,8.496089935000043]},"properties":{"ps_code":"P42","ps_name":"TIRUCHENDUR","name":"P42 TIRUCHENDUR","dept_code":"","status":true}},{"type":"Feature","geometry":{"type":"Point","coordinates":[78.12612152100007,8.498999596000033]},"properties":{"ps_code":"P48","ps_name":"TIRUCHENDUR TEMPLE","name":"P48 TIRUCHENDUR TEMPLE","dept_code":"","status":true}},{"type":"Feature","geometry":{"type":"Point","coordinates":[78.16858673100006,9.129712105000067]},"properties":{"ps_code":"P43","ps_name":"VILATHIKULAM","name":"P43 VILATHIKULAM","dept_code":"","status":true}},{"type":"Feature","geometry":{"type":"Point","coordinates":[77.82035827600004,8.577498436000042]},"properties":{"ps_code":"P49","ps_name":"SERAKULAM","name":"P49 SERAKULAM","dept_code":"","status":true}}]}