{"type":"FeatureCollection","features":[{"type":"Feature","geometry":{"type":"Point","coordinates":[78.58023189900007,12.56761311400004]},"properties":{"ps_code":"P15","ps_name":"JOLARPET","name":"P15 JOLARPET","dept_code":"","status":true}},{"type":"Feature","geometry":{"type":"Point","coordinates":[78.45401100000004,12.48010400000004]},"properties":{"ps_code":"P17","ps_name":"KANDILI","name":"P17 KANDILI","dept_code":"","status":true}},{"type":"Feature","geometry":{"type":"Point","coordinates":[78.81654357900004,12.577748299000064]},"properties":{"ps_code":"P19","ps_name":"KAVALUR","name":"P19 KAVALUR","dept_code":"","status":true}},{"type":"Feature","geometry":{"type":"Point","coordinates":[78.57025146500007,12.486911774000077]},"properties":{"ps_code":"P43","ps_name":"THIRUPATHUR TALUK","name":"P43 THIRUPATHUR TALUK","dept_code":"","status":true}},{"type":"Feature","geometry":{"type":"Point","coordinates":[78.51258700000005,12.591919000000075]},"properties":{"ps_code":"P27","ps_name":"NATRAMPALLI","name":"P27 NATRAMPALLI","dept_code":"","status":true}},{"type":"Feature","geometry":{"type":"Point","coordinates":[78.52902221700003,12.69189453100006]},"properties":{"ps_code":"P42","ps_name":"THIMMAMPETTAI","name":"P42 THIMMAMPETTAI","dept_code":"","status":true}},{"type":"Feature","geometry":{"type":"Point","coordinates":[78.61824900000005,12.686974000000077]},"properties":{"ps_code":"P47","ps_name":"VANIYAMBADI TALUK","name":"P47 VANIYAMBADI TALUK","dept_code":"","status":true}},{"type":"Feature","geometry":{"type":"Point","coordinates":[78.62522358400008,12.675229040000033]},"properties":{"ps_code":"P48","ps_name":"VANIYAMBADI TOWN","name":"P48 VANIYAMBADI TOWN","dept_code":"","status":true}},{"type":"Feature","geometry":{"type":"Point","coordinates":[78.63156890900007,12.592886925000073]},"properties":{"ps_code":"P57","ps_name":"YELAGIRI","name":"P57 YELAGIRI","dept_code":"","status":true}},{"type":"Feature","geometry":{"type":"Point","coordinates":[78.75172800000007,12.623106000000064]},"properties":{"ps_code":"P1","ps_name":"ALANGAYAM","name":"P1 ALANGAYAM","dept_code":"","status":true}},{"type":"Feature","geometry":{"type":"Point","coordinates":[78.65327453600008,12.509734154000057]},"properties":{"ps_code":"P22","ps_name":"KURICHILAPET","name":"P22 KURICHILAPET","dept_code":"","status":true}},{"type":"Feature","geometry":{"type":"Point","coordinates":[78.71916198700006,12.78244686100004]},"properties":{"ps_code":"P3","ps_name":"AMBUR TALUK","name":"P3 AMBUR TALUK","dept_code":"","status":true}},{"type":"Feature","geometry":{"type":"Point","coordinates":[78.56457000000006,12.66290900000007]},"properties":{"ps_code":"P2","ps_name":"AMBALUR","name":"P2 AMBALUR","dept_code":"","status":true}},{"type":"Feature","geometry":{"type":"Point","coordinates":[78.70677486600005,12.839181555000039]},"properties":{"ps_code":"P29","ps_name":"OMERABAD","name":"P29 OMERABAD","dept_code":"","status":true}},{"type":"Feature","geometry":{"type":"Point","coordinates":[78.71913147000004,12.782466888000044]},"properties":{"ps_code":"P4","ps_name":"AMBUR TOWN","name":"P4 AMBUR TOWN","dept_code":"","status":true}}]}