{"type":"FeatureCollection","features":[{"type":"Feature","geometry":{"type":"Point","coordinates":[79.13372800000008,12.875357000000065]},"properties":{"ps_code":"P11","ps_name":"BAGAYAM","name":"P11 BAGAYAM","dept_code":"","status":true}},{"type":"Feature","geometry":{"type":"Point","coordinates":[78.97342681900005,13.06825733200003]},"properties":{"ps_code":"P32","ps_name":"PARATHARAMI","name":"P32 PARATHARAMI","dept_code":"","status":true}},{"type":"Feature","geometry":{"type":"Point","coordinates":[78.71732400000008,12.933303000000024]},"properties":{"ps_code":"P33","ps_name":"PERNAMBUT","name":"P33 PERNAMBUT","dept_code":"","status":true}},{"type":"Feature","geometry":{"type":"Point","coordinates":[78.86580200000003,12.94105600000006]},"properties":{"ps_code":"P14","ps_name":"GUDIYATHAM TOWN","name":"P14 GUDIYATHAM TOWN","dept_code":"","status":true}},{"type":"Feature","geometry":{"type":"Point","coordinates":[78.98571800000008,12.955091000000039]},"properties":{"ps_code":"P23","ps_name":"K.V.KUPPAM","name":"P23 K.V.KUPPAM","dept_code":"","status":true}},{"type":"Feature","geometry":{"type":"Point","coordinates":[78.87414050500007,12.945329882000067]},"properties":{"ps_code":"P13","ps_name":"GUDIYATHAM TALUK","name":"P13 GUDIYATHAM TALUK","dept_code":"","status":true}},{"type":"Feature","geometry":{"type":"Point","coordinates":[78.79244232200006,12.859883308000065]},"properties":{"ps_code":"P26","ps_name":"MELPATTI","name":"P26 MELPATTI","dept_code":"","status":true}},{"type":"Feature","geometry":{"type":"Point","coordinates":[79.13681030300006,12.97709846500004]},"properties":{"ps_code":"P18","ps_name":"KATPADI","name":"P18 KATPADI","dept_code":"","status":true}},{"type":"Feature","geometry":{"type":"Point","coordinates":[79.26665438500004,12.981462165000039]},"properties":{"ps_code":"P45","ps_name":"THIRUVALAM","name":"P45 THIRUVALAM","dept_code":"","status":true}},{"type":"Feature","geometry":{"type":"Point","coordinates":[79.27874755900007,13.062197685000058]},"properties":{"ps_code":"P25","ps_name":"MELPADI","name":"P25 MELPADI","dept_code":"","status":true}},{"type":"Feature","geometry":{"type":"Point","coordinates":[79.06607400000007,12.973101000000042]},"properties":{"ps_code":"P24","ps_name":"LATHERI","name":"P24 LATHERI","dept_code":"","status":true}},{"type":"Feature","geometry":{"type":"Point","coordinates":[78.94019100000008,12.903831000000025]},"properties":{"ps_code":"P30","ps_name":"PALLIKONDA","name":"P30 PALLIKONDA","dept_code":"","status":true}},{"type":"Feature","geometry":{"type":"Point","coordinates":[79.03673553500005,13.02635097500007]},"properties":{"ps_code":"P31","ps_name":"PANAMADANGI","name":"P31 PANAMADANGI","dept_code":"","status":true}},{"type":"Feature","geometry":{"type":"Point","coordinates":[79.25763702400008,13.129741669000055]},"properties":{"ps_code":"P34","ps_name":"PONNAI","name":"P34 PONNAI","dept_code":"","status":true}},{"type":"Feature","geometry":{"type":"Point","coordinates":[79.13526153600003,12.802426338000032]},"properties":{"ps_code":"P51","ps_name":"VELLORE TALUK","name":"P51 VELLORE TALUK","dept_code":"","status":true}},{"type":"Feature","geometry":{"type":"Point","coordinates":[79.17288000000008,12.940351000000021]},"properties":{"ps_code":"P37","ps_name":"SATHUVACHARI","name":"P37 SATHUVACHARI","dept_code":"","status":true}},{"type":"Feature","geometry":{"type":"Point","coordinates":[79.13164700000004,12.923275000000046]},"properties":{"ps_code":"P49","ps_name":"VELLORE NORTH","name":"P49 VELLORE NORTH","dept_code":"","status":true}},{"type":"Feature","geometry":{"type":"Point","coordinates":[79.13239408100003,12.915863108000053]},"properties":{"ps_code":"P50","ps_name":"VELLORE SOUTH","name":"P50 VELLORE SOUTH","dept_code":"","status":true}},{"type":"Feature","geometry":{"type":"Point","coordinates":[79.14154204300007,12.953201492000062]},"properties":{"ps_code":"P54","ps_name":"VIRUTHAMPET","name":"P54 VIRUTHAMPET","dept_code":"","status":true}},{"type":"Feature","geometry":{"type":"Point","coordinates":[79.11951720000008,12.894073800000058]},"properties":{"ps_code":"P44","ps_name":"THIRUPATHUR TOWN","name":"P44 THIRUPATHUR TOWN","dept_code":"","status":true}},{"type":"Feature","geometry":{"type":"Point","coordinates":[79.02441000000005,12.91593400000005]},"properties":{"ps_code":"P53","ps_name":"VIRINCHIPURAM","name":"P53 VIRINCHIPURAM","dept_code":"","status":true}},{"type":"Feature","geometry":{"type":"Point","coordinates":[78.98898315400004,12.876782417000072]},"properties":{"ps_code":"P5","ps_name":"ANAICUT","name":"P5 ANAICUT","dept_code":"","status":true}},{"type":"Feature","geometry":{"type":"Point","coordinates":[79.10257200000007,12.874969000000021]},"properties":{"ps_code":"P10","ps_name":"ARIYOOR","name":"P10 ARIYOOR","dept_code":"","status":true}},{"type":"Feature","geometry":{"type":"Point","coordinates":[78.87690200000003,12.783438000000046]},"properties":{"ps_code":"P52","ps_name":"VEPPANKUPPAM","name":"P52 VEPPANKUPPAM","dept_code":"","status":true}}]}