{"type":"FeatureCollection","features":[{"type":"Feature","geometry":{"type":"Point","coordinates":[80.1047,13.111]},"properties":{"district":"North Chennai","taluk":"Aavadi","village":"Avadi","name":"TNHB Avadi","area_type":"Urban","shop_code":"02IB096NT","search_string":"  aavadi north chennai "},"bbox":[80.1047,13.111,80.1047,13.111]},{"type":"Feature","geometry":{"type":"Point","coordinates":[80.1878,13.1982]},"properties":{"district":"North Chennai","taluk":"Aavadi","village":"Avadi","name":"Palavayal","area_type":"Urban","shop_code":"02IF055NT","search_string":"  aavadi north chennai "},"bbox":[80.1878,13.1982,80.1878,13.1982]},{"type":"Feature","geometry":{"type":"Point","coordinates":[80.108,13.0873]},"properties":{"district":"North Chennai","taluk":"Aavadi","village":"Avadi","name":"Goverthanagiri-4","area_type":"Urban","shop_code":"02IA076NT","search_string":"  aavadi north chennai "},"bbox":[80.108,13.0873,80.108,13.0873]},{"type":"Feature","geometry":{"type":"Point","coordinates":[80.1085,13.0949]},"properties":{"district":"North Chennai","taluk":"Aavadi","village":"Avadi","name":"Govarthanagiri -2","area_type":"Urban","shop_code":"02IA036NT","search_string":"  aavadi north chennai "},"bbox":[80.1085,13.0949,80.1085,13.0949]},{"type":"Feature","geometry":{"type":"Point","coordinates":[80.1119,13.0954]},"properties":{"district":"North Chennai","taluk":"Aavadi","village":"Avadi","name":"Goverthanagiri-5","area_type":"Urban","shop_code":"02IA077NT","search_string":"  aavadi north chennai "},"bbox":[80.1119,13.0954,80.1119,13.0954]},{"type":"Feature","geometry":{"type":"Point","coordinates":[80.1092,13.0986]},"properties":{"district":"North Chennai","taluk":"Aavadi","village":"Avadi","name":"Govarthanagiri -3","area_type":"Urban","shop_code":"02IA051NT","search_string":"  aavadi north chennai "},"bbox":[80.1092,13.0986,80.1092,13.0986]},{"type":"Feature","geometry":{"type":"Point","coordinates":[80.1101,13.1011]},"properties":{"district":"North Chennai","taluk":"Aavadi","village":"Avadi","name":"Govarthanagiri -1","area_type":"Urban","shop_code":"02IA024NT","search_string":"  aavadi north chennai "},"bbox":[80.1101,13.1011,80.1101,13.1011]},{"type":"Feature","geometry":{"type":"Point","coordinates":[80.1019,13.1038]},"properties":{"district":"North Chennai","taluk":"Aavadi","village":"Avadi","name":"Kamaraj Nagar  -2","area_type":"Urban","shop_code":"02IB072NT","search_string":"  aavadi north chennai "},"bbox":[80.1019,13.1038,80.1019,13.1038]},{"type":"Feature","geometry":{"type":"Point","coordinates":[80.0985,13.1043]},"properties":{"district":"North Chennai","taluk":"Aavadi","village":"Avadi","name":"Lasar Nagar","area_type":"Urban","shop_code":"02IA074NT","search_string":"  aavadi north chennai "},"bbox":[80.0985,13.1043,80.0985,13.1043]},{"type":"Feature","geometry":{"type":"Point","coordinates":[80.1228,13.1056]},"properties":{"district":"North Chennai","taluk":"Aavadi","village":"Avadi","name":"Konamedu","area_type":"Urban","shop_code":"02IA032NT","search_string":"  aavadi north chennai "},"bbox":[80.1228,13.1056,80.1228,13.1056]},{"type":"Feature","geometry":{"type":"Point","coordinates":[80.098,13.1058]},"properties":{"district":"North Chennai","taluk":"Aavadi","village":"Avadi","name":"Kamaraj Nagar  -1","area_type":"Urban","shop_code":"02IB071NT","search_string":"  aavadi north chennai "},"bbox":[80.098,13.1058,80.098,13.1058]},{"type":"Feature","geometry":{"type":"Point","coordinates":[80.091,13.106]},"properties":{"district":"North Chennai","taluk":"Aavadi","village":"Avadi","name":"Kamaraj Nagar  -3","area_type":"Urban","shop_code":"02IB073NT","search_string":"  aavadi north chennai "},"bbox":[80.091,13.106,80.091,13.106]},{"type":"Feature","geometry":{"type":"Point","coordinates":[80.0939,13.1074]},"properties":{"district":"North Chennai","taluk":"Aavadi","village":"Avadi","name":"Kamaraj Nagar Main Road - 2","area_type":"Urban","shop_code":"02IA063NT","search_string":"  aavadi north chennai "},"bbox":[80.0939,13.1074,80.0939,13.1074]},{"type":"Feature","geometry":{"type":"Point","coordinates":[80.0938,13.1075]},"properties":{"district":"North Chennai","taluk":"Aavadi","village":"Avadi","name":"Kamaraj Nagar - 3","area_type":"Urban","shop_code":"02IA019NT","search_string":"  aavadi north chennai "},"bbox":[80.0938,13.1075,80.0938,13.1075]},{"type":"Feature","geometry":{"type":"Point","coordinates":[80.0971,13.1086]},"properties":{"district":"North Chennai","taluk":"Aavadi","village":"Avadi","name":"Kamaraj Nagar -2","area_type":"Urban","shop_code":"02IA023NT","search_string":"  aavadi north chennai "},"bbox":[80.0971,13.1086,80.0971,13.1086]},{"type":"Feature","geometry":{"type":"Point","coordinates":[80.0941,13.1112]},"properties":{"district":"North Chennai","taluk":"Aavadi","village":"Avadi","name":"Kamaraj Nagar -1","area_type":"Urban","shop_code":"02IA022NT","search_string":"  aavadi north chennai "},"bbox":[80.0941,13.1112,80.0941,13.1112]},{"type":"Feature","geometry":{"type":"Point","coordinates":[80.105,13.1113]},"properties":{"district":"North Chennai","taluk":"Aavadi","village":"Avadi","name":"TNHB Avadi - 3","area_type":"Urban","shop_code":"02IB139NT","search_string":"  aavadi north chennai "},"bbox":[80.105,13.1113,80.105,13.1113]},{"type":"Feature","geometry":{"type":"Point","coordinates":[80.1168,13.1116]},"properties":{"district":"North Chennai","taluk":"Aavadi","village":"Avadi","name":"JP Estate","area_type":"Urban","shop_code":"02IA052NT","search_string":"  aavadi north chennai "},"bbox":[80.1168,13.1116,80.1168,13.1116]},{"type":"Feature","geometry":{"type":"Point","coordinates":[80.0956,13.1127]},"properties":{"district":"North Chennai","taluk":"Aavadi","village":"Avadi","name":"Kamaraj Nagar Main Road - 1","area_type":"Urban","shop_code":"02IA056NT","search_string":"  aavadi north chennai "},"bbox":[80.0956,13.1127,80.0956,13.1127]},{"type":"Feature","geometry":{"type":"Point","coordinates":[80.1,13.1129]},"properties":{"district":"North Chennai","taluk":"Aavadi","village":"Avadi","name":"TNHB Avadi - 2","area_type":"Urban","shop_code":"02IB103NT","search_string":"  aavadi north chennai "},"bbox":[80.1,13.1129,80.1,13.1129]},{"type":"Feature","geometry":{"type":"Point","coordinates":[80.0806,13.1129]},"properties":{"district":"North Chennai","taluk":"Aavadi","village":"Avadi","name":"Rajivgandhi Nagar -2","area_type":"Urban","shop_code":"02IA002NT","search_string":"  aavadi north chennai "},"bbox":[80.0806,13.1129,80.0806,13.1129]},{"type":"Feature","geometry":{"type":"Point","coordinates":[80.064,13.113]},"properties":{"district":"North Chennai","taluk":"Aavadi","village":"Avadi","name":"Thandarai","area_type":"Urban","shop_code":"02IB088NT","search_string":"  aavadi north chennai "},"bbox":[80.064,13.113,80.064,13.113]},{"type":"Feature","geometry":{"type":"Point","coordinates":[80.1098,13.1132]},"properties":{"district":"North Chennai","taluk":"Aavadi","village":"Avadi","name":"Avadi-2","area_type":"Urban","shop_code":"02IA021NT","search_string":"  aavadi north chennai "},"bbox":[80.1098,13.1132,80.1098,13.1132]},{"type":"Feature","geometry":{"type":"Point","coordinates":[80.1261,13.1136]},"properties":{"district":"North Chennai","taluk":"Aavadi","village":"Avadi","name":"Jothi Nagar","area_type":"Urban","shop_code":"02IA079NT","search_string":"  aavadi north chennai "},"bbox":[80.1261,13.1136,80.1261,13.1136]},{"type":"Feature","geometry":{"type":"Point","coordinates":[80.1125,13.1144]},"properties":{"district":"North Chennai","taluk":"Aavadi","village":"Avadi","name":"P.H Road","area_type":"Urban","shop_code":"02IB074NT","search_string":"  aavadi north chennai "},"bbox":[80.1125,13.1144,80.1125,13.1144]},{"type":"Feature","geometry":{"type":"Point","coordinates":[80.1098,13.1152]},"properties":{"district":"North Chennai","taluk":"Aavadi","village":"Avadi","name":"Pillaiyar Koil Street","area_type":"Urban","shop_code":"02IB069NT","search_string":"  aavadi north chennai "},"bbox":[80.1098,13.1152,80.1098,13.1152]},{"type":"Feature","geometry":{"type":"Point","coordinates":[80.1344,13.1152]},"properties":{"district":"North Chennai","taluk":"Aavadi","village":"Avadi","name":"Senthil  Nagar  - 3","area_type":"Urban","shop_code":"02IB124NT","search_string":"  aavadi north chennai "},"bbox":[80.1344,13.1152,80.1344,13.1152]},{"type":"Feature","geometry":{"type":"Point","coordinates":[80.1376,13.1164]},"properties":{"district":"North Chennai","taluk":"Aavadi","village":"Avadi","name":"Senthil  Nagar -  1","area_type":"Urban","shop_code":"02IB080NT","search_string":"  aavadi north chennai "},"bbox":[80.1376,13.1164,80.1376,13.1164]},{"type":"Feature","geometry":{"type":"Point","coordinates":[80.0732,13.1169]},"properties":{"district":"North Chennai","taluk":"Aavadi","village":"Avadi","name":"Gopalapuram","area_type":"Urban","shop_code":"02IB098NT","search_string":"  aavadi north chennai "},"bbox":[80.0732,13.1169,80.0732,13.1169]},{"type":"Feature","geometry":{"type":"Point","coordinates":[80.1008,13.1171]},"properties":{"district":"North Chennai","taluk":"Aavadi","village":"Avadi","name":"Manga Thottam","area_type":"Urban","shop_code":"02IB070NT","search_string":"  aavadi north chennai "},"bbox":[80.1008,13.1171,80.1008,13.1171]},{"type":"Feature","geometry":{"type":"Point","coordinates":[80.0935,13.1175]},"properties":{"district":"North Chennai","taluk":"Aavadi","village":"Avadi","name":"Nandhavana Mettur","area_type":"Urban","shop_code":"02IB137NT","search_string":"  aavadi north chennai "},"bbox":[80.0935,13.1175,80.0935,13.1175]},{"type":"Feature","geometry":{"type":"Point","coordinates":[80.0945,13.1176]},"properties":{"district":"North Chennai","taluk":"Aavadi","village":"Avadi","name":"MTH Road","area_type":"Urban","shop_code":"02IB084NT","search_string":"  aavadi north chennai "},"bbox":[80.0945,13.1176,80.0945,13.1176]},{"type":"Feature","geometry":{"type":"Point","coordinates":[80.132,13.1181]},"properties":{"district":"North Chennai","taluk":"Aavadi","village":"Avadi","name":"Senthil  Nagar  - 2","area_type":"Urban","shop_code":"02IB110NT","search_string":"  aavadi north chennai "},"bbox":[80.132,13.1181,80.132,13.1181]},{"type":"Feature","geometry":{"type":"Point","coordinates":[80.0695,13.1184]},"properties":{"district":"North Chennai","taluk":"Aavadi","village":"Avadi","name":"Gopalapuram West","area_type":"Urban","shop_code":"02IB136NT","search_string":"  aavadi north chennai "},"bbox":[80.0695,13.1184,80.0695,13.1184]},{"type":"Feature","geometry":{"type":"Point","coordinates":[80.0615,13.1188]},"properties":{"district":"North Chennai","taluk":"Aavadi","village":"Avadi","name":"Thandarai - 2","area_type":"Urban","shop_code":"02IB095NT","search_string":"  aavadi north chennai "},"bbox":[80.0615,13.1188,80.0615,13.1188]},{"type":"Feature","geometry":{"type":"Point","coordinates":[80.0898,13.1188]},"properties":{"district":"North Chennai","taluk":"Aavadi","village":"Avadi","name":"Gandhi Nagar-2","area_type":"Urban","shop_code":"02IA028NT","search_string":"  aavadi north chennai "},"bbox":[80.0898,13.1188,80.0898,13.1188]},{"type":"Feature","geometry":{"type":"Point","coordinates":[80.0614,13.1189]},"properties":{"district":"North Chennai","taluk":"Aavadi","village":"Avadi","name":"Vallalar Nagar","area_type":"Urban","shop_code":"02IB142NT","search_string":"  aavadi north chennai "},"bbox":[80.0614,13.1189,80.0614,13.1189]},{"type":"Feature","geometry":{"type":"Point","coordinates":[80.0899,13.119]},"properties":{"district":"North Chennai","taluk":"Aavadi","village":"Avadi","name":"Gandhi Nagar-1","area_type":"Urban","shop_code":"02IA027NT","search_string":"  aavadi north chennai "},"bbox":[80.0899,13.119,80.0899,13.119]},{"type":"Feature","geometry":{"type":"Point","coordinates":[80.1306,13.1191]},"properties":{"district":"North Chennai","taluk":"Aavadi","village":"Avadi","name":"Sri Sakthi Nagar","area_type":"Urban","shop_code":"02IB092NT","search_string":"  aavadi north chennai "},"bbox":[80.1306,13.1191,80.1306,13.1191]},{"type":"Feature","geometry":{"type":"Point","coordinates":[80.0787,13.1195]},"properties":{"district":"North Chennai","taluk":"Aavadi","village":"Avadi","name":"Rajivgandhi Nagar -1","area_type":"Urban","shop_code":"02IA029NT","search_string":"  aavadi north chennai "},"bbox":[80.0787,13.1195,80.0787,13.1195]},{"type":"Feature","geometry":{"type":"Point","coordinates":[80.0974,13.1198]},"properties":{"district":"North Chennai","taluk":"Aavadi","village":"Avadi","name":"Gandhi Nagar-3","area_type":"Urban","shop_code":"02IA061NT","search_string":"  aavadi north chennai "},"bbox":[80.0974,13.1198,80.0974,13.1198]},{"type":"Feature","geometry":{"type":"Point","coordinates":[80.0976,13.12]},"properties":{"district":"North Chennai","taluk":"Aavadi","village":"Avadi","name":"Avadi-1","area_type":"Urban","shop_code":"02IA020NT","search_string":"  aavadi north chennai "},"bbox":[80.0976,13.12,80.0976,13.12]},{"type":"Feature","geometry":{"type":"Point","coordinates":[80.0969,13.1201]},"properties":{"district":"North Chennai","taluk":"Aavadi","village":"Puthagaram","name":"Singaravelan Nagar","area_type":"Urban","shop_code":"02IA066NT","search_string":"  aavadi north chennai "},"bbox":[80.0969,13.1201,80.0969,13.1201]},{"type":"Feature","geometry":{"type":"Point","coordinates":[80.0649,13.1203]},"properties":{"district":"North Chennai","taluk":"Aavadi","village":"Avadi","name":"MTH Road -2","area_type":"Urban","shop_code":"02IB086NT","search_string":"  aavadi north chennai "},"bbox":[80.0649,13.1203,80.0649,13.1203]},{"type":"Feature","geometry":{"type":"Point","coordinates":[80.0688,13.1203]},"properties":{"district":"North Chennai","taluk":"Aavadi","village":"Avadi","name":"MTH Road -3","area_type":"Urban","shop_code":"02IB085NT","search_string":"  aavadi north chennai "},"bbox":[80.0688,13.1203,80.0688,13.1203]},{"type":"Feature","geometry":{"type":"Point","coordinates":[80.0623,13.1208]},"properties":{"district":"North Chennai","taluk":"Aavadi","village":"Avadi","name":"MG Road","area_type":"Urban","shop_code":"02IB089NT","search_string":"  aavadi north chennai "},"bbox":[80.0623,13.1208,80.0623,13.1208]},{"type":"Feature","geometry":{"type":"Point","coordinates":[80.0701,13.1219]},"properties":{"district":"North Chennai","taluk":"Aavadi","village":"Avadi","name":"MTH Road -5","area_type":"Urban","shop_code":"02IB087NT","search_string":"  aavadi north chennai "},"bbox":[80.0701,13.1219,80.0701,13.1219]},{"type":"Feature","geometry":{"type":"Point","coordinates":[80.1263,13.1219]},"properties":{"district":"North Chennai","taluk":"Aavadi","village":"Avadi","name":"Sivasakthi  Nagar","area_type":"Urban","shop_code":"02IB140NT","search_string":"  aavadi north chennai "},"bbox":[80.1263,13.1219,80.1263,13.1219]},{"type":"Feature","geometry":{"type":"Point","coordinates":[80.1334,13.1223]},"properties":{"district":"North Chennai","taluk":"Aavadi","village":"Avadi","name":"Shozhan Nagar","area_type":"Urban","shop_code":"02IB076NT","search_string":"  aavadi north chennai "},"bbox":[80.1334,13.1223,80.1334,13.1223]},{"type":"Feature","geometry":{"type":"Point","coordinates":[80.0563,13.1234]},"properties":{"district":"North Chennai","taluk":"Aavadi","village":"Avadi","name":"Charles Nagar","area_type":"Urban","shop_code":"02IB138NT","search_string":"  aavadi north chennai "},"bbox":[80.0563,13.1234,80.0563,13.1234]},{"type":"Feature","geometry":{"type":"Point","coordinates":[80.099,13.1239]},"properties":{"district":"North Chennai","taluk":"Aavadi","village":"Avadi","name":"OCF -1","area_type":"Urban","shop_code":"02IB081NT","search_string":"  aavadi north chennai "},"bbox":[80.099,13.1239,80.099,13.1239]},{"type":"Feature","geometry":{"type":"Point","coordinates":[80.0993,13.124]},"properties":{"district":"North Chennai","taluk":"Aavadi","village":"Avadi","name":"OCF -2","area_type":"Urban","shop_code":"02IB082NT","search_string":"  aavadi north chennai "},"bbox":[80.0993,13.124,80.0993,13.124]},{"type":"Feature","geometry":{"type":"Point","coordinates":[80.1205,13.1241]},"properties":{"district":"North Chennai","taluk":"Aavadi","village":"Avadi","name":"Devi  Nagar","area_type":"Urban","shop_code":"02IB102NT","search_string":"  aavadi north chennai "},"bbox":[80.1205,13.1241,80.1205,13.1241]},{"type":"Feature","geometry":{"type":"Point","coordinates":[80.0554,13.1244]},"properties":{"district":"North Chennai","taluk":"Aavadi","village":"Avadi","name":"Gandhi Nagar","area_type":"Urban","shop_code":"02IB090NT","search_string":"  aavadi north chennai "},"bbox":[80.0554,13.1244,80.0554,13.1244]},{"type":"Feature","geometry":{"type":"Point","coordinates":[80.1299,13.1246]},"properties":{"district":"North Chennai","taluk":"Aavadi","village":"Avadi","name":"Mullai Nagar","area_type":"Urban","shop_code":"02IF023NT","search_string":"  aavadi north chennai "},"bbox":[80.1299,13.1246,80.1299,13.1246]},{"type":"Feature","geometry":{"type":"Point","coordinates":[80.0589,13.1247]},"properties":{"district":"North Chennai","taluk":"Aavadi","village":"Avadi","name":"Babu Nagar","area_type":"Urban","shop_code":"02IB091NT","search_string":"  aavadi north chennai "},"bbox":[80.0589,13.1247,80.0589,13.1247]},{"type":"Feature","geometry":{"type":"Point","coordinates":[80.0664,13.1255]},"properties":{"district":"North Chennai","taluk":"Aavadi","village":"Avadi","name":"Kakkanji Nagar","area_type":"Urban","shop_code":"02IB135NT","search_string":"  aavadi north chennai "},"bbox":[80.0664,13.1255,80.0664,13.1255]},{"type":"Feature","geometry":{"type":"Point","coordinates":[80.0791,13.1261]},"properties":{"district":"North Chennai","taluk":"Aavadi","village":"Avadi","name":"Drivers Colony","area_type":"Urban","shop_code":"02IA062NT","search_string":"  aavadi north chennai "},"bbox":[80.0791,13.1261,80.0791,13.1261]},{"type":"Feature","geometry":{"type":"Point","coordinates":[80.079,13.1262]},"properties":{"district":"North Chennai","taluk":"Aavadi","village":"Avadi","name":"Rajivgandhi Nagar -3","area_type":"Urban","shop_code":"02IA038NT","search_string":"  aavadi north chennai "},"bbox":[80.079,13.1262,80.079,13.1262]},{"type":"Feature","geometry":{"type":"Point","coordinates":[80.1246,13.1275]},"properties":{"district":"North Chennai","taluk":"Aavadi","village":"Avadi","name":"Vaishnavi Nagar","area_type":"Urban","shop_code":"02IB075NT","search_string":"  aavadi north chennai "},"bbox":[80.1246,13.1275,80.1246,13.1275]},{"type":"Feature","geometry":{"type":"Point","coordinates":[80.1356,13.1279]},"properties":{"district":"North Chennai","taluk":"Aavadi","village":"Avadi","name":"Manikandapuram","area_type":"Urban","shop_code":"02IF039NT","search_string":"  aavadi north chennai "},"bbox":[80.1356,13.1279,80.1356,13.1279]},{"type":"Feature","geometry":{"type":"Point","coordinates":[80.116,13.1281]},"properties":{"district":"North Chennai","taluk":"Aavadi","village":"Avadi","name":"Sathiyamoorthy Nagar - 3","area_type":"Urban","shop_code":"02IB079NT","search_string":"  aavadi north chennai "},"bbox":[80.116,13.1281,80.116,13.1281]},{"type":"Feature","geometry":{"type":"Point","coordinates":[80.116,13.1283]},"properties":{"district":"North Chennai","taluk":"Aavadi","village":"Avadi","name":"Sathiyamoorthy Nagar - 1","area_type":"Urban","shop_code":"02IB077NT","search_string":"  aavadi north chennai "},"bbox":[80.116,13.1283,80.116,13.1283]},{"type":"Feature","geometry":{"type":"Point","coordinates":[80.0573,13.1286]},"properties":{"district":"North Chennai","taluk":"Aavadi","village":"Avadi","name":"Uzhaipalar Nagar","area_type":"Urban","shop_code":"02IB104NT","search_string":"  aavadi north chennai "},"bbox":[80.0573,13.1286,80.0573,13.1286]},{"type":"Feature","geometry":{"type":"Point","coordinates":[80.1287,13.1287]},"properties":{"district":"North Chennai","taluk":"Aavadi","village":"Avadi","name":"Indhira Nagar","area_type":"Urban","shop_code":"02IB101NT","search_string":"  aavadi north chennai "},"bbox":[80.1287,13.1287,80.1287,13.1287]},{"type":"Feature","geometry":{"type":"Point","coordinates":[80.1137,13.1304]},"properties":{"district":"North Chennai","taluk":"Aavadi","village":"Avadi","name":"RDY Line","area_type":"Urban","shop_code":"02IB083NT","search_string":"  aavadi north chennai "},"bbox":[80.1137,13.1304,80.1137,13.1304]},{"type":"Feature","geometry":{"type":"Point","coordinates":[80.1352,13.1318]},"properties":{"district":"North Chennai","taluk":"Aavadi","village":"Avadi","name":"Ambethkar Nagar","area_type":"Urban","shop_code":"02IB125NT","search_string":"  aavadi north chennai "},"bbox":[80.1352,13.1318,80.1352,13.1318]},{"type":"Feature","geometry":{"type":"Point","coordinates":[80.1402,13.1326]},"properties":{"district":"North Chennai","taluk":"Aavadi","village":"Avadi","name":"Saraswathi Nagar","area_type":"Urban","shop_code":"02IB039NT","search_string":"  aavadi north chennai "},"bbox":[80.1402,13.1326,80.1402,13.1326]},{"type":"Feature","geometry":{"type":"Point","coordinates":[80.1389,13.1349]},"properties":{"district":"North Chennai","taluk":"Aavadi","village":"Avadi","name":"Thendral Nagar West - 2","area_type":"Urban","shop_code":"02IB116NT","search_string":"  aavadi north chennai "},"bbox":[80.1389,13.1349,80.1389,13.1349]},{"type":"Feature","geometry":{"type":"Point","coordinates":[80.1292,13.1353]},"properties":{"district":"North Chennai","taluk":"Aavadi","village":"Avadi","name":"Thiruvalluvar Nagar","area_type":"Urban","shop_code":"02IB143NT","search_string":"  aavadi north chennai "},"bbox":[80.1292,13.1353,80.1292,13.1353]},{"type":"Feature","geometry":{"type":"Point","coordinates":[80.1009,13.1372]},"properties":{"district":"North Chennai","taluk":"Aavadi","village":"Avadi","name":"Kalaignar Nagar","area_type":"Urban","shop_code":"02IA042NT","search_string":"  aavadi north chennai "},"bbox":[80.1009,13.1372,80.1009,13.1372]},{"type":"Feature","geometry":{"type":"Point","coordinates":[80.1978,13.1376]},"properties":{"district":"North Chennai","taluk":"Aavadi","village":"Puthagaram","name":"Thirumal Nagar","area_type":"Urban","shop_code":"02IA078NT","search_string":"  aavadi north chennai "},"bbox":[80.1978,13.1376,80.1978,13.1376]},{"type":"Feature","geometry":{"type":"Point","coordinates":[80.1377,13.1385]},"properties":{"district":"North Chennai","taluk":"Aavadi","village":"Avadi","name":"Thendral Nagar West - 1","area_type":"Urban","shop_code":"02IB109NT","search_string":"  aavadi north chennai "},"bbox":[80.1377,13.1385,80.1377,13.1385]},{"type":"Feature","geometry":{"type":"Point","coordinates":[80.2055,13.1386]},"properties":{"district":"North Chennai","taluk":"Aavadi","village":"Puthagaram","name":"Pelavari","area_type":"Urban","shop_code":"02IA005NT","search_string":"  aavadi north chennai "},"bbox":[80.2055,13.1386,80.2055,13.1386]},{"type":"Feature","geometry":{"type":"Point","coordinates":[80.1344,13.1389]},"properties":{"district":"North Chennai","taluk":"Aavadi","village":"Avadi","name":"Sathiyamoorthy Nagar - 2","area_type":"Urban","shop_code":"02IB078NT","search_string":"  aavadi north chennai "},"bbox":[80.1344,13.1389,80.1344,13.1389]},{"type":"Feature","geometry":{"type":"Point","coordinates":[80.1109,13.1399]},"properties":{"district":"North Chennai","taluk":"Aavadi","village":"Avadi","name":"Pumphozhil Nagar","area_type":"Urban","shop_code":"02IF038NT","search_string":"  aavadi north chennai "},"bbox":[80.1109,13.1399,80.1109,13.1399]},{"type":"Feature","geometry":{"type":"Point","coordinates":[80.1997,13.1403]},"properties":{"district":"North Chennai","taluk":"Aavadi","village":"Puthagaram","name":"Puthagaram -2","area_type":"Urban","shop_code":"02IA075NT","search_string":"  aavadi north chennai "},"bbox":[80.1997,13.1403,80.1997,13.1403]},{"type":"Feature","geometry":{"type":"Point","coordinates":[80.1787,13.1403]},"properties":{"district":"North Chennai","taluk":"Aavadi","village":"Sanmugapuram","name":"Shanmugapuram","area_type":"Urban","shop_code":"02IF004NT","search_string":"  aavadi north chennai "},"bbox":[80.1787,13.1403,80.1787,13.1403]},{"type":"Feature","geometry":{"type":"Point","coordinates":[80.1359,13.141]},"properties":{"district":"North Chennai","taluk":"Aavadi","village":"Avadi","name":"Prapavathi Nagar","area_type":"Urban","shop_code":"02IB141NT","search_string":"  aavadi north chennai "},"bbox":[80.1359,13.141,80.1359,13.141]},{"type":"Feature","geometry":{"type":"Point","coordinates":[80.106,13.1427]},"properties":{"district":"North Chennai","taluk":"Aavadi","village":"Avadi","name":"Koilpathagai","area_type":"Urban","shop_code":"02IA025NT","search_string":"  aavadi north chennai "},"bbox":[80.106,13.1427,80.106,13.1427]},{"type":"Feature","geometry":{"type":"Point","coordinates":[80.1912,13.1429]},"properties":{"district":"North Chennai","taluk":"Aavadi","village":"Puzhal","name":"Surapattu - 1","area_type":"Urban","shop_code":"02IF059NT","search_string":"  aavadi north chennai "},"bbox":[80.1912,13.1429,80.1912,13.1429]},{"type":"Feature","geometry":{"type":"Point","coordinates":[80.1057,13.143]},"properties":{"district":"North Chennai","taluk":"Aavadi","village":"Avadi","name":"Koilpathagai","area_type":"Urban","shop_code":"02IF031NT","search_string":"  aavadi north chennai "},"bbox":[80.1057,13.143,80.1057,13.143]},{"type":"Feature","geometry":{"type":"Point","coordinates":[80.1059,13.143]},"properties":{"district":"North Chennai","taluk":"Aavadi","village":"Avadi","name":"Ashok Nagar","area_type":"Urban","shop_code":"02IA070NT","search_string":"  aavadi north chennai "},"bbox":[80.1059,13.143,80.1059,13.143]},{"type":"Feature","geometry":{"type":"Point","coordinates":[80.1811,13.1432]},"properties":{"district":"North Chennai","taluk":"Aavadi","village":"Puzhal","name":"Surapattu - 3","area_type":"Urban","shop_code":"02IF034NT","search_string":"  aavadi north chennai "},"bbox":[80.1811,13.1432,80.1811,13.1432]},{"type":"Feature","geometry":{"type":"Point","coordinates":[80.0592,13.1436]},"properties":{"district":"North Chennai","taluk":"Aavadi","village":"Avadi","name":"Muttha Pudhupettai - 1","area_type":"Urban","shop_code":"02IA031NT","search_string":"  aavadi north chennai "},"bbox":[80.0592,13.1436,80.0592,13.1436]},{"type":"Feature","geometry":{"type":"Point","coordinates":[80.1345,13.1447]},"properties":{"district":"North Chennai","taluk":"Aavadi","village":"Avadi","name":"Lalithampal Nagar","area_type":"Urban","shop_code":"02IB111NT","search_string":"  aavadi north chennai "},"bbox":[80.1345,13.1447,80.1345,13.1447]},{"type":"Feature","geometry":{"type":"Point","coordinates":[80.0863,13.1448]},"properties":{"district":"North Chennai","taluk":"Aavadi","village":"Avadi","name":"Rajivgandhi Nagar -4","area_type":"Urban","shop_code":"02IA039NT","search_string":"  aavadi north chennai "},"bbox":[80.0863,13.1448,80.0863,13.1448]},{"type":"Feature","geometry":{"type":"Point","coordinates":[80.1867,13.1453]},"properties":{"district":"North Chennai","taluk":"Aavadi","village":"Puzhal","name":"Mettur","area_type":"Urban","shop_code":"02IF067NT","search_string":"  aavadi north chennai "},"bbox":[80.1867,13.1453,80.1867,13.1453]},{"type":"Feature","geometry":{"type":"Point","coordinates":[80.0638,13.1485]},"properties":{"district":"North Chennai","taluk":"Aavadi","village":"Avadi","name":"Masuthi Street","area_type":"Urban","shop_code":"02IA055NT","search_string":"  aavadi north chennai "},"bbox":[80.0638,13.1485,80.0638,13.1485]},{"type":"Feature","geometry":{"type":"Point","coordinates":[80.205,13.1502]},"properties":{"district":"North Chennai","taluk":"Aavadi","village":"Puzhal","name":"Kathirvedu","area_type":"Urban","shop_code":"02IF060NT","search_string":"  aavadi north chennai "},"bbox":[80.205,13.1502,80.205,13.1502]},{"type":"Feature","geometry":{"type":"Point","coordinates":[80.0719,13.1522]},"properties":{"district":"North Chennai","taluk":"Aavadi","village":"Avadi","name":"Mitnamalli - 2","area_type":"Urban","shop_code":"02IA050NT","search_string":"  aavadi north chennai "},"bbox":[80.0719,13.1522,80.0719,13.1522]},{"type":"Feature","geometry":{"type":"Point","coordinates":[80.0668,13.1524]},"properties":{"district":"North Chennai","taluk":"Aavadi","village":"Avadi","name":"Mitnamalli - 1","area_type":"Urban","shop_code":"02IA030NT","search_string":"  aavadi north chennai "},"bbox":[80.0668,13.1524,80.0668,13.1524]},{"type":"Feature","geometry":{"type":"Point","coordinates":[80.2112,13.155]},"properties":{"district":"North Chennai","taluk":"Aavadi","village":"Puzhal","name":"MGR Nagar","area_type":"Urban","shop_code":"02IF040NT","search_string":"  aavadi north chennai "},"bbox":[80.2112,13.155,80.2112,13.155]},{"type":"Feature","geometry":{"type":"Point","coordinates":[80.1002,13.1558]},"properties":{"district":"North Chennai","taluk":"Aavadi","village":"Avadi","name":"Vellanur","area_type":"Urban","shop_code":"02IF032NT","search_string":"  aavadi north chennai "},"bbox":[80.1002,13.1558,80.1002,13.1558]},{"type":"Feature","geometry":{"type":"Point","coordinates":[80.2026,13.156]},"properties":{"district":"North Chennai","taluk":"Aavadi","village":"Puzhal","name":"Anna Memorial Nagar","area_type":"Urban","shop_code":"02IF011NT","search_string":"  aavadi north chennai "},"bbox":[80.2026,13.156,80.2026,13.156]},{"type":"Feature","geometry":{"type":"Point","coordinates":[80.043,13.1566]},"properties":{"district":"North Chennai","taluk":"Aavadi","village":"Avadi","name":"Melapedu","area_type":"Urban","shop_code":"02IF022NT","search_string":"  aavadi north chennai "},"bbox":[80.043,13.1566,80.043,13.1566]},{"type":"Feature","geometry":{"type":"Point","coordinates":[80.1562,13.1574]},"properties":{"district":"North Chennai","taluk":"Aavadi","village":"Avadi","name":"Potthur","area_type":"Urban","shop_code":"02IF051NT","search_string":"  aavadi north chennai "},"bbox":[80.1562,13.1574,80.1562,13.1574]},{"type":"Feature","geometry":{"type":"Point","coordinates":[80.0418,13.1578]},"properties":{"district":"North Chennai","taluk":"Aavadi","village":"Avadi","name":"Alathur","area_type":"Urban","shop_code":"02IF052NT","search_string":"  aavadi north chennai "},"bbox":[80.0418,13.1578,80.0418,13.1578]},{"type":"Feature","geometry":{"type":"Point","coordinates":[80.2092,13.159]},"properties":{"district":"North Chennai","taluk":"Aavadi","village":"Puzhal","name":"Ottravadi Street","area_type":"Urban","shop_code":"02IF062NT","search_string":"  aavadi north chennai "},"bbox":[80.2092,13.159,80.2092,13.159]},{"type":"Feature","geometry":{"type":"Point","coordinates":[80.2042,13.1608]},"properties":{"district":"North Chennai","taluk":"Aavadi","village":"Puzhal","name":"Kathirvedu - 2","area_type":"Urban","shop_code":"02IF012NT","search_string":"  aavadi north chennai "},"bbox":[80.2042,13.1608,80.2042,13.1608]},{"type":"Feature","geometry":{"type":"Point","coordinates":[80.1136,13.1629]},"properties":{"district":"North Chennai","taluk":"Aavadi","village":"Avadi","name":"Kollumedu","area_type":"Urban","shop_code":"02IF030NT","search_string":"  aavadi north chennai "},"bbox":[80.1136,13.1629,80.1136,13.1629]},{"type":"Feature","geometry":{"type":"Point","coordinates":[80.097,13.1654]},"properties":{"district":"North Chennai","taluk":"Aavadi","village":"Avadi","name":"Kamalam Nagar","area_type":"Urban","shop_code":"02IF068NT","search_string":"  aavadi north chennai "},"bbox":[80.097,13.1654,80.097,13.1654]},{"type":"Feature","geometry":{"type":"Point","coordinates":[80.2063,13.1655]},"properties":{"district":"North Chennai","taluk":"Aavadi","village":"Puzhal","name":"Puzhal - 1","area_type":"Urban","shop_code":"02IF013NT","search_string":"  aavadi north chennai "},"bbox":[80.2063,13.1655,80.2063,13.1655]},{"type":"Feature","geometry":{"type":"Point","coordinates":[80.1292,13.1659]},"properties":{"district":"North Chennai","taluk":"Aavadi","village":"Avadi","name":"Arikkammedu","area_type":"Urban","shop_code":"02IF048NT","search_string":"  aavadi north chennai "},"bbox":[80.1292,13.1659,80.1292,13.1659]},{"type":"Feature","geometry":{"type":"Point","coordinates":[80.2031,13.1694]},"properties":{"district":"North Chennai","taluk":"Aavadi","village":"Puzhal","name":"Puzhal - 2","area_type":"Urban","shop_code":"02IF033NT","search_string":"  aavadi north chennai "},"bbox":[80.2031,13.1694,80.2031,13.1694]},{"type":"Feature","geometry":{"type":"Point","coordinates":[80.1984,13.1712]},"properties":{"district":"North Chennai","taluk":"Aavadi","village":"Puzhal","name":"Kavankarai","area_type":"Urban","shop_code":"02IF025NT","search_string":"  aavadi north chennai "},"bbox":[80.1984,13.1712,80.1984,13.1712]},{"type":"Feature","geometry":{"type":"Point","coordinates":[80.2026,13.1716]},"properties":{"district":"North Chennai","taluk":"Aavadi","village":"Puzhal","name":"Mahaveer Garden","area_type":"Urban","shop_code":"02IF063NT","search_string":"  aavadi north chennai "},"bbox":[80.2026,13.1716,80.2026,13.1716]},{"type":"Feature","geometry":{"type":"Point","coordinates":[80.1938,13.172]},"properties":{"district":"North Chennai","taluk":"Aavadi","village":"Puzhal","name":"Kannappaswamy Nagar","area_type":"Urban","shop_code":"02IF065NT","search_string":"  aavadi north chennai "},"bbox":[80.1938,13.172,80.1938,13.172]},{"type":"Feature","geometry":{"type":"Point","coordinates":[80.0758,13.1739]},"properties":{"district":"North Chennai","taluk":"Aavadi","village":"Avadi","name":"Muttha Pudhupettai","area_type":"Urban","shop_code":"02IF029NT","search_string":"  aavadi north chennai "},"bbox":[80.0758,13.1739,80.0758,13.1739]},{"type":"Feature","geometry":{"type":"Point","coordinates":[80.0755,13.1743]},"properties":{"district":"North Chennai","taluk":"Aavadi","village":"Avadi","name":"Morai","area_type":"Urban","shop_code":"02IF049NT","search_string":"  aavadi north chennai "},"bbox":[80.0755,13.1743,80.0755,13.1743]},{"type":"Feature","geometry":{"type":"Point","coordinates":[80.2196,13.175]},"properties":{"district":"North Chennai","taluk":"Aavadi","village":"Puzhal","name":"Vadaperumpakkam","area_type":"Urban","shop_code":"02IF058NT","search_string":"  aavadi north chennai "},"bbox":[80.2196,13.175,80.2196,13.175]},{"type":"Feature","geometry":{"type":"Point","coordinates":[80.1572,13.1778]},"properties":{"district":"North Chennai","taluk":"Aavadi","village":"Avadi","name":"Lakshmipuram","area_type":"Urban","shop_code":"02IF035NT","search_string":"  aavadi north chennai "},"bbox":[80.1572,13.1778,80.1572,13.1778]},{"type":"Feature","geometry":{"type":"Point","coordinates":[80.1994,13.1797]},"properties":{"district":"North Chennai","taluk":"Aavadi","village":"Avadi","name":"Thandal Kazhani","area_type":"Urban","shop_code":"02IF064NT","search_string":"  aavadi north chennai "},"bbox":[80.1994,13.1797,80.1994,13.1797]},{"type":"Feature","geometry":{"type":"Point","coordinates":[80.0445,13.1799]},"properties":{"district":"North Chennai","taluk":"Aavadi","village":"Avadi","name":"Kizhkondaiyar","area_type":"Urban","shop_code":"02IF005NT","search_string":"  aavadi north chennai "},"bbox":[80.0445,13.1799,80.0445,13.1799]},{"type":"Feature","geometry":{"type":"Point","coordinates":[80.0649,13.1802]},"properties":{"district":"North Chennai","taluk":"Aavadi","village":"Avadi","name":"Kathavur","area_type":"Urban","shop_code":"02IF009NT","search_string":"  aavadi north chennai "},"bbox":[80.0649,13.1802,80.0649,13.1802]},{"type":"Feature","geometry":{"type":"Point","coordinates":[80.2033,13.1824]},"properties":{"district":"North Chennai","taluk":"Aavadi","village":"Avadi","name":"Vadakarai - 2","area_type":"Urban","shop_code":"02IF057NT","search_string":"  aavadi north chennai "},"bbox":[80.2033,13.1824,80.2033,13.1824]},{"type":"Feature","geometry":{"type":"Point","coordinates":[80.0847,13.1845]},"properties":{"district":"North Chennai","taluk":"Aavadi","village":"Avadi","name":"Veerapuram","area_type":"Urban","shop_code":"02IF007NT","search_string":"  aavadi north chennai "},"bbox":[80.0847,13.1845,80.0847,13.1845]},{"type":"Feature","geometry":{"type":"Point","coordinates":[80.1977,13.1863]},"properties":{"district":"North Chennai","taluk":"Aavadi","village":"Avadi","name":"Vadakarai - 1","area_type":"Urban","shop_code":"02IF056NT","search_string":"  aavadi north chennai "},"bbox":[80.1977,13.1863,80.1977,13.1863]},{"type":"Feature","geometry":{"type":"Point","coordinates":[80.1877,13.1885]},"properties":{"district":"North Chennai","taluk":"Aavadi","village":"Avadi","name":"Redhills -5","area_type":"Urban","shop_code":"02IF036NT","search_string":"  aavadi north chennai "},"bbox":[80.1877,13.1885,80.1877,13.1885]},{"type":"Feature","geometry":{"type":"Point","coordinates":[80.1548,13.1886]},"properties":{"district":"North Chennai","taluk":"Aavadi","village":"Avadi","name":"Pammathukulam","area_type":"Urban","shop_code":"02IF016NT","search_string":"  aavadi north chennai "},"bbox":[80.1548,13.1886,80.1548,13.1886]},{"type":"Feature","geometry":{"type":"Point","coordinates":[80.1878,13.1886]},"properties":{"district":"North Chennai","taluk":"Aavadi","village":"Avadi","name":"Redhills -2","area_type":"Urban","shop_code":"02IF020NT","search_string":"  aavadi north chennai "},"bbox":[80.1878,13.1886,80.1878,13.1886]},{"type":"Feature","geometry":{"type":"Point","coordinates":[80.1994,13.1894]},"properties":{"district":"North Chennai","taluk":"Aavadi","village":"Puzhal","name":"Azhinjivakkam","area_type":"Urban","shop_code":"02IF066NT","search_string":"  aavadi north chennai "},"bbox":[80.1994,13.1894,80.1994,13.1894]},{"type":"Feature","geometry":{"type":"Point","coordinates":[80.186,13.19]},"properties":{"district":"North Chennai","taluk":"Aavadi","village":"Avadi","name":"Redhills -3","area_type":"Urban","shop_code":"02IF021NT","search_string":"  aavadi north chennai "},"bbox":[80.186,13.19,80.186,13.19]},{"type":"Feature","geometry":{"type":"Point","coordinates":[80.0674,13.1912]},"properties":{"district":"North Chennai","taluk":"Aavadi","village":"Avadi","name":"Pandesvaram","area_type":"Urban","shop_code":"02IF008NT","search_string":"  aavadi north chennai "},"bbox":[80.0674,13.1912,80.0674,13.1912]},{"type":"Feature","geometry":{"type":"Point","coordinates":[80.1833,13.1913]},"properties":{"district":"North Chennai","taluk":"Aavadi","village":"Avadi","name":"Redhills -6","area_type":"Urban","shop_code":"02IF045NT","search_string":"  aavadi north chennai "},"bbox":[80.1833,13.1913,80.1833,13.1913]},{"type":"Feature","geometry":{"type":"Point","coordinates":[80.0984,13.1919]},"properties":{"district":"North Chennai","taluk":"Aavadi","village":"Avadi","name":"Kanniyamman Nagar","area_type":"Urban","shop_code":"02IF044NT","search_string":"  aavadi north chennai "},"bbox":[80.0984,13.1919,80.0984,13.1919]},{"type":"Feature","geometry":{"type":"Point","coordinates":[80.182,13.1928]},"properties":{"district":"North Chennai","taluk":"Aavadi","village":"Avadi","name":"Redhills -1","area_type":"Urban","shop_code":"02IF019NT","search_string":"  aavadi north chennai "},"bbox":[80.182,13.1928,80.182,13.1928]},{"type":"Feature","geometry":{"type":"Point","coordinates":[80.1908,13.1941]},"properties":{"district":"North Chennai","taluk":"Aavadi","village":"Avadi","name":"Balaji Garden","area_type":"Urban","shop_code":"02IF061NT","search_string":"  aavadi north chennai "},"bbox":[80.1908,13.1941,80.1908,13.1941]},{"type":"Feature","geometry":{"type":"Point","coordinates":[80.0998,13.1942]},"properties":{"district":"North Chennai","taluk":"Aavadi","village":"Avadi","name":"New Kanniyamman Nagar","area_type":"Urban","shop_code":"02IF046NT","search_string":"  aavadi north chennai "},"bbox":[80.0998,13.1942,80.0998,13.1942]},{"type":"Feature","geometry":{"type":"Point","coordinates":[80.1859,13.1942]},"properties":{"district":"North Chennai","taluk":"Aavadi","village":"Avadi","name":"Redhills -4","area_type":"Urban","shop_code":"02IF002NT","search_string":"  aavadi north chennai "},"bbox":[80.1859,13.1942,80.1859,13.1942]},{"type":"Feature","geometry":{"type":"Point","coordinates":[80.1636,13.1943]},"properties":{"district":"North Chennai","taluk":"Aavadi","village":"Avadi","name":"Indhra Nagar","area_type":"Urban","shop_code":"02IF050NT","search_string":"  aavadi north chennai "},"bbox":[80.1636,13.1943,80.1636,13.1943]},{"type":"Feature","geometry":{"type":"Point","coordinates":[80.188,13.1975]},"properties":{"district":"North Chennai","taluk":"Aavadi","village":"Avadi","name":"Theerthangiriyanpattu","area_type":"Urban","shop_code":"02IF054NT","search_string":"  aavadi north chennai "},"bbox":[80.188,13.1975,80.188,13.1975]},{"type":"Feature","geometry":{"type":"Point","coordinates":[80.2205,13.1981]},"properties":{"district":"North Chennai","taluk":"Aavadi","village":"Avadi","name":"Vilangadupakkam","area_type":"Urban","shop_code":"02IF014NT","search_string":"  aavadi north chennai "},"bbox":[80.2205,13.1981,80.2205,13.1981]},{"type":"Feature","geometry":{"type":"Point","coordinates":[80.2342,13.1999]},"properties":{"district":"North Chennai","taluk":"Aavadi","village":"Avadi","name":"Sentrampakkam","area_type":"Urban","shop_code":"02IF015NT","search_string":"  aavadi north chennai "},"bbox":[80.2342,13.1999,80.2342,13.1999]},{"type":"Feature","geometry":{"type":"Point","coordinates":[80.2118,13.2014]},"properties":{"district":"North Chennai","taluk":"Aavadi","village":"Avadi","name":"Vilangadupakkam -2","area_type":"Urban","shop_code":"02IF069NT","search_string":"  aavadi north chennai "},"bbox":[80.2118,13.2014,80.2118,13.2014]},{"type":"Feature","geometry":{"type":"Point","coordinates":[80.0907,13.2039]},"properties":{"district":"North Chennai","taluk":"Aavadi","village":"Avadi","name":"Bangaram Pettai","area_type":"Urban","shop_code":"02IF053NT","search_string":"  aavadi north chennai "},"bbox":[80.0907,13.2039,80.0907,13.2039]},{"type":"Feature","geometry":{"type":"Point","coordinates":[80.1932,13.0437]},"properties":{"district":"North Chennai","taluk":"Ambattur","village":"Ambattur","name":"VANNIYAR STREET","area_type":"Urban","shop_code":"02FB149NT","search_string":"  ambattur north chennai "},"bbox":[80.1932,13.0437,80.1932,13.0437]},{"type":"Feature","geometry":{"type":"Point","coordinates":[80.1397,13.0479]},"properties":{"district":"North Chennai","taluk":"Ambattur","village":"Thundalam","name":"NOOMBAL","area_type":"Urban","shop_code":"02FD037NT","search_string":"  ambattur north chennai "},"bbox":[80.1397,13.0479,80.1397,13.0479]},{"type":"Feature","geometry":{"type":"Point","coordinates":[80.1293,13.0489]},"properties":{"district":"North Chennai","taluk":"Ambattur","village":"Pulliampedu","name":"Pulliampedu","area_type":"Urban","shop_code":"02FD023NT","search_string":"  ambattur north chennai "},"bbox":[80.1293,13.0489,80.1293,13.0489]},{"type":"Feature","geometry":{"type":"Point","coordinates":[80.1463,13.0606]},"properties":{"district":"North Chennai","taluk":"Ambattur","village":"Pallikuppam","name":"Pallikuppam","area_type":"Urban","shop_code":"02FA048NT","search_string":"  ambattur north chennai "},"bbox":[80.1463,13.0606,80.1463,13.0606]},{"type":"Feature","geometry":{"type":"Point","coordinates":[80.1349,13.0608]},"properties":{"district":"North Chennai","taluk":"Ambattur","village":"Velappanchavadi","name":"Velapan Chavadi 2","area_type":"Urban","shop_code":"02FD021NT","search_string":"  ambattur north chennai "},"bbox":[80.1349,13.0608,80.1349,13.0608]},{"type":"Feature","geometry":{"type":"Point","coordinates":[80.142,13.0636]},"properties":{"district":"North Chennai","taluk":"Ambattur","village":"Vadanumbal","name":"Vadnumpal","area_type":"Urban","shop_code":"02FD029NT","search_string":"  ambattur north chennai "},"bbox":[80.142,13.0636,80.142,13.0636]},{"type":"Feature","geometry":{"type":"Point","coordinates":[80.1286,13.0688]},"properties":{"district":"North Chennai","taluk":"Ambattur","village":"Thiruverkadu","name":"Thiruverkadu -2","area_type":"Urban","shop_code":"02FA068NT","search_string":"  ambattur north chennai "},"bbox":[80.1286,13.0688,80.1286,13.0688]},{"type":"Feature","geometry":{"type":"Point","coordinates":[80.1287,13.069]},"properties":{"district":"North Chennai","taluk":"Ambattur","village":"Ambattur","name":"THIRUVERKADU -3","area_type":"Urban","shop_code":"02FA079NT","search_string":"  ambattur north chennai "},"bbox":[80.1287,13.069,80.1287,13.069]},{"type":"Feature","geometry":{"type":"Point","coordinates":[80.1251,13.0729]},"properties":{"district":"North Chennai","taluk":"Ambattur","village":"Thiruverkadu","name":"Thiruverkadu","area_type":"Urban","shop_code":"02FA076NT","search_string":"  ambattur north chennai "},"bbox":[80.1251,13.0729,80.1251,13.0729]},{"type":"Feature","geometry":{"type":"Point","coordinates":[80.1533,13.0744]},"properties":{"district":"North Chennai","taluk":"Ambattur","village":"Kil Ayanapakkam","name":"Keel Ayanambakkam","area_type":"Urban","shop_code":"02FA075NT","search_string":"  ambattur north chennai "},"bbox":[80.1533,13.0744,80.1533,13.0744]},{"type":"Feature","geometry":{"type":"Point","coordinates":[80.188,13.0744]},"properties":{"district":"North Chennai","taluk":"Ambattur","village":"Padikuppam","name":"Padikuppam  II","area_type":"Urban","shop_code":"02FB115NT","search_string":"  ambattur north chennai "},"bbox":[80.188,13.0744,80.188,13.0744]},{"type":"Feature","geometry":{"type":"Point","coordinates":[80.1885,13.0773]},"properties":{"district":"North Chennai","taluk":"Ambattur","village":"Mugappair","name":"RLY Station Salai","area_type":"Urban","shop_code":"02FB068NT","search_string":"  ambattur north chennai "},"bbox":[80.1885,13.0773,80.1885,13.0773]},{"type":"Feature","geometry":{"type":"Point","coordinates":[80.1258,13.0815]},"properties":{"district":"North Chennai","taluk":"Ambattur","village":"Koladi","name":"Anbu Nagar","area_type":"Urban","shop_code":"02FA071NT","search_string":"  ambattur north chennai "},"bbox":[80.1258,13.0815,80.1258,13.0815]},{"type":"Feature","geometry":{"type":"Point","coordinates":[80.1261,13.0816]},"properties":{"district":"North Chennai","taluk":"Ambattur","village":"Thiruverkadu","name":"Koladi","area_type":"Urban","shop_code":"02FA043NT","search_string":"  ambattur north chennai "},"bbox":[80.1261,13.0816,80.1261,13.0816]},{"type":"Feature","geometry":{"type":"Point","coordinates":[80.1888,13.0823]},"properties":{"district":"North Chennai","taluk":"Ambattur","village":"Padi Pudu Nagar","name":"PudunagarMugapair","area_type":"Urban","shop_code":"02FB066NT","search_string":"  ambattur north chennai "},"bbox":[80.1888,13.0823,80.1888,13.0823]},{"type":"Feature","geometry":{"type":"Point","coordinates":[80.1852,13.0823]},"properties":{"district":"North Chennai","taluk":"Ambattur","village":"Mugappair","name":"East Mugappair-2a","area_type":"Urban","shop_code":"02FB067NT","search_string":"  ambattur north chennai "},"bbox":[80.1852,13.0823,80.1852,13.0823]},{"type":"Feature","geometry":{"type":"Point","coordinates":[80.1852,13.0825]},"properties":{"district":"North Chennai","taluk":"Ambattur","village":"Ambattur","name":"East Mugapper-2","area_type":"Urban","shop_code":"02FA034NT","search_string":"  ambattur north chennai "},"bbox":[80.1852,13.0825,80.1852,13.0825]},{"type":"Feature","geometry":{"type":"Point","coordinates":[80.1851,13.0825]},"properties":{"district":"North Chennai","taluk":"Ambattur","village":"Ambattur","name":"Pugazhendhi Salai","area_type":"Urban","shop_code":"02FA035NT","search_string":"  ambattur north chennai "},"bbox":[80.1851,13.0825,80.1851,13.0825]},{"type":"Feature","geometry":{"type":"Point","coordinates":[80.1483,13.0835]},"properties":{"district":"North Chennai","taluk":"Ambattur","village":"Melayanapakkam","name":"Melayanampakkam","area_type":"Urban","shop_code":"02FA074NT","search_string":"  ambattur north chennai "},"bbox":[80.1483,13.0835,80.1483,13.0835]},{"type":"Feature","geometry":{"type":"Point","coordinates":[80.1954,13.0848]},"properties":{"district":"North Chennai","taluk":"Ambattur","village":"Padikuppam","name":"Kamaraj Nagar-4","area_type":"Urban","shop_code":"02FB058NT","search_string":"  ambattur north chennai "},"bbox":[80.1954,13.0848,80.1954,13.0848]},{"type":"Feature","geometry":{"type":"Point","coordinates":[80.189,13.085]},"properties":{"district":"North Chennai","taluk":"Ambattur","village":"Padi Pudu Nagar","name":"East Mugapair-1","area_type":"Urban","shop_code":"02FB063NT","search_string":"  ambattur north chennai "},"bbox":[80.189,13.085,80.189,13.085]},{"type":"Feature","geometry":{"type":"Point","coordinates":[80.1958,13.0857]},"properties":{"district":"North Chennai","taluk":"Ambattur","village":"Thirumangalam","name":"Tiruvaleeswarar","area_type":"Urban","shop_code":"02FB060NT","search_string":"  ambattur north chennai "},"bbox":[80.1958,13.0857,80.1958,13.0857]},{"type":"Feature","geometry":{"type":"Point","coordinates":[80.1896,13.0861]},"properties":{"district":"North Chennai","taluk":"Ambattur","village":"Ambattur","name":"Kalaivanar Colony","area_type":"Urban","shop_code":"02FA008NT","search_string":"  ambattur north chennai "},"bbox":[80.1896,13.0861,80.1896,13.0861]},{"type":"Feature","geometry":{"type":"Point","coordinates":[80.1902,13.0867]},"properties":{"district":"North Chennai","taluk":"Ambattur","village":"Ambattur","name":"Kalaivanar Colony - 2","area_type":"Urban","shop_code":"02FA057NT","search_string":"  ambattur north chennai "},"bbox":[80.1902,13.0867,80.1902,13.0867]},{"type":"Feature","geometry":{"type":"Point","coordinates":[80.1949,13.0877]},"properties":{"district":"North Chennai","taluk":"Ambattur","village":"Ambattur","name":"West Annanagar","area_type":"Urban","shop_code":"02FA011NT","search_string":"  ambattur north chennai "},"bbox":[80.1949,13.0877,80.1949,13.0877]},{"type":"Feature","geometry":{"type":"Point","coordinates":[80.1947,13.0878]},"properties":{"district":"North Chennai","taluk":"Ambattur","village":"Ambattur","name":"West Annanagar","area_type":"Urban","shop_code":"02FA010NT","search_string":"  ambattur north chennai "},"bbox":[80.1947,13.0878,80.1947,13.0878]},{"type":"Feature","geometry":{"type":"Point","coordinates":[80.1483,13.0885]},"properties":{"district":"North Chennai","taluk":"Ambattur","village":"Ayappakkam","name":"Chellaiamman Nagar","area_type":"Urban","shop_code":"02FF047NT","search_string":"  ambattur north chennai "},"bbox":[80.1483,13.0885,80.1483,13.0885]},{"type":"Feature","geometry":{"type":"Point","coordinates":[80.1433,13.09]},"properties":{"district":"North Chennai","taluk":"Ambattur","village":"Ayappakkam","name":"ICF Colony","area_type":"Urban","shop_code":"02FF037NT","search_string":"  ambattur north chennai "},"bbox":[80.1433,13.09,80.1433,13.09]},{"type":"Feature","geometry":{"type":"Point","coordinates":[80.1902,13.0908]},"properties":{"district":"North Chennai","taluk":"Ambattur","village":"Ambattur","name":"TVS AvenueWAnnanagar","area_type":"Urban","shop_code":"02FA007NT","search_string":"  ambattur north chennai "},"bbox":[80.1902,13.0908,80.1902,13.0908]},{"type":"Feature","geometry":{"type":"Point","coordinates":[80.1904,13.0909]},"properties":{"district":"North Chennai","taluk":"Ambattur","village":"Anna Nagar","name":"Kalaivanar Colony","area_type":"Urban","shop_code":"02FA072NT","search_string":"  ambattur north chennai "},"bbox":[80.1904,13.0909,80.1904,13.0909]},{"type":"Feature","geometry":{"type":"Point","coordinates":[80.1904,13.0912]},"properties":{"district":"North Chennai","taluk":"Ambattur","village":"Padi","name":"Kumaran Nagar Padi","area_type":"Urban","shop_code":"02FB065NT","search_string":"  ambattur north chennai "},"bbox":[80.1904,13.0912,80.1904,13.0912]},{"type":"Feature","geometry":{"type":"Point","coordinates":[80.1478,13.0916]},"properties":{"district":"North Chennai","taluk":"Ambattur","village":"Ambattur","name":"Chelliamman nagar-2","area_type":"Urban","shop_code":"02FF048NT","search_string":"  ambattur north chennai "},"bbox":[80.1478,13.0916,80.1478,13.0916]},{"type":"Feature","geometry":{"type":"Point","coordinates":[80.1794,13.0918]},"properties":{"district":"North Chennai","taluk":"Ambattur","village":"Padi","name":"Periyar St1Padi","area_type":"Urban","shop_code":"02FB025NT","search_string":"  ambattur north chennai "},"bbox":[80.1794,13.0918,80.1794,13.0918]},{"type":"Feature","geometry":{"type":"Point","coordinates":[80.1446,13.0923]},"properties":{"district":"North Chennai","taluk":"Ambattur","village":"Ayappakkam","name":"ICF Colony 2","area_type":"Urban","shop_code":"02FF042NT","search_string":"  ambattur north chennai "},"bbox":[80.1446,13.0923,80.1446,13.0923]},{"type":"Feature","geometry":{"type":"Point","coordinates":[80.1802,13.0924]},"properties":{"district":"North Chennai","taluk":"Ambattur","village":"Padi","name":"Sathiyanagar","area_type":"Urban","shop_code":"02FB132NT","search_string":"  ambattur north chennai "},"bbox":[80.1802,13.0924,80.1802,13.0924]},{"type":"Feature","geometry":{"type":"Point","coordinates":[80.1812,13.0924]},"properties":{"district":"North Chennai","taluk":"Ambattur","village":"Padi","name":"Periyar St2Padi","area_type":"Urban","shop_code":"02FB026NT","search_string":"  ambattur north chennai "},"bbox":[80.1812,13.0924,80.1812,13.0924]},{"type":"Feature","geometry":{"type":"Point","coordinates":[80.1883,13.0925]},"properties":{"district":"North Chennai","taluk":"Ambattur","village":"Padi","name":"Chinthamani Thendral","area_type":"Urban","shop_code":"02FB107NT","search_string":"  ambattur north chennai "},"bbox":[80.1883,13.0925,80.1883,13.0925]},{"type":"Feature","geometry":{"type":"Point","coordinates":[80.1898,13.0926]},"properties":{"district":"North Chennai","taluk":"Ambattur","village":"Padi","name":"Kumaran Nagar2 Padi","area_type":"Urban","shop_code":"02FB108NT","search_string":"  ambattur north chennai "},"bbox":[80.1898,13.0926,80.1898,13.0926]},{"type":"Feature","geometry":{"type":"Point","coordinates":[80.1562,13.093]},"properties":{"district":"North Chennai","taluk":"Ambattur","village":"Ambattur","name":"Athipedu","area_type":"Urban","shop_code":"02FB017NT","search_string":"  ambattur north chennai "},"bbox":[80.1562,13.093,80.1562,13.093]},{"type":"Feature","geometry":{"type":"Point","coordinates":[80.1856,13.0931]},"properties":{"district":"North Chennai","taluk":"Ambattur","village":"Korattur","name":"TVS AvenuePadi","area_type":"Urban","shop_code":"02FB059NT","search_string":"  ambattur north chennai "},"bbox":[80.1856,13.0931,80.1856,13.0931]},{"type":"Feature","geometry":{"type":"Point","coordinates":[80.1794,13.0933]},"properties":{"district":"North Chennai","taluk":"Ambattur","village":"Padi","name":"Periyar Street - 4","area_type":"Urban","shop_code":"02FB041NT","search_string":"  ambattur north chennai "},"bbox":[80.1794,13.0933,80.1794,13.0933]},{"type":"Feature","geometry":{"type":"Point","coordinates":[80.1857,13.0936]},"properties":{"district":"North Chennai","taluk":"Ambattur","village":"Padi","name":"South Mada Strees Padi","area_type":"Urban","shop_code":"02FB021NT","search_string":"  ambattur north chennai "},"bbox":[80.1857,13.0936,80.1857,13.0936]},{"type":"Feature","geometry":{"type":"Point","coordinates":[80.1511,13.0955]},"properties":{"district":"North Chennai","taluk":"Ambattur","village":"Ambattur","name":"Ambattur Kuppam","area_type":"Urban","shop_code":"02FB019NT","search_string":"  ambattur north chennai "},"bbox":[80.1511,13.0955,80.1511,13.0955]},{"type":"Feature","geometry":{"type":"Point","coordinates":[80.1354,13.0963]},"properties":{"district":"North Chennai","taluk":"Ambattur","village":"Ambattur","name":"Ayappakkam -1","area_type":"Urban","shop_code":"02FB018NT","search_string":"  ambattur north chennai "},"bbox":[80.1354,13.0963,80.1354,13.0963]},{"type":"Feature","geometry":{"type":"Point","coordinates":[80.1778,13.0964]},"properties":{"district":"North Chennai","taluk":"Ambattur","village":"Padi","name":"Kambar StPadi","area_type":"Urban","shop_code":"02FB028NT","search_string":"  ambattur north chennai "},"bbox":[80.1778,13.0964,80.1778,13.0964]},{"type":"Feature","geometry":{"type":"Point","coordinates":[80.182,13.0965]},"properties":{"district":"North Chennai","taluk":"Ambattur","village":"Padi","name":"Vanniyar Street Padi-1","area_type":"Urban","shop_code":"02FB020NT","search_string":"  ambattur north chennai "},"bbox":[80.182,13.0965,80.182,13.0965]},{"type":"Feature","geometry":{"type":"Point","coordinates":[80.1875,13.097]},"properties":{"district":"North Chennai","taluk":"Ambattur","village":"Padi","name":"Manickavasagar St","area_type":"Urban","shop_code":"02FB024NT","search_string":"  ambattur north chennai "},"bbox":[80.1875,13.097,80.1875,13.097]},{"type":"Feature","geometry":{"type":"Point","coordinates":[80.131,13.0972]},"properties":{"district":"North Chennai","taluk":"Ambattur","village":"Ayappakkam","name":"Ayyambakkam Gayathri","area_type":"Urban","shop_code":"02FB143NT","search_string":"  ambattur north chennai "},"bbox":[80.131,13.0972,80.131,13.0972]},{"type":"Feature","geometry":{"type":"Point","coordinates":[80.1868,13.0973]},"properties":{"district":"North Chennai","taluk":"Ambattur","village":"Padi","name":"Raja St Padi","area_type":"Urban","shop_code":"02FB022NT","search_string":"  ambattur north chennai "},"bbox":[80.1868,13.0973,80.1868,13.0973]},{"type":"Feature","geometry":{"type":"Point","coordinates":[80.1898,13.0991]},"properties":{"district":"North Chennai","taluk":"Ambattur","village":"Padi","name":"Vellala StPadi","area_type":"Urban","shop_code":"02FB023NT","search_string":"  ambattur north chennai "},"bbox":[80.1898,13.0991,80.1898,13.0991]},{"type":"Feature","geometry":{"type":"Point","coordinates":[80.1741,13.0994]},"properties":{"district":"North Chennai","taluk":"Ambattur","village":"Padi","name":"RLY Station Salai","area_type":"Urban","shop_code":"02FB105NT","search_string":"  ambattur north chennai "},"bbox":[80.1741,13.0994,80.1741,13.0994]},{"type":"Feature","geometry":{"type":"Point","coordinates":[80.1728,13.0998]},"properties":{"district":"North Chennai","taluk":"Ambattur","village":"Padi","name":"Periyar St3Padi","area_type":"Urban","shop_code":"02FB027NT","search_string":"  ambattur north chennai "},"bbox":[80.1728,13.0998,80.1728,13.0998]},{"type":"Feature","geometry":{"type":"Point","coordinates":[80.1936,13.1009]},"properties":{"district":"North Chennai","taluk":"Ambattur","village":"Ambattur","name":"Annanagar West-3","area_type":"Urban","shop_code":"02FA073NT","search_string":"  ambattur north chennai "},"bbox":[80.1936,13.1009,80.1936,13.1009]},{"type":"Feature","geometry":{"type":"Point","coordinates":[80.1392,13.101]},"properties":{"district":"North Chennai","taluk":"Ambattur","village":"Ayappakkam","name":"Ayappakkam3","area_type":"Urban","shop_code":"02FB100NT","search_string":"  ambattur north chennai "},"bbox":[80.1392,13.101,80.1392,13.101]},{"type":"Feature","geometry":{"type":"Point","coordinates":[80.1612,13.1018]},"properties":{"district":"North Chennai","taluk":"Ambattur","village":"Ambattur","name":"AALAMARAM","area_type":"Urban","shop_code":"02FB148NT","search_string":"  ambattur north chennai "},"bbox":[80.1612,13.1018,80.1612,13.1018]},{"type":"Feature","geometry":{"type":"Point","coordinates":[80.1389,13.103]},"properties":{"district":"North Chennai","taluk":"Ambattur","village":"Ayappakkam","name":"Ayapakkam-8","area_type":"Urban","shop_code":"02FB154NT","search_string":"  ambattur north chennai "},"bbox":[80.1389,13.103,80.1389,13.103]},{"type":"Feature","geometry":{"type":"Point","coordinates":[80.1824,13.1034]},"properties":{"district":"North Chennai","taluk":"Ambattur","village":"Korattur","name":"Kamaraj Nagar","area_type":"Urban","shop_code":"02FB037NT","search_string":"  ambattur north chennai "},"bbox":[80.1824,13.1034,80.1824,13.1034]},{"type":"Feature","geometry":{"type":"Point","coordinates":[80.1818,13.1035]},"properties":{"district":"North Chennai","taluk":"Ambattur","village":"Padi","name":"Savadi Street","area_type":"Urban","shop_code":"02FB133NT","search_string":"  ambattur north chennai "},"bbox":[80.1818,13.1035,80.1818,13.1035]},{"type":"Feature","geometry":{"type":"Point","coordinates":[80.1357,13.1035]},"properties":{"district":"North Chennai","taluk":"Ambattur","village":"Ayappakkam","name":"Ayappakkam5","area_type":"Urban","shop_code":"02FB128NT","search_string":"  ambattur north chennai "},"bbox":[80.1357,13.1035,80.1357,13.1035]},{"type":"Feature","geometry":{"type":"Point","coordinates":[80.1793,13.1036]},"properties":{"district":"North Chennai","taluk":"Ambattur","village":"Korattur","name":"RLYStation Salai","area_type":"Urban","shop_code":"02FB038NT","search_string":"  ambattur north chennai "},"bbox":[80.1793,13.1036,80.1793,13.1036]},{"type":"Feature","geometry":{"type":"Point","coordinates":[80.1668,13.1037]},"properties":{"district":"North Chennai","taluk":"Ambattur","village":"Mangalapuram","name":"Pallikuda Salai","area_type":"Urban","shop_code":"02FB029NT","search_string":"  ambattur north chennai "},"bbox":[80.1668,13.1037,80.1668,13.1037]},{"type":"Feature","geometry":{"type":"Point","coordinates":[80.1327,13.1045]},"properties":{"district":"North Chennai","taluk":"Ambattur","village":"Ayappakkam","name":"Ayappakkam-2","area_type":"Urban","shop_code":"02FB097NT","search_string":"  ambattur north chennai "},"bbox":[80.1327,13.1045,80.1327,13.1045]},{"type":"Feature","geometry":{"type":"Point","coordinates":[80.1801,13.1046]},"properties":{"district":"North Chennai","taluk":"Ambattur","village":"Korattur","name":"KORRATUR -3","area_type":"Urban","shop_code":"02FB036NT","search_string":"  ambattur north chennai "},"bbox":[80.1801,13.1046,80.1801,13.1046]},{"type":"Feature","geometry":{"type":"Point","coordinates":[80.1332,13.1047]},"properties":{"district":"North Chennai","taluk":"Ambattur","village":"Ayappakkam","name":"Ayappakkam-6","area_type":"Urban","shop_code":"02FB150NT","search_string":"  ambattur north chennai "},"bbox":[80.1332,13.1047,80.1332,13.1047]},{"type":"Feature","geometry":{"type":"Point","coordinates":[80.1551,13.107]},"properties":{"district":"North Chennai","taluk":"Ambattur","village":"Ambattur","name":"Kulakarai Street","area_type":"Urban","shop_code":"02FB131NT","search_string":"  ambattur north chennai "},"bbox":[80.1551,13.107,80.1551,13.107]},{"type":"Feature","geometry":{"type":"Point","coordinates":[80.1553,13.1071]},"properties":{"district":"North Chennai","taluk":"Ambattur","village":"Ambattur","name":"VOC Street","area_type":"Urban","shop_code":"02FB093NT","search_string":"  ambattur north chennai "},"bbox":[80.1553,13.1071,80.1553,13.1071]},{"type":"Feature","geometry":{"type":"Point","coordinates":[80.1491,13.1072]},"properties":{"district":"North Chennai","taluk":"Ambattur","village":"Ambattur","name":"TICycle -2","area_type":"Urban","shop_code":"02FB016NT","search_string":"  ambattur north chennai "},"bbox":[80.1491,13.1072,80.1491,13.1072]},{"type":"Feature","geometry":{"type":"Point","coordinates":[80.1312,13.1074]},"properties":{"district":"North Chennai","taluk":"Ambattur","village":"Ayappakkam","name":"Ayyapackkam4","area_type":"Urban","shop_code":"02FB129NT","search_string":"  ambattur north chennai "},"bbox":[80.1312,13.1074,80.1312,13.1074]},{"type":"Feature","geometry":{"type":"Point","coordinates":[80.1305,13.1075]},"properties":{"district":"North Chennai","taluk":"Ambattur","village":"Ayappakkam","name":"Ayappakkam-7","area_type":"Urban","shop_code":"02FB151NT","search_string":"  ambattur north chennai "},"bbox":[80.1305,13.1075,80.1305,13.1075]},{"type":"Feature","geometry":{"type":"Point","coordinates":[80.1527,13.1081]},"properties":{"district":"North Chennai","taluk":"Ambattur","village":"Kallikuppam","name":"KALLIKUPPAM-2","area_type":"Urban","shop_code":"02FF049NT","search_string":"  ambattur north chennai "},"bbox":[80.1527,13.1081,80.1527,13.1081]},{"type":"Feature","geometry":{"type":"Point","coordinates":[80.1816,13.109]},"properties":{"district":"North Chennai","taluk":"Ambattur","village":"Korattur","name":"Koratur","area_type":"Urban","shop_code":"02FB033NT","search_string":"  ambattur north chennai "},"bbox":[80.1816,13.109,80.1816,13.109]},{"type":"Feature","geometry":{"type":"Point","coordinates":[80.1814,13.1092]},"properties":{"district":"North Chennai","taluk":"Ambattur","village":"Korattur","name":"Koratur","area_type":"Urban","shop_code":"02FB030NT","search_string":"  ambattur north chennai "},"bbox":[80.1814,13.1092,80.1814,13.1092]},{"type":"Feature","geometry":{"type":"Point","coordinates":[80.1675,13.1094]},"properties":{"district":"North Chennai","taluk":"Ambattur","village":"Pattravakkam","name":"Pattravakkam","area_type":"Urban","shop_code":"02FB032NT","search_string":"  ambattur north chennai "},"bbox":[80.1675,13.1094,80.1675,13.1094]},{"type":"Feature","geometry":{"type":"Point","coordinates":[80.1814,13.1097]},"properties":{"district":"North Chennai","taluk":"Ambattur","village":"Korattur","name":"Korattur4","area_type":"Urban","shop_code":"02FB106NT","search_string":"  ambattur north chennai "},"bbox":[80.1814,13.1097,80.1814,13.1097]},{"type":"Feature","geometry":{"type":"Point","coordinates":[80.1803,13.1098]},"properties":{"district":"North Chennai","taluk":"Ambattur","village":"Korattur","name":"Koratur-1a","area_type":"Urban","shop_code":"02FB031NT","search_string":"  ambattur north chennai "},"bbox":[80.1803,13.1098,80.1803,13.1098]},{"type":"Feature","geometry":{"type":"Point","coordinates":[80.1564,13.1107]},"properties":{"district":"North Chennai","taluk":"Ambattur","village":"Ambattur","name":"Samthariyarnagar","area_type":"Urban","shop_code":"02FA002NT","search_string":"  ambattur north chennai "},"bbox":[80.1564,13.1107,80.1564,13.1107]},{"type":"Feature","geometry":{"type":"Point","coordinates":[80.1516,13.1109]},"properties":{"district":"North Chennai","taluk":"Ambattur","village":"Ambattur","name":"Varadarajapuram","area_type":"Urban","shop_code":"02FA001NT","search_string":"  ambattur north chennai "},"bbox":[80.1516,13.1109,80.1516,13.1109]},{"type":"Feature","geometry":{"type":"Point","coordinates":[80.1579,13.1115]},"properties":{"district":"North Chennai","taluk":"Ambattur","village":"Ambattur","name":"Amutham Samthariyanagar-2","area_type":"Urban","shop_code":"02FA059NT","search_string":"  ambattur north chennai "},"bbox":[80.1579,13.1115,80.1579,13.1115]},{"type":"Feature","geometry":{"type":"Point","coordinates":[80.153,13.1128]},"properties":{"district":"North Chennai","taluk":"Ambattur","village":"Ambattur","name":"TICycle -1","area_type":"Urban","shop_code":"02FB015NT","search_string":"  ambattur north chennai "},"bbox":[80.153,13.1128,80.153,13.1128]},{"type":"Feature","geometry":{"type":"Point","coordinates":[80.1814,13.1141]},"properties":{"district":"North Chennai","taluk":"Ambattur","village":"Korattur","name":"Srinivasapuram","area_type":"Urban","shop_code":"02FF024NT","search_string":"  ambattur north chennai "},"bbox":[80.1814,13.1141,80.1814,13.1141]},{"type":"Feature","geometry":{"type":"Point","coordinates":[80.1569,13.1145]},"properties":{"district":"North Chennai","taluk":"Ambattur","village":"Ambattur","name":"Kalyanapuram","area_type":"Urban","shop_code":"02FA004NT","search_string":"  ambattur north chennai "},"bbox":[80.1569,13.1145,80.1569,13.1145]},{"type":"Feature","geometry":{"type":"Point","coordinates":[80.1906,13.1148]},"properties":{"district":"North Chennai","taluk":"Ambattur","village":"Korattur","name":"Balaji Nagar","area_type":"Urban","shop_code":"02FB130NT","search_string":"  ambattur north chennai "},"bbox":[80.1906,13.1148,80.1906,13.1148]},{"type":"Feature","geometry":{"type":"Point","coordinates":[80.1887,13.1149]},"properties":{"district":"North Chennai","taluk":"Ambattur","village":"Korattur","name":"Sivalingapuram","area_type":"Urban","shop_code":"02FB035NT","search_string":"  ambattur north chennai "},"bbox":[80.1887,13.1149,80.1887,13.1149]},{"type":"Feature","geometry":{"type":"Point","coordinates":[80.1689,13.116]},"properties":{"district":"North Chennai","taluk":"Ambattur","village":"Ambattur","name":"Pirithivakkam-4","area_type":"Urban","shop_code":"02FB153NT","search_string":"  ambattur north chennai "},"bbox":[80.1689,13.116,80.1689,13.116]},{"type":"Feature","geometry":{"type":"Point","coordinates":[80.1557,13.1166]},"properties":{"district":"North Chennai","taluk":"Ambattur","village":"Ambattur","name":"Ganapathy Street","area_type":"Urban","shop_code":"02FB003NT","search_string":"  ambattur north chennai "},"bbox":[80.1557,13.1166,80.1557,13.1166]},{"type":"Feature","geometry":{"type":"Point","coordinates":[80.1673,13.1172]},"properties":{"district":"North Chennai","taluk":"Ambattur","village":"Ambattur","name":"Pirithivakkam -2","area_type":"Urban","shop_code":"02FB006NT","search_string":"  ambattur north chennai "},"bbox":[80.1673,13.1172,80.1673,13.1172]},{"type":"Feature","geometry":{"type":"Point","coordinates":[80.143,13.119]},"properties":{"district":"North Chennai","taluk":"Ambattur","village":"Ambattur","name":"Varadarajapuram","area_type":"Urban","shop_code":"02FB001NT","search_string":"  ambattur north chennai "},"bbox":[80.143,13.119,80.143,13.119]},{"type":"Feature","geometry":{"type":"Point","coordinates":[80.161,13.1194]},"properties":{"district":"North Chennai","taluk":"Ambattur","village":"Ambattur","name":"Pirithivakkam -1","area_type":"Urban","shop_code":"02FB005NT","search_string":"  ambattur north chennai "},"bbox":[80.161,13.1194,80.161,13.1194]},{"type":"Feature","geometry":{"type":"Point","coordinates":[80.1891,13.1198]},"properties":{"district":"North Chennai","taluk":"Ambattur","village":"Korattur","name":"Perumal St.Koratur","area_type":"Urban","shop_code":"02FB034NT","search_string":"  ambattur north chennai "},"bbox":[80.1891,13.1198,80.1891,13.1198]},{"type":"Feature","geometry":{"type":"Point","coordinates":[80.1427,13.1201]},"properties":{"district":"North Chennai","taluk":"Ambattur","village":"Ambattur","name":"Saraswathi Street","area_type":"Urban","shop_code":"02FB144NT","search_string":"  ambattur north chennai "},"bbox":[80.1427,13.1201,80.1427,13.1201]},{"type":"Feature","geometry":{"type":"Point","coordinates":[80.1433,13.1206]},"properties":{"district":"North Chennai","taluk":"Ambattur","village":"Ambattur","name":"Stepboard Hospital Road","area_type":"Urban","shop_code":"02FB114NT","search_string":"  ambattur north chennai "},"bbox":[80.1433,13.1206,80.1433,13.1206]},{"type":"Feature","geometry":{"type":"Point","coordinates":[80.1627,13.1206]},"properties":{"district":"North Chennai","taluk":"Ambattur","village":"Ambattur","name":"Ghanamoorthy Nagar","area_type":"Urban","shop_code":"02FB123NT","search_string":"  ambattur north chennai "},"bbox":[80.1627,13.1206,80.1627,13.1206]},{"type":"Feature","geometry":{"type":"Point","coordinates":[80.1446,13.1211]},"properties":{"district":"North Chennai","taluk":"Ambattur","village":"Ambattur","name":"Krishnapuram","area_type":"Urban","shop_code":"02FB002NT","search_string":"  ambattur north chennai "},"bbox":[80.1446,13.1211,80.1446,13.1211]},{"type":"Feature","geometry":{"type":"Point","coordinates":[80.1646,13.1217]},"properties":{"district":"North Chennai","taluk":"Ambattur","village":"Ambattur","name":"Menampadu","area_type":"Urban","shop_code":"02FB120NT","search_string":"  ambattur north chennai "},"bbox":[80.1646,13.1217,80.1646,13.1217]},{"type":"Feature","geometry":{"type":"Point","coordinates":[80.1626,13.1222]},"properties":{"district":"North Chennai","taluk":"Ambattur","village":"Ambattur","name":"Pirithivakkam -3","area_type":"Urban","shop_code":"02FB007NT","search_string":"  ambattur north chennai "},"bbox":[80.1626,13.1222,80.1626,13.1222]},{"type":"Feature","geometry":{"type":"Point","coordinates":[80.1596,13.123]},"properties":{"district":"North Chennai","taluk":"Ambattur","village":"Ambattur","name":"Venkatapuram","area_type":"Urban","shop_code":"02FB008NT","search_string":"  ambattur north chennai "},"bbox":[80.1596,13.123,80.1596,13.123]},{"type":"Feature","geometry":{"type":"Point","coordinates":[80.1466,13.1237]},"properties":{"district":"North Chennai","taluk":"Ambattur","village":"Ambattur","name":"SYD CSRam Ngr","area_type":"Urban","shop_code":"02FF004NT","search_string":"  ambattur north chennai "},"bbox":[80.1466,13.1237,80.1466,13.1237]},{"type":"Feature","geometry":{"type":"Point","coordinates":[80.1507,13.1242]},"properties":{"district":"North Chennai","taluk":"Ambattur","village":"Ambattur","name":"Mounasami Madam St","area_type":"Urban","shop_code":"02FB004NT","search_string":"  ambattur north chennai "},"bbox":[80.1507,13.1242,80.1507,13.1242]},{"type":"Feature","geometry":{"type":"Point","coordinates":[80.1616,13.1244]},"properties":{"district":"North Chennai","taluk":"Ambattur","village":"Oragadam","name":"Sithu Oragadam","area_type":"Urban","shop_code":"02FB112NT","search_string":"  ambattur north chennai "},"bbox":[80.1616,13.1244,80.1616,13.1244]},{"type":"Feature","geometry":{"type":"Point","coordinates":[80.1559,13.1252]},"properties":{"district":"North Chennai","taluk":"Ambattur","village":"Ambattur","name":"Vijayalakshmipuram","area_type":"Urban","shop_code":"02FB009NT","search_string":"  ambattur north chennai "},"bbox":[80.1559,13.1252,80.1559,13.1252]},{"type":"Feature","geometry":{"type":"Point","coordinates":[80.1514,13.1259]},"properties":{"district":"North Chennai","taluk":"Ambattur","village":"Ambattur","name":"Vinayagapuram","area_type":"Urban","shop_code":"02FB010NT","search_string":"  ambattur north chennai "},"bbox":[80.1514,13.1259,80.1514,13.1259]},{"type":"Feature","geometry":{"type":"Point","coordinates":[80.156,13.1266]},"properties":{"district":"North Chennai","taluk":"Ambattur","village":"Ambattur","name":"Prakash Nagar","area_type":"Urban","shop_code":"02FA005NT","search_string":"  ambattur north chennai "},"bbox":[80.156,13.1266,80.156,13.1266]},{"type":"Feature","geometry":{"type":"Point","coordinates":[80.159,13.127]},"properties":{"district":"North Chennai","taluk":"Ambattur","village":"Ambattur","name":"Pudur","area_type":"Urban","shop_code":"02FB013NT","search_string":"  ambattur north chennai "},"bbox":[80.159,13.127,80.159,13.127]},{"type":"Feature","geometry":{"type":"Point","coordinates":[80.1449,13.1274]},"properties":{"district":"North Chennai","taluk":"Ambattur","village":"Ambattur","name":"Lenin Nagar","area_type":"Urban","shop_code":"02FF041NT","search_string":"  ambattur north chennai "},"bbox":[80.1449,13.1274,80.1449,13.1274]},{"type":"Feature","geometry":{"type":"Point","coordinates":[80.1722,13.1295]},"properties":{"district":"North Chennai","taluk":"Ambattur","village":"Kallikuppam","name":"kallikuppam Gangai Nagar","area_type":"Urban","shop_code":"02FF043NT","search_string":"  ambattur north chennai "},"bbox":[80.1722,13.1295,80.1722,13.1295]},{"type":"Feature","geometry":{"type":"Point","coordinates":[80.1537,13.1297]},"properties":{"district":"North Chennai","taluk":"Ambattur","village":"Ambattur","name":"Gandhi Nagar-3","area_type":"Urban","shop_code":"02FB012NT","search_string":"  ambattur north chennai "},"bbox":[80.1537,13.1297,80.1537,13.1297]},{"type":"Feature","geometry":{"type":"Point","coordinates":[80.1507,13.1302]},"properties":{"district":"North Chennai","taluk":"Ambattur","village":"Ambattur","name":"Venketeshwara Ngr","area_type":"Urban","shop_code":"02FB011NT","search_string":"  ambattur north chennai "},"bbox":[80.1507,13.1302,80.1507,13.1302]},{"type":"Feature","geometry":{"type":"Point","coordinates":[80.1732,13.1317]},"properties":{"district":"North Chennai","taluk":"Ambattur","village":"Kallikuppam","name":"Kallikuppam","area_type":"Urban","shop_code":"02FF026NT","search_string":"  ambattur north chennai "},"bbox":[80.1732,13.1317,80.1732,13.1317]},{"type":"Feature","geometry":{"type":"Point","coordinates":[80.1557,13.1322]},"properties":{"district":"North Chennai","taluk":"Ambattur","village":"Ambattur","name":"West Banu Nagar","area_type":"Urban","shop_code":"02FB117NT","search_string":"  ambattur north chennai "},"bbox":[80.1557,13.1322,80.1557,13.1322]},{"type":"Feature","geometry":{"type":"Point","coordinates":[80.1487,13.1328]},"properties":{"district":"North Chennai","taluk":"Ambattur","village":"Ambattur","name":"Venkateswara Ngr2","area_type":"Urban","shop_code":"02FB116NT","search_string":"  ambattur north chennai "},"bbox":[80.1487,13.1328,80.1487,13.1328]},{"type":"Feature","geometry":{"type":"Point","coordinates":[80.1604,13.1348]},"properties":{"district":"North Chennai","taluk":"Ambattur","village":"Pudur","name":"Banu Nagar2","area_type":"Urban","shop_code":"02FB127NT","search_string":"  ambattur north chennai "},"bbox":[80.1604,13.1348,80.1604,13.1348]},{"type":"Feature","geometry":{"type":"Point","coordinates":[80.1586,13.1353]},"properties":{"district":"North Chennai","taluk":"Ambattur","village":"Ambattur","name":"Banu Nagar","area_type":"Urban","shop_code":"02FB014NT","search_string":"  ambattur north chennai "},"bbox":[80.1586,13.1353,80.1586,13.1353]},{"type":"Feature","geometry":{"type":"Point","coordinates":[80.1665,13.1354]},"properties":{"district":"North Chennai","taluk":"Ambattur","village":"Ambattur","name":"Rajivgandhi Nagar -3","area_type":"Urban","shop_code":"02FA009NT","search_string":"  ambattur north chennai "},"bbox":[80.1665,13.1354,80.1665,13.1354]},{"type":"Feature","geometry":{"type":"Point","coordinates":[80.157,13.1361]},"properties":{"district":"North Chennai","taluk":"Ambattur","village":"Oragadam","name":"Aka Oragadam","area_type":"Urban","shop_code":"02FF040NT","search_string":"  ambattur north chennai "},"bbox":[80.157,13.1361,80.157,13.1361]},{"type":"Feature","geometry":{"type":"Point","coordinates":[80.1887,13.1363]},"properties":{"district":"North Chennai","taluk":"Ambattur","village":"Madanamkuppam","name":"Soorappattu 2","area_type":"Urban","shop_code":"02FF009NT","search_string":"  ambattur north chennai "},"bbox":[80.1887,13.1363,80.1887,13.1363]},{"type":"Feature","geometry":{"type":"Point","coordinates":[80.1539,13.1375]},"properties":{"district":"North Chennai","taluk":"Ambattur","village":"Oragadam","name":"Oragadam","area_type":"Urban","shop_code":"02FF002NT","search_string":"  ambattur north chennai "},"bbox":[80.1539,13.1375,80.1539,13.1375]},{"type":"Feature","geometry":{"type":"Point","coordinates":[80.1708,13.1387]},"properties":{"district":"North Chennai","taluk":"Ambattur","village":"Ambattur","name":"West Balaji Nagar","area_type":"Urban","shop_code":"02FA003NT","search_string":"  ambattur north chennai "},"bbox":[80.1708,13.1387,80.1708,13.1387]},{"type":"Feature","geometry":{"type":"Point","coordinates":[80.2241,13.0557]},"properties":{"district":"North Chennai","taluk":"Anna Nagar","village":"Choolaimedu","name":"Vanniyar Street","area_type":"Urban","shop_code":"02DA020NC","search_string":"  anna nagar north chennai "},"bbox":[80.2241,13.0557,80.2241,13.0557]},{"type":"Feature","geometry":{"type":"Point","coordinates":[80.2242,13.0558]},"properties":{"district":"North Chennai","taluk":"Anna Nagar","village":"Choolaimedu","name":"New Market Street","area_type":"Urban","shop_code":"02DA037NC","search_string":"  anna nagar north chennai "},"bbox":[80.2242,13.0558,80.2242,13.0558]},{"type":"Feature","geometry":{"type":"Point","coordinates":[80.2132,13.0586]},"properties":{"district":"North Chennai","taluk":"Anna Nagar","village":"Choolaimedu","name":"Padmanaba Nagar","area_type":"Urban","shop_code":"02DC003NC","search_string":"  anna nagar north chennai "},"bbox":[80.2132,13.0586,80.2132,13.0586]},{"type":"Feature","geometry":{"type":"Point","coordinates":[80.2259,13.0595]},"properties":{"district":"North Chennai","taluk":"Anna Nagar","village":"Choolaimedu","name":"Bajani Koil Street-1","area_type":"Urban","shop_code":"02DA022NC","search_string":"  anna nagar north chennai "},"bbox":[80.2259,13.0595,80.2259,13.0595]},{"type":"Feature","geometry":{"type":"Point","coordinates":[80.2232,13.0595]},"properties":{"district":"North Chennai","taluk":"Anna Nagar","village":"Choolaimedu","name":"Sriramapuram-2","area_type":"Urban","shop_code":"02DA053NC","search_string":"  anna nagar north chennai "},"bbox":[80.2232,13.0595,80.2232,13.0595]},{"type":"Feature","geometry":{"type":"Point","coordinates":[80.2125,13.0597]},"properties":{"district":"North Chennai","taluk":"Anna Nagar","village":"Choolaimedu","name":"PADMANABA NAGAR-II","area_type":"Urban","shop_code":"02DC023NC","search_string":"  anna nagar north chennai "},"bbox":[80.2125,13.0597,80.2125,13.0597]},{"type":"Feature","geometry":{"type":"Point","coordinates":[80.2256,13.06]},"properties":{"district":"North Chennai","taluk":"Anna Nagar","village":"Choolaimedu","name":"Bajaniai Koil-2","area_type":"Urban","shop_code":"02DA052NC","search_string":"  anna nagar north chennai "},"bbox":[80.2256,13.06,80.2256,13.06]},{"type":"Feature","geometry":{"type":"Point","coordinates":[80.2241,13.0606]},"properties":{"district":"North Chennai","taluk":"Anna Nagar","village":"Choolaimedu","name":"Bajanai Koil Street","area_type":"Urban","shop_code":"02DA021NC","search_string":"  anna nagar north chennai "},"bbox":[80.2241,13.0606,80.2241,13.0606]},{"type":"Feature","geometry":{"type":"Point","coordinates":[80.2309,13.0608]},"properties":{"district":"North Chennai","taluk":"Anna Nagar","village":"Choolaimedu","name":"Basha Street-2","area_type":"Urban","shop_code":"02DC006NC","search_string":"  anna nagar north chennai "},"bbox":[80.2309,13.0608,80.2309,13.0608]},{"type":"Feature","geometry":{"type":"Point","coordinates":[80.2307,13.061]},"properties":{"district":"North Chennai","taluk":"Anna Nagar","village":"Choolaimedu","name":"Choolaimedu-2","area_type":"Urban","shop_code":"02DC009NC","search_string":"  anna nagar north chennai "},"bbox":[80.2307,13.061,80.2307,13.061]},{"type":"Feature","geometry":{"type":"Point","coordinates":[80.2307,13.061]},"properties":{"district":"North Chennai","taluk":"Anna Nagar","village":"Choolaimedu","name":"Basha Street-3","area_type":"Urban","shop_code":"02DC007NC","search_string":"  anna nagar north chennai "},"bbox":[80.2307,13.061,80.2307,13.061]},{"type":"Feature","geometry":{"type":"Point","coordinates":[80.2306,13.0612]},"properties":{"district":"North Chennai","taluk":"Anna Nagar","village":"Choolaimedu","name":"Choolaimedu-1","area_type":"Urban","shop_code":"02DC008NC","search_string":"  anna nagar north chennai "},"bbox":[80.2306,13.0612,80.2306,13.0612]},{"type":"Feature","geometry":{"type":"Point","coordinates":[80.2248,13.0618]},"properties":{"district":"North Chennai","taluk":"Anna Nagar","village":"Choolaimedu","name":"Anna Nedumpathai","area_type":"Urban","shop_code":"02DA019NC","search_string":"  anna nagar north chennai "},"bbox":[80.2248,13.0618,80.2248,13.0618]},{"type":"Feature","geometry":{"type":"Point","coordinates":[80.2184,13.0626]},"properties":{"district":"North Chennai","taluk":"Anna Nagar","village":"Choolaimedu","name":"kalaimagal Street-1","area_type":"Urban","shop_code":"02DA015NC","search_string":"  anna nagar north chennai "},"bbox":[80.2184,13.0626,80.2184,13.0626]},{"type":"Feature","geometry":{"type":"Point","coordinates":[80.2206,13.0629]},"properties":{"district":"North Chennai","taluk":"Anna Nagar","village":"Choolaimedu","name":"kalaimagal Street-2","area_type":"Urban","shop_code":"02DA016NC","search_string":"  anna nagar north chennai "},"bbox":[80.2206,13.0629,80.2206,13.0629]},{"type":"Feature","geometry":{"type":"Point","coordinates":[80.2418,13.0637]},"properties":{"district":"North Chennai","taluk":"Anna Nagar","village":"Nungambakkam","name":"Nungambakkam-5","area_type":"Urban","shop_code":"02DC022NC","search_string":"  anna nagar north chennai "},"bbox":[80.2418,13.0637,80.2418,13.0637]},{"type":"Feature","geometry":{"type":"Point","coordinates":[80.2419,13.0638]},"properties":{"district":"North Chennai","taluk":"Anna Nagar","village":"Nungambakkam","name":"Nungambakkam-3","area_type":"Urban","shop_code":"02DC021NC","search_string":"  anna nagar north chennai "},"bbox":[80.2419,13.0638,80.2419,13.0638]},{"type":"Feature","geometry":{"type":"Point","coordinates":[80.209,13.0639]},"properties":{"district":"North Chennai","taluk":"Anna Nagar","village":"Arumbakkam","name":"Annai Sathiya Nagar","area_type":"Urban","shop_code":"02DA049NC","search_string":"  anna nagar north chennai "},"bbox":[80.209,13.0639,80.209,13.0639]},{"type":"Feature","geometry":{"type":"Point","coordinates":[80.2219,13.0642]},"properties":{"district":"North Chennai","taluk":"Anna Nagar","village":"Choolaimedu","name":"Kamaraj Nagar-4","area_type":"Urban","shop_code":"02DC002NC","search_string":"  anna nagar north chennai "},"bbox":[80.2219,13.0642,80.2219,13.0642]},{"type":"Feature","geometry":{"type":"Point","coordinates":[80.2191,13.0655]},"properties":{"district":"North Chennai","taluk":"Anna Nagar","village":"Choolaimedu","name":"KAMARAJ NAGAR1","area_type":"Urban","shop_code":"02DC001NC","search_string":"  anna nagar north chennai "},"bbox":[80.2191,13.0655,80.2191,13.0655]},{"type":"Feature","geometry":{"type":"Point","coordinates":[80.2127,13.0658]},"properties":{"district":"North Chennai","taluk":"Anna Nagar","village":"Arumbakkam","name":"MMDA Colony","area_type":"Urban","shop_code":"02DA011NC","search_string":"  anna nagar north chennai "},"bbox":[80.2127,13.0658,80.2127,13.0658]},{"type":"Feature","geometry":{"type":"Point","coordinates":[80.2129,13.0658]},"properties":{"district":"North Chennai","taluk":"Anna Nagar","village":"Arumbakkam","name":"MMDA Colony","area_type":"Urban","shop_code":"02DA028NC","search_string":"  anna nagar north chennai "},"bbox":[80.2129,13.0658,80.2129,13.0658]},{"type":"Feature","geometry":{"type":"Point","coordinates":[80.213,13.0659]},"properties":{"district":"North Chennai","taluk":"Anna Nagar","village":"Arumbakkam","name":"MMDA E-Block-2","area_type":"Urban","shop_code":"02DA033NC","search_string":"  anna nagar north chennai "},"bbox":[80.213,13.0659,80.213,13.0659]},{"type":"Feature","geometry":{"type":"Point","coordinates":[80.214,13.0661]},"properties":{"district":"North Chennai","taluk":"Anna Nagar","village":"Arumbakkam","name":"MMDA Colony","area_type":"Urban","shop_code":"02DB030NC","search_string":"  anna nagar north chennai "},"bbox":[80.214,13.0661,80.214,13.0661]},{"type":"Feature","geometry":{"type":"Point","coordinates":[80.2127,13.0662]},"properties":{"district":"North Chennai","taluk":"Anna Nagar","village":"Arumbakkam","name":"MMDA E-Block-1","area_type":"Urban","shop_code":"02DA032NC","search_string":"  anna nagar north chennai "},"bbox":[80.2127,13.0662,80.2127,13.0662]},{"type":"Feature","geometry":{"type":"Point","coordinates":[80.2305,13.0674]},"properties":{"district":"North Chennai","taluk":"Anna Nagar","village":"Choolaimedu","name":"Basha Street","area_type":"Urban","shop_code":"02DA018NC","search_string":"  anna nagar north chennai "},"bbox":[80.2305,13.0674,80.2305,13.0674]},{"type":"Feature","geometry":{"type":"Point","coordinates":[80.2141,13.0708]},"properties":{"district":"North Chennai","taluk":"Anna Nagar","village":"Arumbakkam","name":"Rangarajulu Street","area_type":"Urban","shop_code":"02DA014NC","search_string":"  anna nagar north chennai "},"bbox":[80.2141,13.0708,80.2141,13.0708]},{"type":"Feature","geometry":{"type":"Point","coordinates":[80.2128,13.0715]},"properties":{"district":"North Chennai","taluk":"Anna Nagar","village":"Arumbakkam","name":"SBI Colony","area_type":"Urban","shop_code":"02DB036NC","search_string":"  anna nagar north chennai "},"bbox":[80.2128,13.0715,80.2128,13.0715]},{"type":"Feature","geometry":{"type":"Point","coordinates":[80.213,13.0715]},"properties":{"district":"North Chennai","taluk":"Anna Nagar","village":"Arumbakkam","name":"Asoka Nagar Main-2","area_type":"Urban","shop_code":"02DB051NC","search_string":"  anna nagar north chennai "},"bbox":[80.213,13.0715,80.213,13.0715]},{"type":"Feature","geometry":{"type":"Point","coordinates":[80.2275,13.0717]},"properties":{"district":"North Chennai","taluk":"Anna Nagar","village":"Metha Nagar","name":"Metha Nagar","area_type":"Urban","shop_code":"02DA017NC","search_string":"  anna nagar north chennai "},"bbox":[80.2275,13.0717,80.2275,13.0717]},{"type":"Feature","geometry":{"type":"Point","coordinates":[80.2433,13.0717]},"properties":{"district":"North Chennai","taluk":"Anna Nagar","village":"Chetpet","name":"Mechnicals Road","area_type":"Urban","shop_code":"02DA046NC","search_string":"  anna nagar north chennai "},"bbox":[80.2433,13.0717,80.2433,13.0717]},{"type":"Feature","geometry":{"type":"Point","coordinates":[80.213,13.0717]},"properties":{"district":"North Chennai","taluk":"Anna Nagar","village":"Arumbakkam","name":"Asoka Nagar","area_type":"Urban","shop_code":"02DB035NC","search_string":"  anna nagar north chennai "},"bbox":[80.213,13.0717,80.213,13.0717]},{"type":"Feature","geometry":{"type":"Point","coordinates":[80.2305,13.072]},"properties":{"district":"North Chennai","taluk":"Anna Nagar","village":"Chetpet","name":"Chetpat-5","area_type":"Urban","shop_code":"02DC012NC","search_string":"  anna nagar north chennai "},"bbox":[80.2305,13.072,80.2305,13.072]},{"type":"Feature","geometry":{"type":"Point","coordinates":[80.2311,13.0722]},"properties":{"district":"North Chennai","taluk":"Anna Nagar","village":"Chetpet","name":"Chetpat-6","area_type":"Urban","shop_code":"02DC013NC","search_string":"  anna nagar north chennai "},"bbox":[80.2311,13.0722,80.2311,13.0722]},{"type":"Feature","geometry":{"type":"Point","coordinates":[80.2305,13.0723]},"properties":{"district":"North Chennai","taluk":"Anna Nagar","village":"Chetpet","name":"CHEPET-3","area_type":"Urban","shop_code":"02DC015NC","search_string":"  anna nagar north chennai "},"bbox":[80.2305,13.0723,80.2305,13.0723]},{"type":"Feature","geometry":{"type":"Point","coordinates":[80.2105,13.0723]},"properties":{"district":"North Chennai","taluk":"Anna Nagar","village":"Arumbakkam","name":"Jeganathan Nagar","area_type":"Urban","shop_code":"02DB033NC","search_string":"  anna nagar north chennai "},"bbox":[80.2105,13.0723,80.2105,13.0723]},{"type":"Feature","geometry":{"type":"Point","coordinates":[80.2089,13.0728]},"properties":{"district":"North Chennai","taluk":"Anna Nagar","village":"Arumbakkam","name":"Valluvan Street-2","area_type":"Urban","shop_code":"02DA013NC","search_string":"  anna nagar north chennai "},"bbox":[80.2089,13.0728,80.2089,13.0728]},{"type":"Feature","geometry":{"type":"Point","coordinates":[80.2245,13.0728]},"properties":{"district":"North Chennai","taluk":"Anna Nagar","village":"Aminjikarai","name":"KWCS Road-6","area_type":"Urban","shop_code":"02DG002NC","search_string":"  anna nagar north chennai "},"bbox":[80.2245,13.0728,80.2245,13.0728]},{"type":"Feature","geometry":{"type":"Point","coordinates":[80.2092,13.0728]},"properties":{"district":"North Chennai","taluk":"Anna Nagar","village":"Arumbakkam","name":"Valluvar Street-1","area_type":"Urban","shop_code":"02DA010NC","search_string":"  anna nagar north chennai "},"bbox":[80.2092,13.0728,80.2092,13.0728]},{"type":"Feature","geometry":{"type":"Point","coordinates":[80.2174,13.0729]},"properties":{"district":"North Chennai","taluk":"Anna Nagar","village":"Aminjikarai","name":"Vada Agaram-1","area_type":"Urban","shop_code":"02DC004NC","search_string":"  anna nagar north chennai "},"bbox":[80.2174,13.0729,80.2174,13.0729]},{"type":"Feature","geometry":{"type":"Point","coordinates":[80.2495,13.0735]},"properties":{"district":"North Chennai","taluk":"Anna Nagar","village":"Kilpauk","name":"Shastri Nagar","area_type":"Urban","shop_code":"02DA055NC","search_string":"  anna nagar north chennai "},"bbox":[80.2495,13.0735,80.2495,13.0735]},{"type":"Feature","geometry":{"type":"Point","coordinates":[80.2245,13.0735]},"properties":{"district":"North Chennai","taluk":"Anna Nagar","village":"Aminjikarai","name":"South Kasar Street-2","area_type":"Urban","shop_code":"02DB054NC","search_string":"  anna nagar north chennai "},"bbox":[80.2245,13.0735,80.2245,13.0735]},{"type":"Feature","geometry":{"type":"Point","coordinates":[80.2242,13.0736]},"properties":{"district":"North Chennai","taluk":"Anna Nagar","village":"Aminjikarai","name":"South Kasar Street","area_type":"Urban","shop_code":"02DB034NC","search_string":"  anna nagar north chennai "},"bbox":[80.2242,13.0736,80.2242,13.0736]},{"type":"Feature","geometry":{"type":"Point","coordinates":[80.2174,13.074]},"properties":{"district":"North Chennai","taluk":"Anna Nagar","village":"Aminjikarai","name":"Vada Agaram-2","area_type":"Urban","shop_code":"02DC005NC","search_string":"  anna nagar north chennai "},"bbox":[80.2174,13.074,80.2174,13.074]},{"type":"Feature","geometry":{"type":"Point","coordinates":[80.2175,13.0747]},"properties":{"district":"North Chennai","taluk":"Anna Nagar","village":"Aminjikarai","name":"Vijayeeswari Street","area_type":"Urban","shop_code":"02DB032NC","search_string":"  anna nagar north chennai "},"bbox":[80.2175,13.0747,80.2175,13.0747]},{"type":"Feature","geometry":{"type":"Point","coordinates":[80.2208,13.076]},"properties":{"district":"North Chennai","taluk":"Anna Nagar","village":"Aminjikarai","name":"Ponnuvel Thottam","area_type":"Urban","shop_code":"02DB025NC","search_string":"  anna nagar north chennai "},"bbox":[80.2208,13.076,80.2208,13.076]},{"type":"Feature","geometry":{"type":"Point","coordinates":[80.2459,13.076]},"properties":{"district":"North Chennai","taluk":"Anna Nagar","village":"Purasaiwakkam","name":"Flowers Road-2","area_type":"Urban","shop_code":"02DA045NC","search_string":"  anna nagar north chennai "},"bbox":[80.2459,13.076,80.2459,13.076]},{"type":"Feature","geometry":{"type":"Point","coordinates":[80.2205,13.0761]},"properties":{"district":"North Chennai","taluk":"Anna Nagar","village":"Aminjikarai","name":"Ponnuvel Thottam","area_type":"Urban","shop_code":"02DB050NC","search_string":"  anna nagar north chennai "},"bbox":[80.2205,13.0761,80.2205,13.0761]},{"type":"Feature","geometry":{"type":"Point","coordinates":[80.2263,13.0762]},"properties":{"district":"North Chennai","taluk":"Anna Nagar","village":"Aminjikarai","name":"Sengunthar Street","area_type":"Urban","shop_code":"02DB038NC","search_string":"  anna nagar north chennai "},"bbox":[80.2263,13.0762,80.2263,13.0762]},{"type":"Feature","geometry":{"type":"Point","coordinates":[80.2263,13.0764]},"properties":{"district":"North Chennai","taluk":"Anna Nagar","village":"Aminjikarai","name":"Sengunthar Street","area_type":"Urban","shop_code":"02DB015NC","search_string":"  anna nagar north chennai "},"bbox":[80.2263,13.0764,80.2263,13.0764]},{"type":"Feature","geometry":{"type":"Point","coordinates":[80.2266,13.0766]},"properties":{"district":"North Chennai","taluk":"Anna Nagar","village":"Aminjikarai","name":"Pulla Avenue","area_type":"Urban","shop_code":"02DB016NC","search_string":"  anna nagar north chennai "},"bbox":[80.2266,13.0766,80.2266,13.0766]},{"type":"Feature","geometry":{"type":"Point","coordinates":[80.2328,13.0788]},"properties":{"district":"North Chennai","taluk":"Anna Nagar","village":"Kilpauk","name":"KWCS Road-3","area_type":"Urban","shop_code":"02DG001NC","search_string":"  anna nagar north chennai "},"bbox":[80.2328,13.0788,80.2328,13.0788]},{"type":"Feature","geometry":{"type":"Point","coordinates":[80.2208,13.08]},"properties":{"district":"North Chennai","taluk":"Anna Nagar","village":"Aminjikarai","name":"Barathipuram","area_type":"Urban","shop_code":"02DA047NC","search_string":"  anna nagar north chennai "},"bbox":[80.2208,13.08,80.2208,13.08]},{"type":"Feature","geometry":{"type":"Point","coordinates":[80.2294,13.0802]},"properties":{"district":"North Chennai","taluk":"Anna Nagar","village":"Kilpauk","name":"KWCS Road-5","area_type":"Urban","shop_code":"02DG006NC","search_string":"  anna nagar north chennai "},"bbox":[80.2294,13.0802,80.2294,13.0802]},{"type":"Feature","geometry":{"type":"Point","coordinates":[80.222,13.0805]},"properties":{"district":"North Chennai","taluk":"Anna Nagar","village":"Kilpauk","name":"KWCS Road-4","area_type":"Urban","shop_code":"02DG003NC","search_string":"  anna nagar north chennai "},"bbox":[80.222,13.0805,80.222,13.0805]},{"type":"Feature","geometry":{"type":"Point","coordinates":[80.251,13.0806]},"properties":{"district":"North Chennai","taluk":"Anna Nagar","village":"Purasaiwakkam","name":"Gangadeeswarar Street-2","area_type":"Urban","shop_code":"02DB049NC","search_string":"  anna nagar north chennai "},"bbox":[80.251,13.0806,80.251,13.0806]},{"type":"Feature","geometry":{"type":"Point","coordinates":[80.222,13.0807]},"properties":{"district":"North Chennai","taluk":"Anna Nagar","village":"Kilpauk","name":"KWCS Road-7","area_type":"Urban","shop_code":"02DG004NC","search_string":"  anna nagar north chennai "},"bbox":[80.222,13.0807,80.222,13.0807]},{"type":"Feature","geometry":{"type":"Point","coordinates":[80.222,13.0807]},"properties":{"district":"North Chennai","taluk":"Anna Nagar","village":"Kilpauk","name":"KWCS Road-8","area_type":"Urban","shop_code":"02DG005NC","search_string":"  anna nagar north chennai "},"bbox":[80.222,13.0807,80.222,13.0807]},{"type":"Feature","geometry":{"type":"Point","coordinates":[80.2404,13.0808]},"properties":{"district":"North Chennai","taluk":"Anna Nagar","village":"Kilpauk","name":"Landons Road","area_type":"Urban","shop_code":"02DB028NC","search_string":"  anna nagar north chennai "},"bbox":[80.2404,13.0808,80.2404,13.0808]},{"type":"Feature","geometry":{"type":"Point","coordinates":[80.2225,13.0808]},"properties":{"district":"North Chennai","taluk":"Anna Nagar","village":"Shenoy Nagar","name":"Shenoy Nagar-2","area_type":"Urban","shop_code":"02DB019NC","search_string":"  anna nagar north chennai "},"bbox":[80.2225,13.0808,80.2225,13.0808]},{"type":"Feature","geometry":{"type":"Point","coordinates":[80.2227,13.0808]},"properties":{"district":"North Chennai","taluk":"Anna Nagar","village":"Aminjikarai","name":"Shenoy Nagar-1","area_type":"Urban","shop_code":"02DB018NC","search_string":"  anna nagar north chennai "},"bbox":[80.2227,13.0808,80.2227,13.0808]},{"type":"Feature","geometry":{"type":"Point","coordinates":[80.2227,13.0809]},"properties":{"district":"North Chennai","taluk":"Anna Nagar","village":"Aminjikarai","name":"Pirivari Salai","area_type":"Urban","shop_code":"02DA035NC","search_string":"  anna nagar north chennai "},"bbox":[80.2227,13.0809,80.2227,13.0809]},{"type":"Feature","geometry":{"type":"Point","coordinates":[80.2499,13.0809]},"properties":{"district":"North Chennai","taluk":"Anna Nagar","village":"Purasaiwakkam","name":"Flowers Road-1","area_type":"Urban","shop_code":"02DA025NC","search_string":"  anna nagar north chennai "},"bbox":[80.2499,13.0809,80.2499,13.0809]},{"type":"Feature","geometry":{"type":"Point","coordinates":[80.2226,13.081]},"properties":{"district":"North Chennai","taluk":"Anna Nagar","village":"Shenoy Nagar","name":"Shenoy Nagar-4","area_type":"Urban","shop_code":"02DB021NC","search_string":"  anna nagar north chennai "},"bbox":[80.2226,13.081,80.2226,13.081]},{"type":"Feature","geometry":{"type":"Point","coordinates":[80.2226,13.081]},"properties":{"district":"North Chennai","taluk":"Anna Nagar","village":"Shenoy Nagar","name":"Shenoy Nagar-3","area_type":"Urban","shop_code":"02DB020NC","search_string":"  anna nagar north chennai "},"bbox":[80.2226,13.081,80.2226,13.081]},{"type":"Feature","geometry":{"type":"Point","coordinates":[80.2509,13.0811]},"properties":{"district":"North Chennai","taluk":"Anna Nagar","village":"Purasaiwakkam","name":"Gangadeeswarar Street-1","area_type":"Urban","shop_code":"02DB048NC","search_string":"  anna nagar north chennai "},"bbox":[80.2509,13.0811,80.2509,13.0811]},{"type":"Feature","geometry":{"type":"Point","coordinates":[80.2318,13.0817]},"properties":{"district":"North Chennai","taluk":"Anna Nagar","village":"Kilpauk","name":"KWCS Road-1","area_type":"Urban","shop_code":"02DG008NC","search_string":"  anna nagar north chennai "},"bbox":[80.2318,13.0817,80.2318,13.0817]},{"type":"Feature","geometry":{"type":"Point","coordinates":[80.2319,13.0819]},