{"type":"FeatureCollection","features":[{"type":"Feature","geometry":{"type":"Point","coordinates":[77.4928,9.7143]},"properties":{"district":"Theni","taluk":"Andipatti (Tk)","village":"Myaladumparai","name":"Keelapoosanuthu","area_type":"Rural","shop_code":"23CB021PN","search_string":"  andipatti (tk) theni "},"bbox":[77.4928,9.7143,77.4928,9.7143]},{"type":"Feature","geometry":{"type":"Point","coordinates":[77.516,9.726]},"properties":{"district":"Theni","taluk":"Andipatti (Tk)","village":"Megamalai","name":"Kamarajapuram","area_type":"Rural","shop_code":"23CB008PN","search_string":"  andipatti (tk) theni "},"bbox":[77.516,9.726,77.516,9.726]},{"type":"Feature","geometry":{"type":"Point","coordinates":[77.516,9.726]},"properties":{"district":"Theni","taluk":"Andipatti (Tk)","village":"Megamalai","name":"Thummakkundu","area_type":"Rural","shop_code":"23CB009PY","search_string":"  andipatti (tk) theni "},"bbox":[77.516,9.726,77.516,9.726]},{"type":"Feature","geometry":{"type":"Point","coordinates":[77.516,9.726]},"properties":{"district":"Theni","taluk":"Andipatti (Tk)","village":"Megamalai","name":"Vandiyur","area_type":"Rural","shop_code":"23CB009P1","search_string":"  andipatti (tk) theni "},"bbox":[77.516,9.726,77.516,9.726]},{"type":"Feature","geometry":{"type":"Point","coordinates":[77.519,9.726]},"properties":{"district":"Theni","taluk":"Andipatti (Tk)","village":"Myaladumparai","name":"Ambethkar Colony","area_type":"Rural","shop_code":"23CB020PN","search_string":"  andipatti (tk) theni "},"bbox":[77.519,9.726,77.519,9.726]},{"type":"Feature","geometry":{"type":"Point","coordinates":[77.5097,9.7267]},"properties":{"district":"Theni","taluk":"Andipatti (Tk)","village":"Myaladumparai","name":"Singarajapuram","area_type":"Rural","shop_code":"23CB010PN","search_string":"  andipatti (tk) theni "},"bbox":[77.5097,9.7267,77.5097,9.7267]},{"type":"Feature","geometry":{"type":"Point","coordinates":[77.5182,9.727]},"properties":{"district":"Theni","taluk":"Andipatti (Tk)","village":"Myaladumparai","name":"Varusanadu","area_type":"Rural","shop_code":"23CB004PN","search_string":"  andipatti (tk) theni "},"bbox":[77.5182,9.727,77.5182,9.727]},{"type":"Feature","geometry":{"type":"Point","coordinates":[77.5186,9.7364]},"properties":{"district":"Theni","taluk":"Andipatti (Tk)","village":"Myaladumparai","name":"Dharmarajapuram","area_type":"Rural","shop_code":"23CB005PN","search_string":"  andipatti (tk) theni "},"bbox":[77.5186,9.7364,77.5186,9.7364]},{"type":"Feature","geometry":{"type":"Point","coordinates":[77.4882,9.7542]},"properties":{"district":"Theni","taluk":"Andipatti (Tk)","village":"Myaladumparai","name":"Ponnanpatugai","area_type":"Rural","shop_code":"23CP022P2","search_string":"  andipatti (tk) theni "},"bbox":[77.4882,9.7542,77.4882,9.7542]},{"type":"Feature","geometry":{"type":"Point","coordinates":[77.468,9.7543]},"properties":{"district":"Theni","taluk":"Andipatti (Tk)","village":"Myaladumparai","name":"Mannuthu","area_type":"Rural","shop_code":"23CP022P1","search_string":"  andipatti (tk) theni "},"bbox":[77.468,9.7543,77.468,9.7543]},{"type":"Feature","geometry":{"type":"Point","coordinates":[77.4681,9.7543]},"properties":{"district":"Theni","taluk":"Andipatti (Tk)","village":"Myaladumparai","name":"Kumananthozhu","area_type":"Rural","shop_code":"23CP022PY","search_string":"  andipatti (tk) theni "},"bbox":[77.4681,9.7543,77.4681,9.7543]},{"type":"Feature","geometry":{"type":"Point","coordinates":[77.469,9.7547]},"properties":{"district":"Theni","taluk":"Andipatti (Tk)","village":"Myaladumparai","name":"Kumananthozhu(W)","area_type":"Rural","shop_code":"23CO003PN","search_string":"  andipatti (tk) theni "},"bbox":[77.469,9.7547,77.469,9.7547]},{"type":"Feature","geometry":{"type":"Point","coordinates":[77.5499,9.7548]},"properties":{"district":"Theni","taluk":"Andipatti (Tk)","village":"Myaladumparai","name":"Kovilparai","area_type":"Rural","shop_code":"23CP025P3","search_string":"  andipatti (tk) theni "},"bbox":[77.5499,9.7548,77.5499,9.7548]},{"type":"Feature","geometry":{"type":"Point","coordinates":[77.5296,9.7559]},"properties":{"district":"Theni","taluk":"Andipatti (Tk)","village":"Myaladumparai","name":"Vaikkalparai","area_type":"Rural","shop_code":"23CP025P1","search_string":"  andipatti (tk) theni "},"bbox":[77.5296,9.7559,77.5296,9.7559]},{"type":"Feature","geometry":{"type":"Point","coordinates":[77.5353,9.7585]},"properties":{"district":"Theni","taluk":"Andipatti (Tk)","village":"Myaladumparai","name":"Thangammalpuram","area_type":"Rural","shop_code":"23CP025PY","search_string":"  andipatti (tk) theni "},"bbox":[77.5353,9.7585,77.5353,9.7585]},{"type":"Feature","geometry":{"type":"Point","coordinates":[77.5247,9.7648]},"properties":{"district":"Theni","taluk":"Andipatti (Tk)","village":"Myaladumparai","name":"Senkulam","area_type":"Rural","shop_code":"23CP025P2","search_string":"  andipatti (tk) theni "},"bbox":[77.5247,9.7648,77.5247,9.7648]},{"type":"Feature","geometry":{"type":"Point","coordinates":[77.5315,9.7762]},"properties":{"district":"Theni","taluk":"Andipatti (Tk)","village":"Myaladumparai","name":"Nriyoothu","area_type":"Rural","shop_code":"23CP025P4","search_string":"  andipatti (tk) theni "},"bbox":[77.5315,9.7762,77.5315,9.7762]},{"type":"Feature","geometry":{"type":"Point","coordinates":[77.5833,9.7789]},"properties":{"district":"Theni","taluk":"Andipatti (Tk)","village":"Kadamalaikundu","name":"Uppudurai","area_type":"Rural","shop_code":"23CP023P2","search_string":"  andipatti (tk) theni "},"bbox":[77.5833,9.7789,77.5833,9.7789]},{"type":"Feature","geometry":{"type":"Point","coordinates":[77.5147,9.7861]},"properties":{"district":"Theni","taluk":"Andipatti (Tk)","village":"Myaladumparai","name":"Myladumparai-1","area_type":"Rural","shop_code":"23CP021PN","search_string":"  andipatti (tk) theni "},"bbox":[77.5147,9.7861,77.5147,9.7861]},{"type":"Feature","geometry":{"type":"Point","coordinates":[77.5546,9.7866]},"properties":{"district":"Theni","taluk":"Andipatti (Tk)","village":"Myaladumparai","name":"Alanthalir","area_type":"Rural","shop_code":"23CP024P2","search_string":"  andipatti (tk) theni "},"bbox":[77.5546,9.7866,77.5546,9.7866]},{"type":"Feature","geometry":{"type":"Point","coordinates":[77.5188,9.7873]},"properties":{"district":"Theni","taluk":"Andipatti (Tk)","village":"Megamalai","name":"Valiparai","area_type":"Rural","shop_code":"23CB019PN","search_string":"  andipatti (tk) theni "},"bbox":[77.5188,9.7873,77.5188,9.7873]},{"type":"Feature","geometry":{"type":"Point","coordinates":[77.5142,9.7878]},"properties":{"district":"Theni","taluk":"Andipatti (Tk)","village":"Myaladumparai","name":"Myladumparai - 2","area_type":"Rural","shop_code":"23CP035PN","search_string":"  andipatti (tk) theni "},"bbox":[77.5142,9.7878,77.5142,9.7878]},{"type":"Feature","geometry":{"type":"Point","coordinates":[77.5659,9.7928]},"properties":{"district":"Theni","taluk":"Andipatti (Tk)","village":"Kadamalaikundu","name":"Solaithevanpatti","area_type":"Rural","shop_code":"23CP023PY","search_string":"  andipatti (tk) theni "},"bbox":[77.5659,9.7928,77.5659,9.7928]},{"type":"Feature","geometry":{"type":"Point","coordinates":[77.5555,9.7928]},"properties":{"district":"Theni","taluk":"Andipatti (Tk)","village":"Kadamalaikundu","name":"Moolakadai","area_type":"Rural","shop_code":"23CP024PY","search_string":"  andipatti (tk) theni "},"bbox":[77.5555,9.7928,77.5555,9.7928]},{"type":"Feature","geometry":{"type":"Point","coordinates":[77.5821,9.7965]},"properties":{"district":"Theni","taluk":"Andipatti (Tk)","village":"Kadamalaikundu","name":"Muthalamparai","area_type":"Rural","shop_code":"23CP023P1","search_string":"  andipatti (tk) theni "},"bbox":[77.5821,9.7965,77.5821,9.7965]},{"type":"Feature","geometry":{"type":"Point","coordinates":[77.5011,9.8076]},"properties":{"district":"Theni","taluk":"Andipatti (Tk)","village":"Kadamalaikundu","name":"Kadamalaikundu-2","area_type":"Rural","shop_code":"23CB018PN","search_string":"  andipatti (tk) theni "},"bbox":[77.5011,9.8076,77.5011,9.8076]},{"type":"Feature","geometry":{"type":"Point","coordinates":[77.5621,9.8094]},"properties":{"district":"Theni","taluk":"Andipatti (Tk)","village":"Kadamalaikundu","name":"Siraparai","area_type":"Rural","shop_code":"23CP024P1","search_string":"  andipatti (tk) theni "},"bbox":[77.5621,9.8094,77.5621,9.8094]},{"type":"Feature","geometry":{"type":"Point","coordinates":[77.5043,9.8101]},"properties":{"district":"Theni","taluk":"Andipatti (Tk)","village":"Kadamalaikundu","name":"Paloothu","area_type":"Rural","shop_code":"23CB002PN","search_string":"  andipatti (tk) theni "},"bbox":[77.5043,9.8101,77.5043,9.8101]},{"type":"Feature","geometry":{"type":"Point","coordinates":[77.5054,9.8101]},"properties":{"district":"Theni","taluk":"Andipatti (Tk)","village":"Megamalai","name":"Kombaithozhu","area_type":"Rural","shop_code":"23CB007PY","search_string":"  andipatti (tk) theni "},"bbox":[77.5054,9.8101,77.5054,9.8101]},{"type":"Feature","geometry":{"type":"Point","coordinates":[77.5042,9.8103]},"properties":{"district":"Theni","taluk":"Andipatti (Tk)","village":"Kadamalaikundu","name":"Kadamalaikundu 4","area_type":"Rural","shop_code":"23CB028PN","search_string":"  andipatti (tk) theni "},"bbox":[77.5042,9.8103,77.5042,9.8103]},{"type":"Feature","geometry":{"type":"Point","coordinates":[77.5144,9.8104]},"properties":{"district":"Theni","taluk":"Andipatti (Tk)","village":"Megamalai","name":"Koraiyuthu","area_type":"Rural","shop_code":"23CB007P1","search_string":"  andipatti (tk) theni "},"bbox":[77.5144,9.8104,77.5144,9.8104]},{"type":"Feature","geometry":{"type":"Point","coordinates":[77.5033,9.8105]},"properties":{"district":"Theni","taluk":"Andipatti (Tk)","village":"Myaladumparai","name":"Murukkodai","area_type":"Rural","shop_code":"23CB006PN","search_string":"  andipatti (tk) theni "},"bbox":[77.5033,9.8105,77.5033,9.8105]},{"type":"Feature","geometry":{"type":"Point","coordinates":[77.5035,9.811]},"properties":{"district":"Theni","taluk":"Andipatti (Tk)","village":"Megamalai","name":"Arasaradi","area_type":"Rural","shop_code":"23CB007P2","search_string":"  andipatti (tk) theni "},"bbox":[77.5035,9.811,77.5035,9.811]},{"type":"Feature","geometry":{"type":"Point","coordinates":[77.5037,9.8135]},"properties":{"district":"Theni","taluk":"Andipatti (Tk)","village":"Kadamalaikundu","name":"Kadamalaikundu","area_type":"Rural","shop_code":"23CB001PN","search_string":"  andipatti (tk) theni "},"bbox":[77.5037,9.8135,77.5037,9.8135]},{"type":"Feature","geometry":{"type":"Point","coordinates":[77.4979,9.8142]},"properties":{"district":"Theni","taluk":"Andipatti (Tk)","village":"Kadamalaikundu","name":"Kadamalaikundu-3","area_type":"Rural","shop_code":"23CB022PY","search_string":"  andipatti (tk) theni "},"bbox":[77.4979,9.8142,77.4979,9.8142]},{"type":"Feature","geometry":{"type":"Point","coordinates":[77.5001,9.8236]},"properties":{"district":"Theni","taluk":"Andipatti (Tk)","village":"Kadamalaikundu","name":"Devarajnagar","area_type":"Rural","shop_code":"23CB022P1","search_string":"  andipatti (tk) theni "},"bbox":[77.5001,9.8236,77.5001,9.8236]},{"type":"Feature","geometry":{"type":"Point","coordinates":[77.4979,9.8741]},"properties":{"district":"Theni","taluk":"Andipatti (Tk)","village":"Vallalnathi","name":"Duraisamypuram","area_type":"Rural","shop_code":"23CB003PY","search_string":"  andipatti (tk) theni "},"bbox":[77.4979,9.8741,77.4979,9.8741]},{"type":"Feature","geometry":{"type":"Point","coordinates":[77.5115,9.8894]},"properties":{"district":"Theni","taluk":"Andipatti (Tk)","village":"Vallalnathi","name":"Rajendranagar","area_type":"Rural","shop_code":"23CB003P1","search_string":"  andipatti (tk) theni "},"bbox":[77.5115,9.8894,77.5115,9.8894]},{"type":"Feature","geometry":{"type":"Point","coordinates":[77.5989,9.9014]},"properties":{"district":"Theni","taluk":"Andipatti (Tk)","village":"Theppampatti","name":"Theppampatti","area_type":"Rural","shop_code":"23CP015PN","search_string":"  andipatti (tk) theni "},"bbox":[77.5989,9.9014,77.5989,9.9014]},{"type":"Feature","geometry":{"type":"Point","coordinates":[77.6041,9.903]},"properties":{"district":"Theni","taluk":"Andipatti (Tk)","village":"Theppampatti","name":"Rajakkalpatti","area_type":"Rural","shop_code":"23CP036PN","search_string":"  andipatti (tk) theni "},"bbox":[77.6041,9.903,77.6041,9.903]},{"type":"Feature","geometry":{"type":"Point","coordinates":[77.6131,9.9051]},"properties":{"district":"Theni","taluk":"Andipatti (Tk)","village":"Balakombai","name":"Balakombai","area_type":"Rural","shop_code":"23CP014PY","search_string":"  andipatti (tk) theni "},"bbox":[77.6131,9.9051,77.6131,9.9051]},{"type":"Feature","geometry":{"type":"Point","coordinates":[77.5647,9.9108]},"properties":{"district":"Theni","taluk":"Andipatti (Tk)","village":"Vallalnathi","name":"Ganesapuram","area_type":"Rural","shop_code":"23CB015P1","search_string":"  andipatti (tk) theni "},"bbox":[77.5647,9.9108,77.5647,9.9108]},{"type":"Feature","geometry":{"type":"Point","coordinates":[77.6084,9.9116]},"properties":{"district":"Theni","taluk":"Andipatti (Tk)","village":"Ramakrishnapuram","name":"Ramakrishnapuram","area_type":"Rural","shop_code":"23CP017PN","search_string":"  andipatti (tk) theni "},"bbox":[77.6084,9.9116,77.6084,9.9116]},{"type":"Feature","geometry":{"type":"Point","coordinates":[77.6228,9.9121]},"properties":{"district":"Theni","taluk":"Andipatti (Tk)","village":"Balakombai","name":"Rayavelur","area_type":"Rural","shop_code":"23CP014P1","search_string":"  andipatti (tk) theni "},"bbox":[77.6228,9.9121,77.6228,9.9121]},{"type":"Feature","geometry":{"type":"Point","coordinates":[77.522,9.9194]},"properties":{"district":"Theni","taluk":"Andipatti (Tk)","village":"Vallalnathi","name":"Gandamanur-3","area_type":"Rural","shop_code":"23CB017PN","search_string":"  andipatti (tk) theni "},"bbox":[77.522,9.9194,77.522,9.9194]},{"type":"Feature","geometry":{"type":"Point","coordinates":[77.519,9.9212]},"properties":{"district":"Theni","taluk":"Andipatti (Tk)","village":"Vallalnathi","name":"Gandamanur-1","area_type":"Rural","shop_code":"23CB013PN","search_string":"  andipatti (tk) theni "},"bbox":[77.519,9.9212,77.519,9.9212]},{"type":"Feature","geometry":{"type":"Point","coordinates":[77.5231,9.9215]},"properties":{"district":"Theni","taluk":"Andipatti (Tk)","village":"Vallalnathi","name":"Gandamanur-2","area_type":"Rural","shop_code":"23CB014PN","search_string":"  andipatti (tk) theni "},"bbox":[77.5231,9.9215,77.5231,9.9215]},{"type":"Feature","geometry":{"type":"Point","coordinates":[77.5379,9.9222]},"properties":{"district":"Theni","taluk":"Andipatti (Tk)","village":"Vallalnathi","name":"Ettapparajapuram","area_type":"Rural","shop_code":"23CB015PY","search_string":"  andipatti (tk) theni "},"bbox":[77.5379,9.9222,77.5379,9.9222]},{"type":"Feature","geometry":{"type":"Point","coordinates":[77.6111,9.9233]},"properties":{"district":"Theni","taluk":"Andipatti (Tk)","village":"Palaiyakottai","name":"Palaiyakottai","area_type":"Rural","shop_code":"23CP016PN","search_string":"  andipatti (tk) theni "},"bbox":[77.6111,9.9233,77.6111,9.9233]},{"type":"Feature","geometry":{"type":"Point","coordinates":[77.5776,9.925]},"properties":{"district":"Theni","taluk":"Andipatti (Tk)","village":"Sitharpatti","name":"Sitharpatti","area_type":"Rural","shop_code":"23CP013PN","search_string":"  andipatti (tk) theni "},"bbox":[77.5776,9.925,77.5776,9.925]},{"type":"Feature","geometry":{"type":"Point","coordinates":[77.6037,9.925]},"properties":{"district":"Theni","taluk":"Andipatti (Tk)","village":"Rajadhani","name":"Jakkammalpatti(W)","area_type":"Rural","shop_code":"23CO004PN","search_string":"  andipatti (tk) theni "},"bbox":[77.6037,9.925,77.6037,9.925]},{"type":"Feature","geometry":{"type":"Point","coordinates":[77.5877,9.9255]},"properties":{"district":"Theni","taluk":"Andipatti (Tk)","village":"Rajadhani","name":"Manjinayakkanpatti","area_type":"Rural","shop_code":"23CP011P1","search_string":"  andipatti (tk) theni "},"bbox":[77.5877,9.9255,77.5877,9.9255]},{"type":"Feature","geometry":{"type":"Point","coordinates":[77.5789,9.9296]},"properties":{"district":"Theni","taluk":"Andipatti (Tk)","village":"Mottanuthu","name":"Ammapatti","area_type":"Rural","shop_code":"23CP012P1","search_string":"  andipatti (tk) theni "},"bbox":[77.5789,9.9296,77.5789,9.9296]},{"type":"Feature","geometry":{"type":"Point","coordinates":[77.592,9.9327]},"properties":{"district":"Theni","taluk":"Andipatti (Tk)","village":"Rajadhani","name":"Rajadhani","area_type":"Rural","shop_code":"23CP011PY","search_string":"  andipatti (tk) theni "},"bbox":[77.592,9.9327,77.592,9.9327]},{"type":"Feature","geometry":{"type":"Point","coordinates":[77.586,9.934]},"properties":{"district":"Theni","taluk":"Andipatti (Tk)","village":"Mottanuthu","name":"K.Kamatchipuram","area_type":"Rural","shop_code":"23CP012PY","search_string":"  andipatti (tk) theni "},"bbox":[77.586,9.934,77.586,9.934]},{"type":"Feature","geometry":{"type":"Point","coordinates":[77.5639,9.9378]},"properties":{"district":"Theni","taluk":"Andipatti (Tk)","village":"G Usilampatti","name":"G.Usilampatti","area_type":"Rural","shop_code":"23CP019PN","search_string":"  andipatti (tk) theni "},"bbox":[77.5639,9.9378,77.5639,9.9378]},{"type":"Feature","geometry":{"type":"Point","coordinates":[77.5302,9.9406]},"properties":{"district":"Theni","taluk":"Andipatti (Tk)","village":"Vallalnathi","name":"Ponnammalpatty","area_type":"Rural","shop_code":"23CB015P2","search_string":"  andipatti (tk) theni "},"bbox":[77.5302,9.9406,77.5302,9.9406]},{"type":"Feature","geometry":{"type":"Point","coordinates":[77.5373,9.9415]},"properties":{"district":"Theni","taluk":"Andipatti (Tk)","village":"Thekkampatty","name":"P.Meenakshipuram","area_type":"Rural","shop_code":"23CB016PY","search_string":"  andipatti (tk) theni "},"bbox":[77.5373,9.9415,77.5373,9.9415]},{"type":"Feature","geometry":{"type":"Point","coordinates":[77.6006,9.9418]},"properties":{"district":"Theni","taluk":"Andipatti (Tk)","village":"Rajadhani","name":"Kathirnarasingapuram","area_type":"Rural","shop_code":"23CP010PN","search_string":"  andipatti (tk) theni "},"bbox":[77.6006,9.9418,77.6006,9.9418]},{"type":"Feature","geometry":{"type":"Point","coordinates":[77.5407,9.9435]},"properties":{"district":"Theni","taluk":"Andipatti (Tk)","village":"Thekkampatty","name":"Thekkampatty","area_type":"Rural","shop_code":"23CB016P2","search_string":"  andipatti (tk) theni "},"bbox":[77.5407,9.9435,77.5407,9.9435]},{"type":"Feature","geometry":{"type":"Point","coordinates":[77.5598,9.9455]},"properties":{"district":"Theni","taluk":"Andipatti (Tk)","village":"G Usilampatti","name":"Ramalingapuram","area_type":"Rural","shop_code":"23CP018PN","search_string":"  andipatti (tk) theni "},"bbox":[77.5598,9.9455,77.5598,9.9455]},{"type":"Feature","geometry":{"type":"Point","coordinates":[77.6,9.9514]},"properties":{"district":"Theni","taluk":"Andipatti (Tk)","village":"Kothapatti","name":"Kothapatti","area_type":"Rural","shop_code":"23CC009PN","search_string":"  andipatti (tk) theni "},"bbox":[77.6,9.9514,77.6,9.9514]},{"type":"Feature","geometry":{"type":"Point","coordinates":[77.6113,9.9552]},"properties":{"district":"Theni","taluk":"Andipatti (Tk)","village":"Kothapatti","name":"Varadharajapuram","area_type":"Rural","shop_code":"23CC013PN","search_string":"  andipatti (tk) theni "},"bbox":[77.6113,9.9552,77.6113,9.9552]},{"type":"Feature","geometry":{"type":"Point","coordinates":[77.5625,9.9577]},"properties":{"district":"Theni","taluk":"Andipatti (Tk)","village":"Marikkundu","name":"Erathimmakkalpatti","area_type":"Rural","shop_code":"23CP031PN","search_string":"  andipatti (tk) theni "},"bbox":[77.5625,9.9577,77.5625,9.9577]},{"type":"Feature","geometry":{"type":"Point","coordinates":[77.6464,9.9609]},"properties":{"district":"Theni","taluk":"Andipatti (Tk)","village":"Andipatti","name":"Sithayagoundanpatty","area_type":"Rural","shop_code":"23CC007PY","search_string":"  andipatti (tk) theni "},"bbox":[77.6464,9.9609,77.6464,9.9609]},{"type":"Feature","geometry":{"type":"Point","coordinates":[77.6553,9.9614]},"properties":{"district":"Theni","taluk":"Andipatti (Tk)","village":"Andipatti","name":"Ethakovil","area_type":"Rural","shop_code":"23CC007P1","search_string":"  andipatti (tk) theni "},"bbox":[77.6553,9.9614,77.6553,9.9614]},{"type":"Feature","geometry":{"type":"Point","coordinates":[77.5702,9.9627]},"properties":{"district":"Theni","taluk":"Andipatti (Tk)","village":"Mottanuthu","name":"Okkaraipatti(W)","area_type":"Rural","shop_code":"23CO005PN","search_string":"  andipatti (tk) theni "},"bbox":[77.5702,9.9627,77.5702,9.9627]},{"type":"Feature","geometry":{"type":"Point","coordinates":[77.6241,9.9672]},"properties":{"district":"Theni","taluk":"Andipatti (Tk)","village":"Andipatti","name":"Maravapatti","area_type":"Rural","shop_code":"23CC004PN","search_string":"  andipatti (tk) theni "},"bbox":[77.6241,9.9672,77.6241,9.9672]},{"type":"Feature","geometry":{"type":"Point","coordinates":[77.6323,9.9677]},"properties":{"district":"Theni","taluk":"Andipatti (Tk)","village":"Andipatti","name":"Bodithasanpatti","area_type":"Rural","shop_code":"23CC006PN","search_string":"  andipatti (tk) theni "},"bbox":[77.6323,9.9677,77.6323,9.9677]},{"type":"Feature","geometry":{"type":"Point","coordinates":[77.5935,9.968]},"properties":{"district":"Theni","taluk":"Andipatti (Tk)","village":"Mottanuthu","name":"Koppaiampatti","area_type":"Rural","shop_code":"23CP009PN","search_string":"  andipatti (tk) theni "},"bbox":[77.5935,9.968,77.5935,9.968]},{"type":"Feature","geometry":{"type":"Point","coordinates":[77.6005,9.9682]},"properties":{"district":"Theni","taluk":"Andipatti (Tk)","village":"Thimmarasanaickanur","name":"Kanniappapillaipatti","area_type":"Rural","shop_code":"23CP008PN","search_string":"  andipatti (tk) theni "},"bbox":[77.6005,9.9682,77.6005,9.9682]},{"type":"Feature","geometry":{"type":"Point","coordinates":[77.5452,9.9694]},"properties":{"district":"Theni","taluk":"Andipatti (Tk)","village":"Marikkundu","name":"Marikkundu","area_type":"Rural","shop_code":"23CP020P1","search_string":"  andipatti (tk) theni "},"bbox":[77.5452,9.9694,77.5452,9.9694]},{"type":"Feature","geometry":{"type":"Point","coordinates":[77.5565,9.9715]},"properties":{"district":"Theni","taluk":"Andipatti (Tk)","village":"Marikkundu","name":"M.Subbulapuram","area_type":"Rural","shop_code":"23CP020PY","search_string":"  andipatti (tk) theni "},"bbox":[77.5565,9.9715,77.5565,9.9715]},{"type":"Feature","geometry":{"type":"Point","coordinates":[77.5565,9.9716]},"properties":{"district":"Theni","taluk":"Andipatti (Tk)","village":"Thekkampatty","name":"Muthurengapuram","area_type":"Rural","shop_code":"23CB016P1","search_string":"  andipatti (tk) theni "},"bbox":[77.5565,9.9716,77.5565,9.9716]},{"type":"Feature","geometry":{"type":"Point","coordinates":[77.6249,9.9718]},"properties":{"district":"Theni","taluk":"Andipatti (Tk)","village":"Andipatti","name":"Maniyakaranpatty","area_type":"Rural","shop_code":"23CC020PN","search_string":"  andipatti (tk) theni "},"bbox":[77.6249,9.9718,77.6249,9.9718]},{"type":"Feature","geometry":{"type":"Point","coordinates":[77.6427,9.9734]},"properties":{"district":"Theni","taluk":"Andipatti (Tk)","village":"Andipatti","name":"Mekkelarpatti","area_type":"Rural","shop_code":"23CC019PN","search_string":"  andipatti (tk) theni "},"bbox":[77.6427,9.9734,77.6427,9.9734]},{"type":"Feature","geometry":{"type":"Point","coordinates":[77.5555,9.9778]},"properties":{"district":"Theni","taluk":"Andipatti (Tk)","village":"Shanmugasundarapuram","name":"Pirathukaranpatty","area_type":"Rural","shop_code":"23CC014P1","search_string":"  andipatti (tk) theni "},"bbox":[77.5555,9.9778,77.5555,9.9778]},{"type":"Feature","geometry":{"type":"Point","coordinates":[77.6096,9.9782]},"properties":{"district":"Theni","taluk":"Andipatti (Tk)","village":"Thimmarasanaickanur","name":"Mullaiampatti-1","area_type":"Rural","shop_code":"23CP006PN","search_string":"  andipatti (tk) theni "},"bbox":[77.6096,9.9782,77.6096,9.9782]},{"type":"Feature","geometry":{"type":"Point","coordinates":[77.5751,9.9788]},"properties":{"district":"Theni","taluk":"Andipatti (Tk)","village":"Mottanuthu","name":"Rosanapatti","area_type":"Rural","shop_code":"23CP007PN","search_string":"  andipatti (tk) theni "},"bbox":[77.5751,9.9788,77.5751,9.9788]},{"type":"Feature","geometry":{"type":"Point","coordinates":[77.6088,9.9818]},"properties":{"district":"Theni","taluk":"Andipatti (Tk)","village":"Thimmarasanaickanur","name":"Pitchampatti","area_type":"Rural","shop_code":"23CP037PN","search_string":"  andipatti (tk) theni "},"bbox":[77.6088,9.9818,77.6088,9.9818]},{"type":"Feature","geometry":{"type":"Point","coordinates":[77.5122,9.9839]},"properties":{"district":"Theni","taluk":"Andipatti (Tk)","village":"Kunnur","name":"Ammatchiapuram","area_type":"Rural","shop_code":"23CB012PN","search_string":"  andipatti (tk) theni "},"bbox":[77.5122,9.9839,77.5122,9.9839]},{"type":"Feature","geometry":{"type":"Point","coordinates":[77.5608,9.9866]},"properties":{"district":"Theni","taluk":"Andipatti (Tk)","village":"Shanmugasundarapuram","name":"Balasamuthiram","area_type":"Rural","shop_code":"23CC014PY","search_string":"  andipatti (tk) theni "},"bbox":[77.5608,9.9866,77.5608,9.9866]},{"type":"Feature","geometry":{"type":"Point","coordinates":[77.6004,9.9907]},"properties":{"district":"Theni","taluk":"Andipatti (Tk)","village":"Mottanuthu","name":"Samathuvapuram","area_type":"Rural","shop_code":"23CP027PN","search_string":"  andipatti (tk) theni "},"bbox":[77.6004,9.9907,77.6004,9.9907]},{"type":"Feature","geometry":{"type":"Point","coordinates":[77.5847,9.9944]},"properties":{"district":"Theni","taluk":"Andipatti (Tk)","village":"Shanmugasundarapuram","name":"Karisalpatti","area_type":"Rural","shop_code":"23CP004P2","search_string":"  andipatti (tk) theni "},"bbox":[77.5847,9.9944,77.5847,9.9944]},{"type":"Feature","geometry":{"type":"Point","coordinates":[77.6198,9.9977]},"properties":{"district":"Theni","taluk":"Andipatti (Tk)","village":"Andipatti Jakkampatti","name":"Pappammalpuram-2","area_type":"Urban","shop_code":"23CC016PN","search_string":"  andipatti (tk) theni "},"bbox":[77.6198,9.9977,77.6198,9.9977]},{"type":"Feature","geometry":{"type":"Point","coordinates":[77.6212,9.9987]},"properties":{"district":"Theni","taluk":"Andipatti (Tk)","village":"Andipatti Jakkampatti","name":"Kondamanaickanpatti","area_type":"Urban","shop_code":"23CC003PY","search_string":"  andipatti (tk) theni "},"bbox":[77.6212,9.9987,77.6212,9.9987]},{"type":"Feature","geometry":{"type":"Point","coordinates":[77.5383,9.9988]},"properties":{"district":"Theni","taluk":"Andipatti (Tk)","village":"Shanmugasundarapuram","name":"Thirumalapuram","area_type":"Rural","shop_code":"23CB027PN","search_string":"  andipatti (tk) theni "},"bbox":[77.5383,9.9988,77.5383,9.9988]},{"type":"Feature","geometry":{"type":"Point","coordinates":[77.6216,9.9994]},"properties":{"district":"Theni","taluk":"Andipatti (Tk)","village":"Andipatti Jakkampatti","name":"Andipatti-1","area_type":"Urban","shop_code":"23CC001PN","search_string":"  andipatti (tk) theni "},"bbox":[77.6216,9.9994,77.6216,9.9994]},{"type":"Feature","geometry":{"type":"Point","coordinates":[77.6191,10.0001]},"properties":{"district":"Theni","taluk":"Andipatti (Tk)","village":"Andipatti Jakkampatti","name":"Pappammalpuram","area_type":"Urban","shop_code":"23CC002PN","search_string":"  andipatti (tk) theni "},"bbox":[77.6191,10.0001,77.6191,10.0001]},{"type":"Feature","geometry":{"type":"Point","coordinates":[77.6763,10.0009]},"properties":{"district":"Theni","taluk":"Andipatti (Tk)","village":"Thimmarasanaickanur","name":"Thimmarasanaickanur(W)","area_type":"Rural","shop_code":"23CO002PN","search_string":"  andipatti (tk) theni "},"bbox":[77.6763,10.0009,77.6763,10.0009]},{"type":"Feature","geometry":{"type":"Point","coordinates":[77.608,10.0011]},"properties":{"district":"Theni","taluk":"Andipatti (Tk)","village":"Andipatti Jakkampatti","name":"Andipatti-2","area_type":"Urban","shop_code":"23CC015PN","search_string":"  andipatti (tk) theni "},"bbox":[77.608,10.0011,77.608,10.0011]},{"type":"Feature","geometry":{"type":"Point","coordinates":[77.6144,10.0014]},"properties":{"district":"Theni","taluk":"Andipatti (Tk)","village":"Andipatti Jakkampatti","name":"Jakkampatti-1","area_type":"Urban","shop_code":"23CE001PN","search_string":"  andipatti (tk) theni "},"bbox":[77.6144,10.0014,77.6144,10.0014]},{"type":"Feature","geometry":{"type":"Point","coordinates":[77.6147,10.0023]},"properties":{"district":"Theni","taluk":"Andipatti (Tk)","village":"Andipatti Jakkampatti","name":"Jakkampatti-2","area_type":"Urban","shop_code":"23CE002PN","search_string":"  andipatti (tk) theni "},"bbox":[77.6147,10.0023,77.6147,10.0023]},{"type":"Feature","geometry":{"type":"Point","coordinates":[77.6147,10.0024]},"properties":{"district":"Theni","taluk":"Andipatti (Tk)","village":"Andipatti Jakkampatti","name":"Jakkampattu Shop 3","area_type":"Urban","shop_code":"23CE004PN","search_string":"  andipatti (tk) theni "},"bbox":[77.6147,10.0024,77.6147,10.0024]},{"type":"Feature","geometry":{"type":"Point","coordinates":[77.6337,10.0034]},"properties":{"district":"Theni","taluk":"Andipatti (Tk)","village":"Andipatti Jakkampatti","name":"Annaisathiya Nager","area_type":"Urban","shop_code":"23CC003P1","search_string":"  andipatti (tk) theni "},"bbox":[77.6337,10.0034,77.6337,10.0034]},{"type":"Feature","geometry":{"type":"Point","coordinates":[77.6687,10.0048]},"properties":{"district":"Theni","taluk":"Andipatti (Tk)","village":"Thimmarasanaickanur","name":"T.Bomminaickanpatti","area_type":"Rural","shop_code":"23CC008PY","search_string":"  andipatti (tk) theni "},"bbox":[77.6687,10.0048,77.6687,10.0048]},{"type":"Feature","geometry":{"type":"Point","coordinates":[77.583,10.0054]},"properties":{"district":"Theni","taluk":"Andipatti (Tk)","village":"Shanmugasundarapuram","name":"S.Renganathapuram","area_type":"Rural","shop_code":"23CP004P1","search_string":"  andipatti (tk) theni "},"bbox":[77.583,10.0054,77.583,10.0054]},{"type":"Feature","geometry":{"type":"Point","coordinates":[77.5184,10.006]},"properties":{"district":"Theni","taluk":"Andipatti (Tk)","village":"Kunnur","name":"Kunnur","area_type":"Rural","shop_code":"23CB011PY","search_string":"  andipatti (tk) theni "},"bbox":[77.5184,10.006,77.5184,10.006]},{"type":"Feature","geometry":{"type":"Point","coordinates":[77.6448,10.0063]},"properties":{"district":"Theni","taluk":"Andipatti (Tk)","village":"Thimmarasanaickanur","name":"Rajagopalanpatti","area_type":"Rural","shop_code":"23CP005PY","search_string":"  andipatti (tk) theni "},"bbox":[77.6448,10.0063,77.6448,10.0063]},{"type":"Feature","geometry":{"type":"Point","coordinates":[77.5985,10.0063]},"properties":{"district":"Theni","taluk":"Andipatti (Tk)","village":"Shanmugasundarapuram","name":"Shanmugasundarapuram","area_type":"Rural","shop_code":"23CP004PY","search_string":"  andipatti (tk) theni "},"bbox":[77.5985,10.0063,77.5985,10.0063]},{"type":"Feature","geometry":{"type":"Point","coordinates":[77.6723,10.0065]},"properties":{"district":"Theni","taluk":"Andipatti (Tk)","village":"Thimmarasanaickanur","name":"Mallaiyapuram","area_type":"Rural","shop_code":"23CC008P1","search_string":"  andipatti (tk) theni "},"bbox":[77.6723,10.0065,77.6723,10.0065]},{"type":"Feature","geometry":{"type":"Point","coordinates":[77.5482,10.009]},"properties":{"district":"Theni","taluk":"Andipatti (Tk)","village":"Shanmugasundarapuram","name":"Annai Indra Nagar","area_type":"Rural","shop_code":"23CE003PN","search_string":"  andipatti (tk) theni "},"bbox":[77.5482,10.009,77.5482,10.009]},{"type":"Feature","geometry":{"type":"Point","coordinates":[77.5338,10.0092]},"properties":{"district":"Theni","taluk":"Andipatti (Tk)","village":"Kunnur","name":"Arapadidevanpatti","area_type":"Rural","shop_code":"23CB011P1","search_string":"  andipatti (tk) theni "},"bbox":[77.5338,10.0092,77.5338,10.0092]},{"type":"Feature","geometry":{"type":"Point","coordinates":[77.5681,10.0099]},"properties":{"district":"Theni","taluk":"Andipatti (Tk)","village":"Kovilpatti","name":"Muthanampatti","area_type":"Rural","shop_code":"23CP033PN","search_string":"  andipatti (tk) theni "},"bbox":[77.5681,10.0099,77.5681,10.0099]},{"type":"Feature","geometry":{"type":"Point","coordinates":[77.6358,10.0116]},"properties":{"district":"Theni","taluk":"Andipatti (Tk)","village":"Thimmarasanaickanur","name":"T.Silukuvarpatti","area_type":"Rural","shop_code":"23CP005P1","search_string":"  andipatti (tk) theni "},"bbox":[77.6358,10.0116,77.6358,10.0116]},{"type":"Feature","geometry":{"type":"Point","coordinates":[77.6577,10.0146]},"properties":{"district":"Theni","taluk":"Andipatti (Tk)","village":"Thimmarasanaickanur","name":"T.Subbulapuram-3","area_type":"Rural","shop_code":"23CC012PN","search_string":"  andipatti (tk) theni "},"bbox":[77.6577,10.0146,77.6577,10.0146]},{"type":"Feature","geometry":{"type":"Point","coordinates":[77.6575,10.0176]},"properties":{"district":"Theni","taluk":"Andipatti (Tk)","village":"Thimmarasanaickanur","name":"T.Subbulapuram-1","area_type":"Rural","shop_code":"23CC010PN","search_string":"  andipatti (tk) theni "},"bbox":[77.6575,10.0176,77.6575,10.0176]},{"type":"Feature","geometry":{"type":"Point","coordinates":[77.6413,10.0185]},"properties":{"district":"Theni","taluk":"Andipatti (Tk)","village":"Thimmarasanaickanur","name":"T.Sedapatti","area_type":"Rural","shop_code":"23CP005P2","search_string":"  andipatti (tk) theni "},"bbox":[77.6413,10.0185,77.6413,10.0185]},{"type":"Feature","geometry":{"type":"Point","coordinates":[77.6048,10.0193]},"properties":{"district":"Theni","taluk":"Andipatti (Tk)","village":"Kovilpatti","name":"Jambuliputhur","area_type":"Rural","shop_code":"23CP002PY","search_string":"  andipatti (tk) theni "},"bbox":[77.6048,10.0193,77.6048,10.0193]},{"type":"Feature","geometry":{"type":"Point","coordinates":[77.6234,10.0206]},"properties":{"district":"Theni","taluk":"Andipatti (Tk)","village":"Thimmarasanaickanur","name":"T.V.Renganathapuram","area_type":"Rural","shop_code":"23CC005PN","search_string":"  andipatti (tk) theni "},"bbox":[77.6234,10.0206,77.6234,10.0206]},{"type":"Feature","geometry":{"type":"Point","coordinates":[77.5872,10.0213]},"properties":{"district":"Theni","taluk":"Andipatti (Tk)","village":"Kovilpatti","name":"Rengasamudram","area_type":"Rural","shop_code":"23CP001PN","search_string":"  andipatti (tk) theni "},"bbox":[77.5872,10.0213,77.5872,10.0213]},{"type":"Feature","geometry":{"type":"Point","coordinates":[77.568,10.0261]},"properties":{"district":"Theni","taluk":"Andipatti (Tk)","village":"Kovilpatti","name":"Karadupatti","area_type":"Rural","shop_code":"23CP003P1","search_string":"  andipatti (tk) theni "},"bbox":[77.568,10.0261,77.568,10.0261]},{"type":"Feature","geometry":{"type":"Point","coordinates":[77.579,10.0288]},"properties":{"district":"Theni","taluk":"Andipatti (Tk)","village":"Kovilpatti","name":"Kovilpatti","area_type":"Rural","shop_code":"23CP003PY","search_string":"  andipatti (tk) theni "},"bbox":[77.579,10.0288,77.579,10.0288]},{"type":"Feature","geometry":{"type":"Point","coordinates":[77.6009,10.0379]},"properties":{"district":"Theni","taluk":"Andipatti (Tk)","village":"Kovilpatti","name":"Srirengapuram","area_type":"Rural","shop_code":"23CP002P1","search_string":"  andipatti (tk) theni "},"bbox":[77.6009,10.0379,77.6009,10.0379]},{"type":"Feature","geometry":{"type":"Point","coordinates":[77.6687,10.0647]},"properties":{"district":"Theni","taluk":"Andipatti (Tk)","village":"Pullimancombai","name":"P.Dharmathupatti","area_type":"Rural","shop_code":"23CC011PY","search_string":"  andipatti (tk) theni "},"bbox":[77.6687,10.0647,77.6687,10.0647]},{"type":"Feature","geometry":{"type":"Point","coordinates":[77.6828,10.0772]},"properties":{"district":"Theni","taluk":"Andipatti (Tk)","village":"Pullimancombai","name":"Kottodaipatty","area_type":"Rural","shop_code":"23CC011P1","search_string":"  andipatti (tk) theni "},"bbox":[77.6828,10.0772,77.6828,10.0772]},{"type":"Feature","geometry":{"type":"Point","coordinates":[77.6993,10.0832]},"properties":{"district":"Theni","taluk":"Andipatti (Tk)","village":"Pullimancombai","name":"P.Puthur","area_type":"Rural","shop_code":"23CC011P2","search_string":"  andipatti (tk) theni "},"bbox":[77.6993,10.0832,77.6993,10.0832]},{"type":"Feature","geometry":{"type":"Point","coordinates":[77.3382,9.7584]},"properties":{"district":"Theni","taluk":"Bodinayakannur (Tk)","village":"Silamalai","name":"B.Mallingapuram","area_type":"Rural","shop_code":"23EP020P1","search_string":"  bodinayakannur (tk) theni "},"bbox":[77.3382,9.7584,77.3382,9.7584]},{"type":"Feature","geometry":{"type":"Point","coordinates":[77.3893,9.9111]},"properties":{"district":"Theni","taluk":"Bodinayakannur (Tk)","village":"Koolayanur","name":"Koolayanur","area_type":"Rural","shop_code":"23EP015PN","search_string":"  bodinayakannur (tk) theni "},"bbox":[77.3893,9.9111,77.3893,9.9111]},{"type":"Feature","geometry":{"type":"Point","coordinates":[77.3417,9.9211]},"properties":{"district":"Theni","taluk":"Bodinayakannur (Tk)","village":"Rasingapuram","name":"B. Nagalapuram","area_type":"Rural","shop_code":"23EP018PN","search_string":"  bodinayakannur (tk) theni "},"bbox":[77.3417,9.9211,77.3417,9.9211]},{"type":"Feature","geometry":{"type":"Point","coordinates":[77.3997,9.9335]},"properties":{"district":"Theni","taluk":"Bodinayakannur (Tk)","village":"Palarpatty","name":"Palarpatti","area_type":"Rural","shop_code":"23EP029PN","search_string":"  bodinayakannur (tk) theni "},"bbox":[77.3997,9.9335,77.3997,9.9335]},{"type":"Feature","geometry":{"type":"Point","coordinates":[77.3334,9.9336]},"properties":{"district":"Theni","taluk":"Bodinayakannur (Tk)","village":"Rasingapuram","name":"Samatuvapuram","area_type":"Rural","shop_code":"23EP017P1","search_string":"  bodinayakannur (tk) theni "},"bbox":[77.3334,9.9336,77.3334,9.9336]},{"type":"Feature","geometry":{"type":"Point","coordinates":[77.3356,9.9425]},"properties":{"district":"Theni","taluk":"Bodinayakannur (Tk)","village":"Rasingapuram","name":"Rasingapuram-2","area_type":"Rural","shop_code":"23EP017PY","search_string":"  bodinayakannur (tk) theni "},"bbox":[77.3356,9.9425,77.3356,9.9425]},{"type":"Feature","geometry":{"type":"Point","coordinates":[77.3356,9.9426]},"properties":{"district":"Theni","taluk":"Bodinayakannur (Tk)","village":"Rasingapuram","name":"Rasinga Puram Shop-1","area_type":"Rural","shop_code":"23EP016PN","search_string":"  bodinayakannur (tk) theni "},"bbox":[77.3356,9.9426,77.3356,9.9426]},{"type":"Feature","geometry":{"type":"Point","coordinates":[77.3733,9.9565]},"properties":{"district":"Theni","taluk":"Bodinayakannur (Tk)","village":"Silamarathupatty","name":"Perumal Gowndan Patti Mahalir","area_type":"Rural","shop_code":"23EP030PN","search_string":"  bodinayakannur (tk) theni "},"bbox":[77.3733,9.9565,77.3733,9.9565]},{"type":"Feature","geometry":{"type":"Point","coordinates":[77.4089,9.9578]},"properties":{"district":"Theni","taluk":"Bodinayakannur (Tk)","village":"Uppukottai","name":"Uppukottai-1","area_type":"Rural","shop_code":"23EP014PN","search_string":"  bodinayakannur (tk) theni "},"bbox":[77.4089,9.9578,77.4089,9.9578]},{"type":"Feature","geometry":{"type":"Point","coordinates":[77.3913,9.9593]},"properties":{"district":"Theni","taluk":"Bodinayakannur (Tk)","village":"Domphuchery","name":"Dombucherry","area_type":"Rural","shop_code":"23EP009PN","search_string":"  bodinayakannur (tk) theni "},"bbox":[77.3913,9.9593,77.3913,9.9593]},{"type":"Feature","geometry":{"type":"Point","coordinates":[77.3323,9.9597]},"properties":{"district":"Theni","taluk":"Bodinayakannur (Tk)","village":"Silamalai","name":"Maniyam Patti Mahalir","area_type":"Rural","shop_code":"23EP036PN","search_string":"  bodinayakannur (tk) theni "},"bbox":[77.3323,9.9597,77.3323,9.9597]},{"type":"Feature","geometry":{"type":"Point","coordinates":[77.3381,9.9606]},"properties":{"district":"Theni","taluk":"Bodinayakannur (Tk)","village":"Silamalai","name":"Silamalai-3","area_type":"Rural","shop_code":"23EP045PN","search_string":"  bodinayakannur (tk) theni "},"bbox":[77.3381,9.9606,77.3381,9.9606]},{"type":"Feature","geometry":{"type":"Point","coordinates":[77.3382,9.9607]},"properties":{"district":"Theni","taluk":"Bodinayakannur (Tk)","village":"Silamalai","name":"Silamalai-1","area_type":"Rural","shop_code":"23EP019PN","search_string":"  bodinayakannur (tk) theni "},"bbox":[77.3382,9.9607,77.3382,9.9607]},{"type":"Feature","geometry":{"type":"Point","coordinates":[77.3385,9.9608]},"properties":{"district":"Theni","taluk":"Bodinayakannur (Tk)","village":"Silamalai","name":"Silamalai - 2","area_type":"Rural","shop_code":"23EP020PY","search_string":"  bodinayakannur (tk) theni "},"bbox":[77.3385,9.9608,77.3385,9.9608]},{"type":"Feature","geometry":{"type":"Point","coordinates":[77.4107,9.9609]},"properties":{"district":"Theni","taluk":"Bodinayakannur (Tk)","village":"Uppukottai","name":"Uppukottai-2","area_type":"Rural","shop_code":"23EP028PY","search_string":"  bodinayakannur (tk) theni "},"bbox":[77.4107,9.9609,77.4107,9.9609]},{"type":"Feature","geometry":{"type":"Point","coordinates":[77.3548,9.9723]},"properties":{"district":"Theni","taluk":"Bodinayakannur (Tk)","village":"Silamarathupatty","name":"Sillamarathupatti-1","area_type":"Rural","shop_code":"23EP021PN","search_string":"  bodinayakannur (tk) theni "},"bbox":[77.3548,9.9723,77.3548,9.9723]},{"type":"Feature","geometry":{"type":"Point","coordinates":[77.4155,9.9728]},"properties":{"district":"Theni","taluk":"Bodinayakannur (Tk)","village":"Domphuchery","name":"Maanickapuram","area_type":"Rural","shop_code":"23EP011P1","search_string":"  bodinayakannur (tk) theni "},"bbox":[77.4155,9.9728,77.4155,9.9728]},{"type":"Feature","geometry":{"type":"Point","coordinates":[77.3528,9.973]},"properties":{"district":"Theni","taluk":"Bodinayakannur (Tk)","village":"Silamarathupatty","name":"Sillamarathupatti-2","area_type":"Rural","shop_code":"23EP022PN","search_string":"  bodinayakannur (tk) theni "},"bbox":[77.3528,9.973,77.3528,9.973]},{"type":"Feature","geometry":{"type":"Point","coordinates":[77.3909,9.9732]},"properties":{"district":"Theni","taluk":"Bodinayakannur (Tk)","village":"Domphuchery","name":"Bathrakalipuram","area_type":"Rural","shop_code":"23EP010PN","search_string":"  bodinayakannur (tk) theni "},"bbox":[77.3909,9.9732,77.3909,9.9732]},{"type":"Feature","geometry":{"type":"Point","coordinates":[77.4265,9.9734]},"properties":{"district":"Theni","taluk":"Bodinayakannur (Tk)","village":"Kodangipatty","name":"Sadayalpatty","area_type":"Rural","shop_code":"23EP013P1","search_string":"  bodinayakannur (tk) theni "},"bbox":[77.4265,9.9734,77.4265,9.9734]},{"type":"Feature","geometry":{"type":"Point","coordinates":[77.4379,9.9748]},"properties":{"district":"Theni","taluk":"Bodinayakannur (Tk)","village":"Uppukottai","name":"Bodenthirapuram","area_type":"Rural","shop_code":"23EP028P1","search_string":"  bodinayakannur (tk) theni "},"bbox":[77.4379,9.9748,77.4379,9.9748]},{"type":"Feature","geometry":{"type":"Point","coordinates":[77.407,9.9749]},"properties":{"district":"Theni","taluk":"Bodinayakannur (Tk)","village":"Domphuchery","name":"Kamarajapuram","area_type":"Rural","shop_code":"23EP011PY","search_string":"  bodinayakannur (tk) theni "},"bbox":[77.407,9.9749,77.407,9.9749]},{"type":"Feature","geometry":{"type":"Point","coordinates":[77.3643,9.9752]},"properties":{"district":"Theni","taluk":"Bodinayakannur (Tk)","village":"Silamarathupatty","name":"B.Ammapatti","area_type":"Rural","shop_code":"23EP023PY","search_string":"  bodinayakannur (tk) theni "},"bbox":[77.3643,9.9752,77.3643,9.9752]},{"type":"Feature","geometry":{"type":"Point","coordinates":[77.3607,9.9812]},"properties":{"district":"Theni","taluk":"Bodinayakannur (Tk)","village":"Silamarathupatty","name":"Sundarajapuram","area_type":"Rural","shop_code":"23EP023P1","search_string":"  bodinayakannur (tk) theni "},"bbox":[77.3607,9.9812,77.3607,9.9812]},{"type":"Feature","geometry":{"type":"Point","coordinates":[77.3605,9.9865]},"properties":{"district":"Theni","taluk":"Bodinayakannur (Tk)","village":"Melachockanathapuram","name":"Kellachockanathapuram","area_type":"Urban","shop_code":"23EP001P1","search_string":"  bodinayakannur (tk) theni "},"bbox":[77.3605,9.9865,77.3605,9.9865]},{"type":"Feature","geometry":{"type":"Point","coordinates":[77.3509,9.9882]},"properties":{"district":"Theni","taluk":"Bodinayakannur (Tk)","village":"Melachockanathapuram","name":"B.Darumathupatti","area_type":"Urban","shop_code":"23EP025PN","search_string":"  bodinayakannur (tk) theni "},"bbox":[77.3509,9.9882,77.3509,9.9882]},{"type":"Feature","geometry":{"type":"Point","coordinates":[77.3688,9.9898]},"properties":{"district":"Theni","taluk":"Bodinayakannur (Tk)","village":"Meenatchipuram","name":"B.Meenakshipuram-1","area_type":"Urban","shop_code":"23EP003PN","search_string":"  bodinayakannur (tk) theni "},"bbox":[77.3688,9.9898,77.3688,9.9898]},{"type":"Feature","geometry":{"type":"Point","coordinates":[77.3715,9.9906]},"properties":{"district":"Theni","taluk":"Bodinayakannur (Tk)","village":"Meenatchipuram","name":"B.Meenachipuram-3","area_type":"Urban","shop_code":"23EP026PN","search_string":"  bodinayakannur (tk) theni "},"bbox":[77.3715,9.9906,77.3715,9.9906]},{"type":"Feature","geometry":{"type":"Point","coordinates":[77.3719,9.9916]},"properties":{"district":"Theni","taluk":"Bodinayakannur (Tk)","village":"Meenatchipuram","name":"B.Meenatchipuram -2","area_type":"Urban","shop_code":"23EP004PY","search_string":"  bodinayakannur (tk) theni "},"bbox":[77.3719,9.9916,77.3719,9.9916]},{"type":"Feature","geometry":{"type":"Point","coordinates":[77.432,9.9919]},"properties":{"district":"Theni","taluk":"Bodinayakannur (Tk)","village":"Kodangipatty","name":"Kodangipatty-2","area_type":"Rural","shop_code":"23EP013PY","search_string":"  bodinayakannur (tk) theni "},"bbox":[77.432,9.9919,77.432,9.9919]},{"type":"Feature","geometry":{"type":"Point","coordinates":[77.4363,9.9935]},"properties":{"district":"Theni","taluk":"Bodinayakannur (Tk)","village":"Kodangipatty","name":"Kodangi Patti-1","area_type":"Rural","shop_code":"23EP012PN","search_string":"  bodinayakannur (tk) theni "},"bbox":[77.4363,9.9935,77.4363,9.9935]},{"type":"Feature","geometry":{"type":"Point","coordinates":[77.3855,9.9939]},"properties":{"district":"Theni","taluk":"Bodinayakannur (Tk)","village":"Meenatchipuram","name":"Pottalkalam","area_type":"Urban","shop_code":"23EP004P1","search_string":"  bodinayakannur (tk) theni "},"bbox":[77.3855,9.9939,77.3855,9.9939]},{"type":"Feature","geometry":{"type":"Point","coordinates":[77.3583,9.995]},"properties":{"district":"Theni","taluk":"Bodinayakannur (Tk)","village":"Melachockanathapuram","name":"Melachockanathapuram-1","area_type":"Urban","shop_code":"23EP001PY","search_string":"  bodinayakannur (tk) theni "},"bbox":[77.3583,9.995,77.3583,9.995]},{"type":"Feature","geometry":{"type":"Point","coordinates":[77.3582,9.9951]},"properties":{"district":"Theni","taluk":"Bodinayakannur (Tk)","village":"Melachockanathapuram","name":"Melachokkanathapuram-3","area_type":"Urban","shop_code":"23EP024PN","search_string":"  bodinayakannur (tk) theni "},"bbox":[77.3582,9.9951,77.3582,9.9951]},{"type":"Feature","geometry":{"type":"Point","coordinates":[77.3467,9.9991]},"properties":{"district":"Theni","taluk":"Bodinayakannur (Tk)","village":"Melachockanathapuram","name":"B.Renganathapuram","area_type":"Urban","shop_code":"23EP002PY","search_string":"  bodinayakannur (tk) theni "},"bbox":[77.3467,9.9991,77.3467,9.9991]},{"type":"Feature","geometry":{"type":"Point","coordinates":[77.4313,9.9995]},"properties":{"district":"Theni","taluk":"Bodinayakannur (Tk)","village":"Boothipuram","name":"Valayapatti","area_type":"Rural","shop_code":"23EP007P1","search_string":"  bodinayakannur (tk) theni "},"bbox":[77.4313,9.9995,77.4313,9.9995]},{"type":"Feature","geometry":{"type":"Point","coordinates":[77.3371,9.9999]},"properties":{"district":"Theni","taluk":"Bodinayakannur (Tk)","village":"Melachockanathapuram","name":"Karattupatty","area_type":"Urban","shop_code":"23EP002P1","search_string":"  bodinayakannur (tk) theni "},"bbox":[77.3371,9.9999,77.3371,9.9999]},{"type":"Feature","geometry":{"type":"Point","coordinates":[77.4469,10.0014]},"properties":{"district":"Theni","taluk":"Bodinayakannur (Tk)","village":"Boothipuram","name":"Boothipuram-2","area_type":"Urban","shop_code":"23EP044PN","search_string":"  bodinayakannur (tk) theni "},"bbox":[77.4469,10.0014,77.4469,10.0014]},{"type":"Feature","geometry":{"type":"Point","coordinates":[77.4436,10.0014]},"properties":{"district":"Theni","taluk":"Bodinayakannur (Tk)","village":"Boothipuram","name":"Manchinayakanpatti","area_type":"Rural","shop_code":"23EP007PY","search_string":"  bodinayakannur (tk) theni "},"bbox":[77.4436,10.0014,77.4436,10.0014]},{"type":"Feature","geometry":{"type":"Point","coordinates":[77.447,10.0015]},"properties":{"district":"Theni","taluk":"Bodinayakannur (Tk)","village":"Boothipuram","name":"Boothipuram -1","area_type":"Urban","shop_code":"23EP005PN","search_string":"  bodinayakannur (tk) theni "},"bbox":[77.447,10.0015,77.447,10.0015]},{"type":"Feature","geometry":{"type":"Point","coordinates":[77.3553,10.0016]},"properties":{"district":"Theni","taluk":"Bodinayakannur (Tk)","village":"Melachockanathapuram","name":"Vinobaji Colony","area_type":"Urban","shop_code":"23EP048PN","search_string":"  bodinayakannur (tk) theni "},"bbox":[77.3553,10.0016,77.3553,10.0016]},{"type":"Feature","geometry":{"type":"Point","coordinates":[77.3574,10.0024]},"properties":{"district":"Theni","taluk":"Bodinayakannur (Tk)","village":"Bodinayakanur","name":"Bodi Shop-9","area_type":"Urban","shop_code":"23EC009PN","search_string":"  bodinayakannur (tk) theni "},"bbox":[77.3574,10.0024,77.3574,10.0024]},{"type":"Feature","geometry":{"type":"Point","coordinates":[77.3525,10.0032]},"properties":{"district":"Theni","taluk":"Bodinayakannur (Tk)","village":"Bodinayakanur","name":"Bodi Shop - 26","area_type":"Urban","shop_code":"23EC026PN","search_string":"  bodinayakannur (tk) theni "},"bbox":[77.3525,10.0032,77.3525,10.0032]},{"type":"Feature","geometry":{"type":"Point","coordinates":[77.3871,10.0034]},"properties":{"district":"Theni","taluk":"Bodinayakannur (Tk)","village":"Meenatchipuram","name":"Durai Raja Puram Colony mahalir","area_type":"Urban","shop_code":"23EP031PN","search_string":"  bodinayakannur (tk) theni "},"bbox":[77.3871,10.0034,77.3871,10.0034]},{"type":"Feature","geometry":{"type":"Point","coordinates":[77.3548,10.0062]},"properties":{"district":"Theni","taluk":"Bodinayakannur (Tk)","village":"Bodinayakanur","name":"Bodi Shop-7","area_type":"Urban","shop_code":"23EC007PN","search_string":"  bodinayakannur (tk) theni "},"bbox":[77.3548,10.0062,77.3548,10.0062]},{"type":"Feature","geometry":{"type":"Point","coordinates":[77.3547,10.0064]},"properties":{"district":"Theni","taluk":"Bodinayakannur (Tk)","village":"Bodinayakanur","name":"Bodi Shop-8","area_type":"Urban","shop_code":"23EC008PN","search_string":"  bodinayakannur (tk) theni "},"bbox":[77.3547,10.0064,77.3547,10.0064]},{"type":"Feature","geometry":{"type":"Point","coordinates":[77.3486,10.0077]},"properties":{"district":"Theni","taluk":"Bodinayakannur (Tk)","village":"Bodinayakanur","name":"Bodi Shop No 24","area_type":"Urban","shop_code":"23EC024PN","search_string":"  bodinayakannur (tk) theni "},"bbox":[77.3486,10.0077,77.3486,10.0077]},{"type":"Feature","geometry":{"type":"Point","coordinates":[77.3553,10.009]},"properties":{"district":"Theni","taluk":"Bodinayakannur (Tk)","village":"Bodinayakanur","name":"Bodi Shop-5","area_type":"Urban","shop_code":"23EC005PN","search_string":"  bodinayakannur (tk) theni "},"bbox":[77.3553,10.009,77.3553,10.009]},{"type":"Feature","geometry":{"type":"Point","coordinates":[77.3552,10.009]},"properties":{"district":"Theni","taluk":"Bodinayakannur (Tk)","village":"Bodinayakanur","name":"Bodi Shop -4","area_type":"Urban","shop_code":"23EC004PN","search_string":"  bodinayakannur (tk) theni "},"bbox":[77.3552,10.009,77.3552,10.009]},{"type":"Feature","geometry":{"type":"Point","coordinates":[77.3553,10.0091]},"properties":{"district":"Theni","taluk":"Bodinayakannur (Tk)","village":"Bodinayakanur","name":"Bodi Shop 22","area_type":"Urban","shop_code":"23EC022PN","search_string":"  bodinayakannur (tk) theni "},"bbox":[77.3553,10.0091,77.3553,10.0091]},{"type":"Feature","geometry":{"type":"Point","coordinates":[77.3501,10.0095]},"properties":{"district":"Theni","taluk":"Bodinayakannur (Tk)","village":"Domphuchery","name":"Visuvasapuram","area_type":"Rural","shop_code":"23EP027PN","search_string":"  bodinayakannur (tk) theni "},"bbox":[77.3501,10.0095,77.3501,10.0095]},{"type":"Feature","geometry":{"type":"Point","coordinates":[77.3526,10.0098]},"properties":{"district":"Theni","taluk":"Bodinayakannur (Tk)","village":"Bodinayakanur","name":"Bodi Shop-6","area_type":"Urban","shop_code":"23EC006PN","search_string":"  bodinayakannur (tk) theni "},"bbox":[77.3526,10.0098,77.3526,10.0098]},{"type":"Feature","geometry":{"type":"Point","coordinates":[77.3497,10.0106]},"properties":{"district":"Theni","taluk":"Bodinayakannur (Tk)","village":"Bodinayakanur","name":"Bodi Shop-2","area_type":"Urban","shop_code":"23EC002PN","search_string":"  bodinayakannur (tk) theni "},"bbox":[77.3497,10.0106,77.3497,10.0106]},{"type":"Feature","geometry":{"type":"Point","coordinates":[77.351,10.011]},"properties":{"district":"Theni","taluk":"Bodinayakannur (Tk)","village":"Bodinayakanur","name":"Bodi Shop-10","area_type":"Urban","shop_code":"23EC010PN","search_string":"  bodinayakannur (tk) theni "},"bbox":[77.351,10.011,77.351,10.011]},{"type":"Feature","geometry":{"type":"Point","coordinates":[77.3508,10.0111]},"properties":{"district":"Theni","taluk":"Bodinayakannur (Tk)","village":"Bodinayakanur","name":"Bodi Shop-11","area_type":"Urban","shop_code":"23EC011PN","search_string":"  bodinayakannur (tk) theni "},"bbox":[77.3508,10.0111,77.3508,10.0111]},{"type":"Feature","geometry":{"type":"Point","coordinates":[77.4492,10.0112]},"properties":{"district":"Theni","taluk":"Bodinayakannur (Tk)","village":"Boothipuram","name":"Valaiyathupatti","area_type":"Urban","shop_code":"23EP006PN","search_string":"  bodinayakannur (tk) theni "},"bbox":[77.4492,10.0112,77.4492,10.0112]},{"type":"Feature","geometry":{"type":"Point","coordinates":[77.3515,10.0122]},"properties":{"district":"Theni","taluk":"Bodinayakannur (Tk)","village":"Bodinayakanur","name":"Bodi Shop -14","area_type":"Urban","shop_code":"23EC014PN","search_string":"  bodinayakannur (tk) theni "},"bbox":[77.3515,10.0122,77.3515,10.0122]},{"type":"Feature","geometry":{"type":"Point","coordinates":[77.3529,10.0122]},"properties":{"district":"Theni","taluk":"Bodinayakannur (Tk)","village":"Bodinayakanur","name":"Bodi Shop -3","area_type":"Urban","shop_code":"23EC003PN","search_string":"  bodinayakannur (tk) theni "},"bbox":[77.3529,10.0122,77.3529,10.0122]},{"type":"Feature","geometry":{"type":"Point","coordinates":[77.3513,10.0124]},"properties":{"district":"Theni","taluk":"Bodinayakannur (Tk)","village":"Bodinayakanur","name":"Bodi Shop-12","area_type":"Urban","shop_code":"23EC012PN","search_string":"  bodinayakannur (tk) theni "},"bbox":[77.3513,10.0124,77.3513,10.0124]},{"type":"Feature","geometry":{"type":"Point","coordinates":[77.346,10.0125]},"properties":{"district":"Theni","taluk":"Bodinayakannur (Tk)","village":"Bodinayakanur","name":"Bodi Shop -13","area_type":"Urban","shop_code":"23EC013PN","search_string":"  bodinayakannur (tk) theni "},"bbox":[77.346,10.0125,77.346,10.0125]},{"type":"Feature","geometry":{"type":"Point","coordinates":[77.3448,10.0136]},"properties":{"district":"Theni","taluk":"Bodinayakannur (Tk)","village":"Bodinayakanur","name":"Bodi Shop-16","area_type":"Urban","shop_code":"23EC016PN","search_string":"  bodinayakannur (tk) theni "},"bbox":[77.3448,10.0136,77.3448,10.0136]},{"type":"Feature","geometry":{"type":"Point","coordinates":[77.3557,10.0162]},"properties":{"district":"Theni","taluk":"Bodinayakannur (Tk)","village":"Bodinayakanur","name":"Bodi Shop 21","area_type":"Urban","shop_code":"23EC021PN","search_string":"  bodinayakannur (tk) theni "},"bbox":[77.3557,10.0162,77.3557,10.0162]},{"type":"Feature","geometry":{"type":"Point","coordinates":[77.3505,10.0163]},"properties":{"district":"Theni","taluk":"Bodinayakannur (Tk)","village":"Bodinayakanur","name":"Bodi Shop-15","area_type":"Urban","shop_code":"23EC015PN","search_string":"  bodinayakannur (tk) theni "},"bbox":[77.3505,10.0163,77.3505,10.0163]},{"type":"Feature","geometry":{"type":"Point","coordinates":[77.3486,10.0185]},"properties":{"district":"Theni","taluk":"Bodinayakannur (Tk)","village":"Bodinayakanur","name":"Bodi Shop 23","area_type":"Urban","shop_code":"23EC023PN","search_string":"  bodinayakannur (tk) theni "},"bbox":[77.3486,10.0185,77.3486,10.0185]},{"type":"Feature","geometry":{"type":"Point","coordinates":[77.3524,10.0214]},"properties":{"district":"Theni","taluk":"Bodinayakannur (Tk)","village":"Bodinayakanur","name":"Bodi Shop -1","area_type":"Urban","shop_code":"23EC001PN","search_string":"  bodinayakannur (tk) theni "},"bbox":[77.3524,10.0214,77.3524,10.0214]},{"type":"Feature","geometry":{"type":"Point","coordinates":[77.2621,10.022]},"properties":{"district":"Theni","taluk":"Bodinayakannur (Tk)","village":"Melachockanathapuram","name":"Bodi Mettu","area_type":"Rural","shop_code":"23EC017PN","search_string":"  bodinayakannur (tk) theni "},"bbox":[77.2621,10.022,77.2621,10.022]},{"type":"Feature","geometry":{"type":"Point","coordinates":[77.3488,10.024]},"properties":{"district":"Theni","taluk":"Bodinayakannur (Tk)","village":"Bodinayakanur","name":"Bodi Shop - 25","area_type":"Urban","shop_code":"23EC025PN","search_string":"  bodinayakannur (tk) theni "},"bbox":[77.3488,10.024,77.3488,10.024]},{"type":"Feature","geometry":{"type":"Point","coordinates":[77.6489,10.0469]},"properties":{"district":"Theni","taluk":"Bodinayakannur (Tk)","village":"Annaikaraipatty","name":"Anaikaraipatti","area_type":"Rural","shop_code":"23EC020PN","search_string":"  bodinayakannur (tk) theni "},"bbox":[77.6489,10.0469,77.6489,10.0469]},{"type":"Feature","geometry":{"type":"Point","coordinates":[77.3133,10.0544]},"properties":{"district":"Theni","taluk":"Bodinayakannur (Tk)","village":"Kottakudi","name":"Mundhal","area_type":"Rural","shop_code":"23EP008P1","search_string":"  bodinayakannur (tk) theni "},"bbox":[77.3133,10.0544,77.3133,10.0544]},{"type":"Feature","geometry":{"type":"Point","coordinates":[77.2348,10.0829]},"properties":{"district":"Theni","taluk":"Bodinayakannur (Tk)","village":"Kottakudi","name":"Kottagudi","area_type":"Rural","shop_code":"23EP008PY","search_string":"  bodinayakannur (tk) theni "},"bbox":[77.2348,10.0829,77.2348,10.0829]},{"type":"Feature","geometry":{"type":"Point","coordinates":[77.2473,10.1071]},"properties":{"district":"Theni","taluk":"Bodinayakannur (Tk)","village":"Kottakudi","name":"Centralstation","area_type":"Rural","shop_code":"23EP008P2","search_string":"  bodinayakannur (tk) theni "},"bbox":[77.2473,10.1071,77.2473,10.1071]},{"type":"Feature","geometry":{"type":"Point","coordinates":[77.4211,10.1085]},"properties":{"district":"Theni","taluk":"Bodinayakannur (Tk)","village":"Agamalai","name":"Agamalai","area_type":"Rural","shop_code":"23EC018PN","search_string":"  bodinayakannur (tk) theni "},"bbox":[77.4211,10.1085,77.4211,10.1085]},{"type":"Feature","geometry":{"type":"Point","coordinates":[77.4633,10.1291]},"properties":{"district":"Theni","taluk":"Bodinayakannur (Tk)","village":"Agamalai","name":"Ooradi -Oothukadu","area_type":"Rural","shop_code":"23EC019PN","search_string":"  bodinayakannur (tk) theni "},"bbox":[77.4633,10.1291,77.4633,10.1291]},{"type":"Feature","geometry":{"type":"Point","coordinates":[77.5321,10.0408]},"properties":{"district":"Theni","taluk":"Periakulam (Tk)","village":"Vadaveeranaickanpatti","name":"Chokkathevanpatti","area_type":"Rural","shop_code":"23BP026P1","search_string":"  periakulam (tk) theni "},"bbox":[77.5321,10.0408,77.5321,10.0408]},{"type":"Feature","geometry":{"type":"Point","coordinates":[77.5096,10.0413]},"properties":{"district":"Theni","taluk":"Periakulam (Tk)","village":"Vadaveeranaickanpatti","name":"Vadaputhupatti Magalir","area_type":"Rural","shop_code":"23BP035PN","search_string":"  periakulam (tk) theni "},"bbox":[77.5096,10.0413,77.5096,10.0413]},{"type":"Feature","geometry":{"type":"Point","coordinates":[77.5092,10.0429]},"properties":{"district":"Theni","taluk":"Periakulam (Tk)","village":"Vadaveeranaickanpatti","name":"Vadaputhupatti -1","area_type":"Rural","shop_code":"23BP025PY","search_string":"  periakulam (tk) theni "},"bbox":[77.5092,10.0429,77.5092,10.0429]},{"type":"Feature","geometry":{"type":"Point","coordinates":[77.5193,10.0434]},"properties":{"district":"Theni","taluk":"Periakulam (Tk)","village":"Vadaveeranaickanpatti","name":"Ammapuram","area_type":"Rural","shop_code":"23BP026PY","search_string":"  periakulam (tk) theni "},"bbox":[77.5193,10.0434,77.5193,10.0434]},{"type":"Feature","geometry":{"type":"Point","coordinates":[77.613,10.0522]},"properties":{"district":"Theni","taluk":"Periakulam (Tk)","village":"Melmangalam","name":"Muthalakkampatti","area_type":"Rural","shop_code":"23BP033PN","search_string":"  periakulam (tk) theni "},"bbox":[77.613,10.0522,77.613,10.0522]},{"type":"Feature","geometry":{"type":"Point","coordinates":[77.5238,10.0543]},"properties":{"district":"Theni","taluk":"Periakulam (Tk)","village":"Thamaraikulam","name":"A.Meentchipuram","area_type":"Rural","shop_code":"23BP014P1","search_string":"  periakulam (tk) theni "},"bbox":[77.5238,10.0543,77.5238,10.0543]},{"type":"Feature","geometry":{"type":"Point","coordinates":[77.6003,10.0547]},"properties":{"district":"Theni","taluk":"Periakulam (Tk)","village":"Melmangalam","name":"Vaigai Dam","area_type":"Rural","shop_code":"23BE002PN","search_string":"  periakulam (tk) theni "},"bbox":[77.6003,10.0547,77.6003,10.0547]},{"type":"Feature","geometry":{"type":"Point","coordinates":[77.5099,10.058]},"properties":{"district":"Theni","taluk":"Periakulam (Tk)","village":"Vadaveeranaickanpatti","name":"Vadaputhupatti","area_type":"Rural","shop_code":"23BP025P1","search_string":"  periakulam (tk) theni "},"bbox":[77.5099,10.058,77.5099,10.058]},{"type":"Feature","geometry":{"type":"Point","coordinates":[77.6464,10.0658]},"properties":{"district":"Theni","taluk":"Periakulam (Tk)","village":"Kullappuram","name":"Gullapuram - 2","area_type":"Rural","shop_code":"23BP034PN","search_string":"  periakulam (tk) theni "},"bbox":[77.6464,10.0658,77.6464,10.0658]},{"type":"Feature","geometry":{"type":"Point","coordinates":[77.6428,10.0668]},"properties":{"district":"Theni","taluk":"Periakulam (Tk)","village":"Kullappuram","name":"Gullapuram -1","area_type":"Rural","shop_code":"23BP023PY","search_string":"  periakulam (tk) theni "},"bbox":[77.6428,10.0668,77.6428,10.0668]},{"type":"Feature","geometry":{"type":"Point","coordinates":[77.5206,10.0759]},"properties":{"district":"Theni","taluk":"Periakulam (Tk)","village":"Thamaraikulam","name":"Lakshmipuram-2","area_type":"Rural","shop_code":"23BP015PN","search_string":"  periakulam (tk) theni "},"bbox":[77.5206,10.0759,77.5206,10.0759]},{"type":"Feature","geometry":{"type":"Point","coordinates":[77.5382,10.0777]},"properties":{"district":"Theni","taluk":"Periakulam (Tk)","village":"Thamaraikulam","name":"Jallipatti","area_type":"Rural","shop_code":"23BP014PY","search_string":"  periakulam (tk) theni "},"bbox":[77.5382,10.0777,77.5382,10.0777]},{"type":"Feature","geometry":{"type":"Point","coordinates":[77.6384,10.0784]},"properties":{"district":"Theni","taluk":"Periakulam (Tk)","village":"Kullappuram","name":"Kovilpuram","area_type":"Rural","shop_code":"23BP023P1","search_string":"  periakulam (tk) theni "},"bbox":[77.6384,10.0784,77.6384,10.0784]},{"type":"Feature","geometry":{"type":"Point","coordinates":[77.5269,10.0804]},"properties":{"district":"Theni","taluk":"Periakulam (Tk)","village":"Thamaraikulam","name":"Saruthupatti - 2","area_type":"Rural","shop_code":"23BP013PN","search_string":"  periakulam (tk) theni "},"bbox":[77.5269,10.0804,77.5269,10.0804]},{"type":"Feature","geometry":{"type":"Point","coordinates":[77.523,10.0819]},"properties":{"district":"Theni","taluk":"Periakulam (Tk)","village":"Thamaraikulam","name":"Magalir Niyaya Vilai Kadai- Saruthupatti","area_type":"Rural","shop_code":"23BP038PN","search_string":"  periakulam (tk) theni "},"bbox":[77.523,10.0819,77.523,10.0819]},{"type":"Feature","geometry":{"type":"Point","coordinates":[77.5212,10.0828]},"properties":{"district":"Theni","taluk":"Periakulam (Tk)","village":"Thamaraikulam","name":"Lakshmipuram-1","area_type":"Rural","shop_code":"23BP012PN","search_string":"  periakulam (tk) theni "},"bbox":[77.5212,10.0828,77.5212,10.0828]},{"type":"Feature","geometry":{"type":"Point","coordinates":[77.6895,10.0843]},"properties":{"district":"Theni","taluk":"Periakulam (Tk)","village":"Kullappuram","name":"A.Vadipatti","area_type":"Rural","shop_code":"23BP024PY","search_string":"  periakulam (tk) theni "},"bbox":[77.6895,10.0843,77.6895,10.0843]},{"type":"Feature","geometry":{"type":"Point","coordinates":[77.6113,10.0923]},"properties":{"district":"Theni","taluk":"Periakulam (Tk)","village":"Jeyamangalam","name":"Jeyamangalam -2","area_type":"Rural","shop_code":"23BP017PN","search_string":"  periakulam (tk) theni "},"bbox":[77.6113,10.0923,77.6113,10.0923]},{"type":"Feature","geometry":{"type":"Point","coordinates":[77.6094,10.0937]},"properties":{"district":"Theni","taluk":"Periakulam (Tk)","village":"Jeyamangalam","name":"Jeyamangalam -1","area_type":"Rural","shop_code":"23BP016PN","search_string":"  periakulam (tk) theni "},"bbox":[77.6094,10.0937,77.6094,10.0937]},{"type":"Feature","geometry":{"type":"Point","coordinates":[77.6262,10.0953]},"properties":{"district":"Theni","taluk":"Periakulam (Tk)","village":"Jeyamangalam","name":"Sinthuvampatti - 5","area_type":"Rural","shop_code":"23BP031PN","search_string":"  periakulam (tk) theni "},"bbox":[77.6262,10.0953,77.6262,10.0953]},{"type":"Feature","geometry":{"type":"Point","coordinates":[77.6098,10.0957]},"properties":{"district":"Theni","taluk":"Periakulam (Tk)","village":"Jeyamangalam","name":"Jeyamangalam -4","area_type":"Rural","shop_code":"23BP030PN","search_string":"  periakulam (tk) theni "},"bbox":[77.6098,10.0957,77.6098,10.0957]},{"type":"Feature","geometry":{"type":"Point","coordinates":[77.6099,10.0957]},"properties":{"district":"Theni","taluk":"Periakulam (Tk)","village":"Jeyamangalam","name":"Bomminayakkanpatti - 3","area_type":"Rural","shop_code":"23BP018PN","search_string":"  periakulam (tk) theni "},"bbox":[77.6099,10.0957,77.6099,10.0957]},{"type":"Feature","geometry":{"type":"Point","coordinates":[77.5337,10.0985]},"properties":{"district":"Theni","taluk":"Periakulam (Tk)","village":"Thenkarai","name":"Kailasapatti","area_type":"Urban","shop_code":"23BC010PN","search_string":"  periakulam (tk) theni "},"bbox":[77.5337,10.0985,77.5337,10.0985]},{"type":"Feature","geometry":{"type":"Point","coordinates":[77.5811,10.1011]},"properties":{"district":"Theni","taluk":"Periakulam (Tk)","village":"Melmangalam","name":"Melmangalam-2","area_type":"Rural","shop_code":"23BP011PN","search_string":"  periakulam (tk) theni "},"bbox":[77.5811,10.1011,77.5811,10.1011]},{"type":"Feature","geometry":{"type":"Point","coordinates":[77.6797,10.1018]},"properties":{"district":"Theni","taluk":"Periakulam (Tk)","village":"Kullappuram","name":"Renganathapuram","area_type":"Rural","shop_code":"23BP024P1","search_string":"  periakulam (tk) theni "},"bbox":[77.6797,10.1018,77.6797,10.1018]},{"type":"Feature","geometry":{"type":"Point","coordinates":[77.5794,10.1029]},"properties":{"district":"Theni","taluk":"Periakulam (Tk)","village":"Melmangalam","name":"Melmangalam-1","area_type":"Rural","shop_code":"23BP010PN","search_string":"  periakulam (tk) theni "},"bbox":[77.5794,10.1029,77.5794,10.1029]},{"type":"Feature","geometry":{"type":"Point","coordinates":[77.5768,10.1031]},"properties":{"district":"Theni","taluk":"Periakulam (Tk)","village":"Melmangalam","name":"Vadugapatti-4","area_type":"Urban","shop_code":"23BP003PN","search_string":"  periakulam (tk) theni "},"bbox":[77.5768,10.1031,77.5768,10.1031]},{"type":"Feature","geometry":{"type":"Point","coordinates":[77.5422,10.1033]},"properties":{"district":"Theni","taluk":"Periakulam (Tk)","village":"Thenkarai","name":"T.Kallipatti -1","area_type":"Urban","shop_code":"23BC011PY","search_string":"  periakulam (tk) theni "},"bbox":[77.5422,10.1033,77.5422,10.1033]},{"type":"Feature","geometry":{"type":"Point","coordinates":[77.5448,10.1038]},"properties":{"district":"Theni","taluk":"Periakulam (Tk)","village":"Thenkarai","name":"T.Kallipatti -2","area_type":"Urban","shop_code":"23BC017PN","search_string":"  periakulam (tk) theni "},"bbox":[77.5448,10.1038,77.5448,10.1038]},{"type":"Feature","geometry":{"type":"Point","coordinates":[77.5736,10.1054]},"properties":{"district":"Theni","taluk":"Periakulam (Tk)","village":"Melmangalam","name":"Vadugapatti-5","area_type":"Urban","shop_code":"23BP028PN","search_string":"  periakulam (tk) theni "},"bbox":[77.5736,10.1054,77.5736,10.1054]},{"type":"Feature","geometry":{"type":"Point","coordinates":[77.5715,10.106]},"properties":{"district":"Theni","taluk":"Periakulam (Tk)","village":"Thamaraikulam","name":"Vadugapatti-3","area_type":"Urban","shop_code":"23BE005PN","search_string":"  periakulam (tk) theni "},"bbox":[77.5715,10.106,77.5715,10.106]},{"type":"Feature","geometry":{"type":"Point","coordinates":[77.5716,10.1062]},"properties":{"district":"Theni","taluk":"Periakulam (Tk)","village":"Thamaraikulam","name":"Vadugapatti-2","area_type":"Urban","shop_code":"23BE004PN","search_string":"  periakulam (tk) theni "},"bbox":[77.5716,10.1062,77.5716,10.1062]},{"type":"Feature","geometry":{"type":"Point","coordinates":[77.5717,10.1063]},"properties":{"district":"Theni","taluk":"Periakulam (Tk)","village":"Thamaraikulam","name":"Vadugapattti-1","area_type":"Urban","shop_code":"23BE003PN","search_string":"  periakulam (tk) theni "},"bbox":[77.5717,10.1063,77.5717,10.1063]},{"type":"Feature","geometry":{"type":"Point","coordinates":[77.554,10.1067]},"properties":{"district":"Theni","taluk":"Periakulam (Tk)","village":"Thamaraikulam","name":"Thamaraikulam-3","area_type":"Urban","shop_code":"23BP027PN","search_string":"  periakulam (tk) theni "},"bbox":[77.554,10.1067,77.554,10.1067]},{"type":"Feature","geometry":{"type":"Point","coordinates":[77.5543,10.1071]},"properties":{"district":"Theni","taluk":"Periakulam (Tk)","village":"Thamaraikulam","name":"Thamaraikulam-2","area_type":"Urban","shop_code":"23BP002PY","search_string":"  periakulam (tk) theni "},"bbox":[77.5543,10.1071,77.5543,10.1071]},{"type":"Feature","geometry":{"type":"Point","coordinates":[77.5573,10.1077]},"properties":{"district":"Theni","taluk":"Periakulam (Tk)","village":"Thamaraikulam","name":"Thamaraikulam-1","area_type":"Urban","shop_code":"23BP001PN","search_string":"  periakulam (tk) theni "},"bbox":[77.5573,10.1077,77.5573,10.1077]},{"type":"Feature","geometry":{"type":"Point","coordinates":[77.5487,10.1093]},"properties":{"district":"Theni","taluk":"Periakulam (Tk)","village":"Thamaraikulam","name":"Thamaraikulam-4","area_type":"Urban","shop_code":"23BP002P1","search_string":"  periakulam (tk) theni "},"bbox":[77.5487,10.1093,77.5487,10.1093]},{"type":"Feature","geometry":{"type":"Point","coordinates":[77.6018,10.1154]},"properties":{"district":"Theni","taluk":"Periakulam (Tk)","village":"Melmangalam","name":"Alagarnaickanpatti","area_type":"Rural","shop_code":"23BP020P1","search_string":"  periakulam (tk) theni "},"bbox":[77.6018,10.1154,77.6018,10.1154]},{"type":"Feature","geometry":{"type":"Point","coordinates":[77.5471,10.1183]},"properties":{"district":"Theni","taluk":"Periakulam (Tk)","village":"Thenkarai","name":"Thenkarai -5","area_type":"Urban","shop_code":"23BC005PN","search_string":"  periakulam (tk) theni "},"bbox":[77.5471,10.1183,77.5471,10.1183]},{"type":"Feature","geometry":{"type":"Point","coordinates":[77.6179,10.1194]},"properties":{"district":"Theni","taluk":"Periakulam (Tk)","village":"Silvarpatti","name":"Silvarpatti -2","area_type":"Rural","shop_code":"23BP020PY","search_string":"  periakulam (tk) theni "},"bbox":[77.6179,10.1194,77.6179,10.1194]},{"type":"Feature","geometry":{"type":"Point","coordinates":[77.5434,10.1194]},"properties":{"district":"Theni","taluk":"Periakulam (Tk)","village":"Thenkarai","name":"Thenkarai -2","area_type":"Urban","shop_code":"23BC002PN","search_string":"  periakulam (tk) theni "},"bbox":[77.5434,10.1194,77.5434,10.1194]},{"type":"Feature","geometry":{"type":"Point","coordinates":[77.6208,10.1201]},"properties":{"district":"Theni","taluk":"Periakulam (Tk)","village":"Silvarpatti","name":"Silvarpatti - 3","area_type":"Rural","shop_code":"23BP032PN","search_string":"  periakulam (tk) theni "},"bbox":[77.6208,10.1201,77.6208,10.1201]},{"type":"Feature","geometry":{"type":"Point","coordinates":[77.621,10.1202]},"properties":{"district":"Theni","taluk":"Periakulam (Tk)","village":"Silvarpatti","name":"Silvarpatti -1","area_type":"Rural","shop_code":"23BP019PN","search_string":"  periakulam (tk) theni "},"bbox":[77.621,10.1202,77.621,10.1202]},{"type":"Feature","geometry":{"type":"Point","coordinates":[77.5433,10.1205]},"properties":{"district":"Theni","taluk":"Periakulam (Tk)","village":"Thenkarai","name":"Thenkarai -4","area_type":"Urban","shop_code":"23BC004PN","search_string":"  periakulam (tk) theni "},"bbox":[77.5433,10.1205,77.5433,10.1205]},{"type":"Feature","geometry":{"type":"Point","coordinates":[77.5431,10.1205]},"properties":{"district":"Theni","taluk":"Periakulam (Tk)","village":"Thenkarai","name":"Thenkarai","area_type":"Urban","shop_code":"23BC003P1","search_string":"  periakulam (tk) theni "},"bbox":[77.5431,10.1205,77.5431,10.1205]},{"type":"Feature","geometry":{"type":"Point","coordinates":[77.5433,10.1207]},"properties":{"district":"Theni","taluk":"Periakulam (Tk)","village":"Thenkarai","name":"Thenkarai -7","area_type":"Urban","shop_code":"23BC014PN","search_string":"  periakulam (tk) theni "},"bbox":[77.5433,10.1207,77.5433,10.1207]},{"type":"Feature","geometry":{"type":"Point","coordinates":[77.5432,10.1208]},"properties":{"district":"Theni","taluk":"Periakulam (Tk)","village":"Thenkarai","name":"Thenkarai -3","area_type":"Urban","shop_code":"23BC003PY","search_string":"  periakulam (tk) theni "},"bbox":[77.5432,10.1208,77.5432,10.1208]},{"type":"Feature","geometry":{"type":"Point","coordinates":[77.5435,10.1209]},"properties":{"district":"Theni","taluk":"Periakulam (Tk)","village":"Thenkarai","name":"Thenkarai -1","area_type":"Urban","shop_code":"23BC001PN","search_string":"  periakulam (tk) theni "},"bbox":[77.5435,10.1209,77.5435,10.1209]},{"type":"Feature","geometry":{"type":"Point","coordinates":[77.5421,10.1221]},"properties":{"district":"Theni","taluk":"Periakulam (Tk)","village":"Thenkarai","name":"Thenkarai -6","area_type":"Urban","shop_code":"23BC013PN","search_string":"  periakulam (tk) theni "},"bbox":[77.5421,10.1221,77.5421,10.1221]},{"type":"Feature","geometry":{"type":"Point","coordinates":[77.5426,10.1234]},"properties":{"district":"Theni","taluk":"Periakulam (Tk)","village":"Vadakarai","name":"Vadakarai -5","area_type":"Urban","shop_code":"23BC015PN","search_string":"  periakulam (tk) theni "},"bbox":[77.5426,10.1234,77.5426,10.1234]},{"type":"Feature","geometry":{"type":"Point","coordinates":[77.5427,10.1235]},"properties":{"district":"Theni","taluk":"Periakulam (Tk)","village":"Vadakarai","name":"Vadakarai -4","area_type":"Urban","shop_code":"23BC009PN","search_string":"  periakulam (tk) theni "},"bbox":[77.5427,10.1235,77.5427,10.1235]},{"type":"Feature","geometry":{"type":"Point","coordinates":[77.5411,10.1237]},"properties":{"district":"Theni","taluk":"Periakulam (Tk)","village":"Thenkarai","name":"Ngo -Thenkarai","area_type":"Urban","shop_code":"23BE001PN","search_string":"  periakulam (tk) theni "},"bbox":[77.5411,10.1237,77.5411,10.1237]},{"type":"Feature","geometry":{"type":"Point","coordinates":[77.5461,10.1242]},"properties":{"district":"Theni","taluk":"Periakulam (Tk)","village":"Keelavadakarai","name":"Vadakarai -6","area_type":"Urban","shop_code":"23BC016PN","search_string":"  periakulam (tk) theni "},"bbox":[77.5461,10.1242,77.5461,10.1242]},{"type":"Feature","geometry":{"type":"Point","coordinates":[77.5462,10.1244]},"properties":{"district":"Theni","taluk":"Periakulam (Tk)","village":"Keelavadakarai","name":"Vadakarai -3","area_type":"Urban","shop_code":"23BC008PN","search_string":"  periakulam (tk) theni "},"bbox":[77.5462,10.1244,77.5462,10.1244]},{"type":"Feature","geometry":{"type":"Point","coordinates":[77.5338,10.1251]},"properties":{"district":"Theni","taluk":"Periakulam (Tk)","village":"Thenkarai","name":"T.Kallipatti","area_type":"Urban","shop_code":"23BC011P1","search_string":"  periakulam (tk) theni "},"bbox":[77.5338,10.1251,77.5338,10.1251]},{"type":"Feature","geometry":{"type":"Point","coordinates":[77.5389,10.1255]},"properties":{"district":"Theni","taluk":"Periakulam (Tk)","village":"Vadakarai","name":"Alagarsamipuram-1","area_type":"Rural","shop_code":"23BP006PN","search_string":"  periakulam (tk) theni "},"bbox":[77.5389,10.1255,77.5389,10.1255]},{"type":"Feature","geometry":{"type":"Point","coordinates":[77.5433,10.1261]},"properties":{"district":"Theni","taluk":"Periakulam (Tk)","village":"Vadakarai","name":"Vadakarai -2","area_type":"Urban","shop_code":"23BC007PN","search_string":"  periakulam (tk) theni "},"bbox":[77.5433,10.1261,77.5433,10.1261]},{"type":"Feature","geometry":{"type":"Point","coordinates":[77.5439,10.1261]},"properties":{"district":"Theni","taluk":"Periakulam (Tk)","village":"Vadakarai","name":"Vadakarai -1","area_type":"Urban","shop_code":"23BC006PN","search_string":"  periakulam (tk) theni "},"bbox":[77.5439,10.1261,77.5439,10.1261]},{"type":"Feature","geometry":{"type":"Point","coordinates":[77.594,10.1264]},"properties":{"district":"Theni","taluk":"Periakulam (Tk)","village":"A Kamatchipuram","name":"E.Kamatchipuram","area_type":"Rural","shop_code":"23BP009PN","search_string":"  periakulam (tk) theni "},"bbox":[77.594,10.1264,77.594,10.1264]},{"type":"Feature","geometry":{"type":"Point","coordinates":[77.5404,10.1269]},"properties":{"district":"Theni","taluk":"Periakulam (Tk)","village":"Vadakarai","name":"Sigaram Women Fair Price","area_type":"Urban","shop_code":"23BO001PN","search_string":"  periakulam (tk) theni "},"bbox":[77.5404,10.1269,77.5404,10.1269]},{"type":"Feature","geometry":{"type":"Point","coordinates":[77.6079,10.1276]},"properties":{"district":"Theni","taluk":"Periakulam (Tk)","village":"Silvarpatti","name":"Samathuvapuram","area_type":"Rural","shop_code":"23BP020P2","search_string":"  periakulam (tk) theni "},"bbox":[77.6079,10.1276,77.6079,10.1276]},{"type":"Feature","geometry":{"type":"Point","coordinates":[77.5357,10.1279]},"properties":{"district":"Theni","taluk":"Periakulam (Tk)","village":"Vadakarai","name":"Alagarsamipuram-2","area_type":"Rural","shop_code":"23BP029PN","search_string":"  periakulam (tk) theni "},"bbox":[77.5357,10.1279,77.5357,10.1279]},{"type":"Feature","geometry":{"type":"Point","coordinates":[77.6316,10.128]},"properties":{"district":"Theni","taluk":"Periakulam (Tk)","village":"Jeyamangalam","name":"Erumalainayakkanpatti","area_type":"Rural","shop_code":"23BP021PN","search_string":"  periakulam (tk) theni "},"bbox":[77.6316,10.128,77.6316,10.128]},{"type":"Feature","geometry":{"type":"Point","coordinates":[77.5512,10.1301]},"properties":{"district":"Theni","taluk":"Periakulam (Tk)","village":"Keelavadakarai","name":"Keelavadakarai -1","area_type":"Rural","shop_code":"23BP004PY","search_string":"  periakulam (tk) theni "},"bbox":[77.5512,10.1301,77.5512,10.1301]},{"type":"Feature","geometry":{"type":"Point","coordinates":[77.5512,10.1301]},"properties":{"district":"Theni","taluk":"Periakulam (Tk)","village":"Keelavadakarai","name":"Keelavadakarai-2","area_type":"Urban","shop_code":"23BP005PN","search_string":"  periakulam (tk) theni "},"bbox":[77.5512,10.1301,77.5512,10.1301]},{"type":"Feature","geometry":{"type":"Point","coordinates":[77.63,10.1311]},"properties":{"district":"Theni","taluk":"Periakulam (Tk)","village":"D Vadipatti","name":"D.Vadipatti","area_type":"Rural","shop_code":"23BP022PN","search_string":"  periakulam (tk) theni "},"bbox":[77.63,10.1311,77.63,10.1311]},{"type":"Feature","geometry":{"type":"Point","coordinates":[77.5782,10.1326]},"properties":{"district":"Theni","taluk":"Periakulam (Tk)","village":"Endapulli","name":"Endapuli","area_type":"Rural","shop_code":"23BP007PN","search_string":"  periakulam (tk) theni "},"bbox":[77.5782,10.1326,77.5782,10.1326]},{"type":"Feature","geometry":{"type":"Point","coordinates":[77.5566,10.1352]},"properties":{"district":"Theni","taluk":"Periakulam (Tk)","village":"Pudukotai","name":"E.Pudukottai","area_type":"Rural","shop_code":"23BP008PY","search_string":"  periakulam (tk) theni "},"bbox":[77.5566,10.1352,77.5566,10.1352]},{"type":"Feature","geometry":{"type":"Point","coordinates":[77.551,10.1364]},"properties":{"district":"Theni","taluk":"Periakulam (Tk)","village":"Keelavadakarai","name":"Thaivendrapuram","area_type":"Rural","shop_code":"23BP004P1","search_string":"  periakulam (tk) theni "},"bbox":[77.551,10.1364,77.551,10.1364]},{"type":"Feature","geometry":{"type":"Point","coordinates":[77.5579,10.1405]},"properties":{"district":"Theni","taluk":"Periakulam (Tk)","village":"Pudukotai","name":"Nehru Nagar v","area_type":"Rural","shop_code":"23BP042PN","search_string":"  periakulam (tk) theni "},"bbox":[77.5579,10.1405,77.5579,10.1405]},{"type":"Feature","geometry":{"type":"Point","coordinates":[77.6999,10.1408]},"properties":{"district":"Theni","taluk":"Periakulam (Tk)","village":"Genguvarpatti","name":"Kottarpatti","area_type":"Urban","shop_code":"23BB007P1","search_string":"  periakulam (tk) theni "},"bbox":[77.6999,10.1408,77.6999,10.1408]},{"type":"Feature","geometry":{"type":"Point","coordinates":[77.6647,10.1432]},"properties":{"district":"Theni","taluk":"Periakulam (Tk)","village":"Devadanapatti","name":"Saththakoilpatti - 8","area_type":"Urban","shop_code":"23BB012PN","search_string":"  periakulam (tk) theni "},"bbox":[77.6647,10.1432,77.6647,10.1432]},{"type":"Feature","geometry":{"type":"Point","coordinates":[77.6443,10.1458]},"properties":{"district":"Theni","taluk":"Periakulam (Tk)","village":"Devadanapatti","name":"Devadanapatti-6","area_type":"Urban","shop_code":"23BB010PN","search_string":"  periakulam (tk) theni "},"bbox":[77.6443,10.1458,77.6443,10.1458]},{"type":"Feature","geometry":{"type":"Point","coordinates":[77.6418,10.1458]},"properties":{"district":"Theni","taluk":"Periakulam (Tk)","village":"Devadanapatti","name":"Devadanapatti-4","area_type":"Urban","shop_code":"23BB004PN","search_string":"  periakulam (tk) theni "},"bbox":[77.6418,10.1458,77.6418,10.1458]},{"type":"Feature","geometry":{"type":"Point","coordinates":[77.6419,10.1459]},"properties":{"district":"Theni","taluk":"Periakulam (Tk)","village":"Genguvarpatti","name":"Balapatti","area_type":"Urban","shop_code":"23BB006P1","search_string":"  periakulam (tk) theni "},"bbox":[77.6419,10.1459,77.6419,10.1459]},{"type":"Feature","geometry":{"type":"Point","coordinates":[77.6454,10.1473]},"properties":{"district":"Theni","taluk":"Periakulam (Tk)","village":"Devadanapatti","name":"Devadanapatti-2","area_type":"Urban","shop_code":"23BB002PN","search_string":"  periakulam (tk) theni "},"bbox":[77.6454,10.1473,77.6454,10.1473]},{"type":"Feature","geometry":{"type":"Point","coordinates":[77.6428,10.1474]},"properties":{"district":"Theni","taluk":"Periakulam (Tk)","village":"Devadanapatti","name":"Devadanapatti-1","area_type":"Urban","shop_code":"23BB001PN","search_string":"  periakulam (tk) theni "},"bbox":[77.6428,10.1474,77.6428,10.1474]},{"type":"Feature","geometry":{"type":"Point","coordinates":[77.6496,10.1481]},"properties":{"district":"Theni","taluk":"Periakulam (Tk)","village":"Devadanapatti","name":"Pullakkapatti - 7","area_type":"Urban","shop_code":"23BB011PN","search_string":"  periakulam (tk) theni "},"bbox":[77.6496,10.1481,77.6496,10.1481]},{"type":"Feature","geometry":{"type":"Point","coordinates":[77.6442,10.1485]},"properties":{"district":"Theni","taluk":"Periakulam (Tk)","village":"Devadanapatti","name":"Devadanapatti-3","area_type":"Urban","shop_code":"23BB003PN","search_string":"  periakulam (tk) theni "},"bbox":[77.6442,10.1485,77.6442,10.1485]},{"type":"Feature","geometry":{"type":"Point","coordinates":[77.5668,10.1601]},"properties":{"district":"Theni","taluk":"Periakulam (Tk)","village":"Murugamalai Nagar","name":"Murugamalai Nagar","area_type":"Rural","shop_code":"23BP008P1","search_string":"  periakulam (tk) theni "},"bbox":[77.5668,10.1601,77.5668,10.1601]},{"type":"Feature","geometry":{"type":"Point","coordinates":[77.6968,10.1675]},"properties":{"district":"Theni","taluk":"Periakulam (Tk)","village":"Genguvarpatti","name":"Genguvarpatti-1","area_type":"Urban","shop_code":"23BB006PY","search_string":"  periakulam (tk) theni "},"bbox":[77.6968,10.1675,77.6968,10.1675]},{"type":"Feature","geometry":{"type":"Point","coordinates":[77.6974,10.1682]},"properties":{"district":"Theni","taluk":"Periakulam (Tk)","village":"Genguvarpatti","name":"Genguvarpatti-3","area_type":"Urban","shop_code":"23BB013PY","search_string":"  periakulam (tk) theni "},"bbox":[77.6974,10.1682,77.6974,10.1682]},{"type":"Feature","geometry":{"type":"Point","coordinates":[77.6975,10.1683]},"properties":{"district":"Theni","taluk":"Periakulam (Tk)","village":"Genguvarpatti","name":"Genguvarpatti-2","area_type":"Urban","shop_code":"23BB007PY","search_string":"  periakulam (tk) theni "},"bbox":[77.6975,10.1683,77.6975,10.1683]},{"type":"Feature","geometry":{"type":"Point","coordinates":[77.6961,10.1696]},"properties":{"district":"Theni","taluk":"Periakulam (Tk)","village":"Genguvarpatti","name":"Bhagavathi Nagar","area_type":"Urban","shop_code":"23BB013P1","search_string":"  periakulam (tk) theni "},"bbox":[77.6961,10.1696,77.6961,10.1696]},{"type":"Feature","geometry":{"type":"Point","coordinates":[77.7081,10.1706]},"properties":{"district":"Theni","taluk":"Periakulam (Tk)","village":"Genguvarpatti","name":"G.Kallupatti-2","area_type":"Rural","shop_code":"23BB009PN","search_string":"  periakulam (tk) theni "},"bbox":[77.7081,10.1706,77.7081,10.1706]},{"type":"Feature","geometry":{"type":"Point","coordinates":[77.666,10.1783]},"properties":{"district":"Theni","taluk":"Periakulam (Tk)","village":"Devadanapatti","name":"Devadanapatti-5","area_type":"Urban","shop_code":"23BB005PN","search_string":"  periakulam (tk) theni "},"bbox":[77.666,10.1783,77.666,10.1783]},{"type":"Feature","geometry":{"type":"Point","coordinates":[77.7026,10.1828]},"properties":{"district":"Theni","taluk":"Periakulam (Tk)","village":"Genguvarpatti","name":"G.Kallupatti-1","area_type":"Rural","shop_code":"23BB008PN","search_string":"  periakulam (tk) theni "},"bbox":[77.7026,10.1828,77.7026,10.1828]},{"type":"Feature","geometry":{"type":"Point","coordinates":[77.394,9.8709]},"properties":{"district":"Theni","taluk":"Theni (Tk)","village":"Seelayampatti","name":"Seelayampatty 1","area_type":"Rural","shop_code":"23AP015PN","search_string":"  theni (tk) theni "},"bbox":[77.394,9.8709,77.394,9.8709]},{"type":"Feature","geometry":{"type":"Point","coordinates":[77.3911,9.8752]},"properties":{"district":"Theni","taluk":"Theni (Tk)","village":"Seelayampatti","name":"Seelayampatty 2","area_type":"Rural","shop_code":"23AP016PN","search_string":"  theni (tk) theni "},"bbox":[77.3911,9.8752,77.3911,9.8752]},{"type":"Feature","geometry":{"type":"Point","coordinates":[77.3924,9.8754]},"properties":{"district":"Theni","taluk":"Theni (Tk)","village":"Seelayampatti","name":"Seelayampatty -3","area_type":"Rural","shop_code":"23AP048PN","search_string":"  theni (tk) theni "},"bbox":[77.3924,9.8754,77.3924,9.8754]},{"type":"Feature","geometry":{"type":"Point","coordinates":[77.4876,9.8781]},"properties":{"district":"Theni","taluk":"Theni (Tk)","village":"Govindanagaram","name":"Kuppinayakkanpatti","area_type":"Rural","shop_code":"23AP050PN","search_string":"  theni (tk) theni "},"bbox":[77.4876,9.8781,77.4876,9.8781]},{"type":"Feature","geometry":{"type":"Point","coordinates":[77.4874,9.8866]},"properties":{"district":"Theni","taluk":"Theni (Tk)","village":"Jangalpatti","name":"Lakshmipuram","area_type":"Rural","shop_code":"23AP032PN","search_string":"  theni (tk) theni "},"bbox":[77.4874,9.8866,77.4874,9.8866]},{"type":"Feature","geometry":{"type":"Point","coordinates":[77.4732,9.887]},"properties":{"district":"Theni","taluk":"Theni (Tk)","village":"Jangalpatti","name":"Jangalpatti","area_type":"Rural","shop_code":"23AP030PN","search_string":"  theni (tk) theni "},"bbox":[77.4732,9.887,77.4732,9.887]},{"type":"Feature","geometry":{"type":"Point","coordinates":[77.4494,9.8892]},"properties":{"district":"Theni","taluk":"Theni (Tk)","village":"Pumalaikundu","name":"Pumalaikundu","area_type":"Rural","shop_code":"23AP031PN","search_string":"  theni (tk) theni "},"bbox":[77.4494,9.8892,77.4494,9.8892]},{"type":"Feature","geometry":{"type":"Point","coordinates":[77.4425,9.8966]},"properties":{"district":"Theni","taluk":"Theni (Tk)","village":"Pumalaikundu","name":"Tharmapuri","area_type":"Rural","shop_code":"23AP033PN","search_string":"  theni (tk) theni "},"bbox":[77.4425,9.8966,77.4425,9.8966]},{"type":"Feature","geometry":{"type":"Point","coordinates":[77.4065,9.9007]},"properties":{"district":"Theni","taluk":"Theni (Tk)","village":"Kootur","name":"Kootur Mahalir","area_type":"Rural","shop_code":"23AP043PN","search_string":"  theni (tk) theni "},"bbox":[77.4065,9.9007,77.4065,9.9007]},{"type":"Feature","geometry":{"type":"Point","coordinates":[77.4054,9.9036]},"properties":{"district":"Theni","taluk":"Theni (Tk)","village":"Kootur","name":"Kootur 2","area_type":"Rural","shop_code":"23AP018PN","search_string":"  theni (tk) theni "},"bbox":[77.4054,9.9036,77.4054,9.9036]},{"type":"Feature","geometry":{"type":"Point","coordinates":[77.4071,9.9052]},"properties":{"district":"Theni","taluk":"Theni (Tk)","village":"Kootur","name":"Kootur 1","area_type":"Rural","shop_code":"23AP017PN","search_string":"  theni (tk) theni "},"bbox":[77.4071,9.9052,77.4071,9.9052]},{"type":"Feature","geometry":{"type":"Point","coordinates":[77.4584,9.9054]},"properties":{"district":"Theni","taluk":"Theni (Tk)","village":"Pumalaikundu","name":"Malayagoundanpatti","area_type":"Rural","shop_code":"23AP029P1","search_string":"  theni (tk) theni "},"bbox":[77.4584,9.9054,77.4584,9.9054]},{"type":"Feature","geometry":{"type":"Point","coordinates":[77.5041,9.9096]},"properties":{"district":"Theni","taluk":"Theni (Tk)","village":"Govindanagaram","name":"Govindanagaram","area_type":"Rural","shop_code":"23AP023PN","search_string":"  theni (tk) theni "},"bbox":[77.5041,9.9096,77.5041,9.9096]},{"type":"Feature","geometry":{"type":"Point","coordinates":[77.4748,9.9192]},"properties":{"district":"Theni","taluk":"Theni (Tk)","village":"Jangalpatti","name":"Vengadasalapuram","area_type":"Rural","shop_code":"23AP028PN","search_string":"  theni (tk) theni "},"bbox":[77.4748,9.9192,77.4748,9.9192]},{"type":"Feature","geometry":{"type":"Point","coordinates":[77.4593,9.9245]},"properties":{"district":"Theni","taluk":"Theni (Tk)","village":"Pumalaikundu","name":"Kattunayakanpatti","area_type":"Rural","shop_code":"23AP029PY","search_string":"  theni (tk) theni "},"bbox":[77.4593,9.9245,77.4593,9.9245]},{"type":"Feature","geometry":{"type":"Point","coordinates":[77.5106,9.926]},"properties":{"district":"Theni","taluk":"Theni (Tk)","village":"Govindanagaram","name":"Ambasamuthiram","area_type":"Rural","shop_code":"23AP022PN","search_string":"  theni (tk) theni "},"bbox":[77.5106,9.926,77.5106,9.926]},{"type":"Feature","geometry":{"type":"Point","coordinates":[77.4651,9.9331]},"properties":{"district":"Theni","taluk":"Theni (Tk)","village":"Thappukkundu","name":"Thappukkundu","area_type":"Rural","shop_code":"23AP025PN","search_string":"  theni (tk) theni "},"bbox":[77.4651,9.9331,77.4651,9.9331]},{"type":"Feature","geometry":{"type":"Point","coordinates":[77.4843,9.9362]},"properties":{"district":"Theni","taluk":"Theni (Tk)","village":"Thadicheri","name":"Srirangapuram","area_type":"Rural","shop_code":"23AP024PN","search_string":"  theni (tk) theni "},"bbox":[77.4843,9.9362,77.4843,9.9362]},{"type":"Feature","geometry":{"type":"Point","coordinates":[77.4732,9.9433]},"properties":{"district":"Theni","taluk":"Theni (Tk)","village":"Thadicheri","name":"Thadicheri","area_type":"Rural","shop_code":"23AP027PN","search_string":"  theni (tk) theni "},"bbox":[77.4732,9.9433,77.4732,9.9433]},{"type":"Feature","geometry":{"type":"Point","coordinates":[77.499,9.9452]},"properties":{"district":"Theni","taluk":"Theni (Tk)","village":"Koduvilarpatti","name":"Gopalapuram","area_type":"Rural","shop_code":"23AP034PN","search_string":"  theni (tk) theni "},"bbox":[77.499,9.9452,77.499,9.9452]},{"type":"Feature","geometry":{"type":"Point","coordinates":[77.4838,9.9452]},"properties":{"district":"Theni","taluk":"Theni (Tk)","village":"Koduvilarpatti","name":"Nagalapuram","area_type":"Rural","shop_code":"23AP026PY","search_string":"  theni (tk) theni "},"bbox":[77.4838,9.9452,77.4838,9.9452]},{"type":"Feature","geometry":{"type":"Point","coordinates":[77.4201,9.9534]},"properties":{"district":"Theni","taluk":"Theni (Tk)","village":"Upparpatti","name":"Upparpatti","area_type":"Rural","shop_code":"23AP014PN","search_string":"  theni (tk) theni "},"bbox":[77.4201,9.9534,77.4201,9.9534]},{"type":"Feature","geometry":{"type":"Point","coordinates":[77.4976,9.9544]},"properties":{"district":"Theni","taluk":"Theni (Tk)","village":"Koduvilarpatti","name":"Balakrishnapuram","area_type":"Rural","shop_code":"23AP026P1","search_string":"  theni (tk) theni "},"bbox":[77.4976,9.9544,77.4976,9.9544]},{"type":"Feature","geometry":{"type":"Point","coordinates":[77.4445,9.9641]},"properties":{"district":"Theni","taluk":"Theni (Tk)","village":"Veerapandi","name":"Veerapandi 5","area_type":"Urban","shop_code":"23AP035PN","search_string":"  theni (tk) theni "},"bbox":[77.4445,9.9641,77.4445,9.9641]},{"type":"Feature","geometry":{"type":"Point","coordinates":[77.4444,9.9646]},"properties":{"district":"Theni","taluk":"Theni (Tk)","village":"Veerapandi","name":"Veerapandi 1","area_type":"Urban","shop_code":"23AP009PN","search_string":"  theni (tk) theni "},"bbox":[77.4444,9.9646,77.4444,9.9646]},{"type":"Feature","geometry":{"type":"Point","coordinates":[77.4479,9.9649]},"properties":{"district":"Theni","taluk":"Theni (Tk)","village":"Veerapandi","name":"Veerapandi - 6","area_type":"Urban","shop_code":"23AP049PN","search_string":"  theni (tk) theni "},"bbox":[77.4479,9.9649,77.4479,9.9649]},{"type":"Feature","geometry":{"type":"Point","coordinates":[77.5021,9.969]},"properties":{"district":"Theni","taluk":"Theni (Tk)","village":"Koduvilarpatti","name":"Palapatti Mahalir","area_type":"Rural","shop_code":"23AP039PN","search_string":"  theni (tk) theni "},"bbox":[77.5021,9.969,77.5021,9.969]},{"type":"Feature","geometry":{"type":"Point","coordinates":[77.492,9.972]},"properties":{"district":"Theni","taluk":"Theni (Tk)","village":"Koduvilarpatti","name":"Koduvilarpatti","area_type":"Rural","shop_code":"23AP021PY","search_string":"  theni (tk) theni "},"bbox":[77.492,9.972,77.492,9.972]},{"type":"Feature","geometry":{"type":"Point","coordinates":[77.4671,9.9738]},"properties":{"district":"Theni","taluk":"Theni (Tk)","village":"Veerapandi","name":"Vayalpatti","area_type":"Urban","shop_code":"23AP010PN","search_string":"  theni (tk) theni "},"bbox":[77.4671,9.9738,77.4671,9.9738]},{"type":"Feature","geometry":{"type":"Point","coordinates":[77.4528,9.9859]},"properties":{"district":"Theni","taluk":"Theni (Tk)","village":"Veerapandi","name":"Muthuthavanpatti","area_type":"Urban","shop_code":"23AP011PN","search_string":"  theni (tk) theni "},"bbox":[77.4528,9.9859,77.4528,9.9859]},{"type":"Feature","geometry":{"type":"Point","coordinates":[77.4375,9.9946]},"properties":{"district":"Theni","taluk":"Theni (Tk)","village":"Veerapandi","name":"Thiruchendure","area_type":"Urban","shop_code":"23AP036P1","search_string":"  theni (tk) theni "},"bbox":[77.4375,9.9946,77.4375,9.9946]},{"type":"Feature","geometry":{"type":"Point","coordinates":[77.5014,9.9953]},"properties":{"district":"Theni","taluk":"Theni (Tk)","village":"Koduvilarpatti","name":"Kottaipatty","area_type":"Rural","shop_code":"23AP020P1","search_string":"  theni (tk) theni "},"bbox":[77.5014,9.9953,77.5014,9.9953]},{"type":"Feature","geometry":{"type":"Point","coordinates":[77.4826,9.9955]},"properties":{"district":"Theni","taluk":"Theni (Tk)","village":"Koduvilarpatti","name":"Mullainagar","area_type":"Rural","shop_code":"23AP019P1","search_string":"  theni (tk) theni "},"bbox":[77.4826,9.9955,77.4826,9.9955]},{"type":"Feature","geometry":{"type":"Point","coordinates":[77.4568,9.9958]},"properties":{"district":"Theni","taluk":"Theni (Tk)","village":"Veerapandi","name":"Rmtc Colony","area_type":"Urban","shop_code":"23AP036P2","search_string":"  theni (tk) theni "},"bbox":[77.4568,9.9958,77.4568,9.9958]},{"type":"Feature","geometry":{"type":"Point","coordinates":[77.4622,9.9968]},"properties":{"district":"Theni","taluk":"Theni (Tk)","village":"Palani Chettipatti","name":"Palanichettipatti 1","area_type":"Urban","shop_code":"23AP007PN","search_string":"  theni (tk) theni "},"bbox":[77.4622,9.9968,77.4622,9.9968]},{"type":"Feature","geometry":{"type":"Point","coordinates":[77.4891,9.9968]},"properties":{"district":"Theni","taluk":"Theni (Tk)","village":"Koduvilarpatti","name":"Arranmanipudur 1","area_type":"Rural","shop_code":"23AP019PY","search_string":"  theni (tk) theni "},"bbox":[77.4891,9.9968,77.4891,9.9968]},{"type":"Feature","geometry":{"type":"Point","coordinates":[77.4873,9.9971]},"properties":{"district":"Theni","taluk":"Theni (Tk)","village":"Koduvilarpatti","name":"Arranmanaipudur 2","area_type":"Rural","shop_code":"23AP020PY","search_string":"  theni (tk) theni "},"bbox":[77.4873,9.9971,77.4873,9.9971]},{"type":"Feature","geometry":{"type":"Point","coordinates":[77.4516,9.9974]},"properties":{"district":"Theni","taluk":"Theni (Tk)","village":"Veerapandi","name":"Mariyammankovilpatti","area_type":"Urban","shop_code":"23AP036PY","search_string":"  theni (tk) theni "},"bbox":[77.4516,9.9974,77.4516,9.9974]},{"type":"Feature","geometry":{"type":"Point","coordinates":[77.4662,10.0005]},"properties":{"district":"Theni","taluk":"Theni (Tk)","village":"Palani Chettipatti","name":"Palanichettipatti -4","area_type":"Urban","shop_code":"23AP047PN","search_string":"  theni (tk) theni "},"bbox":[77.4662,10.0005,77.4662,10.0005]},{"type":"Feature","geometry":{"type":"Point","coordinates":[77.4626,10.0009]},"properties":{"district":"Theni","taluk":"Theni (Tk)","village":"Palani Chettipatti","name":"Palanichettipatti 2","area_type":"Urban","shop_code":"23AP008PN","search_string":"  theni (tk) theni "},"bbox":[77.4626,10.0009,77.4626,10.0009]},{"type":"Feature","geometry":{"type":"Point","coordinates":[77.4666,10.0025]},"properties":{"district":"Theni","taluk":"Theni (Tk)","village":"Palani Chettipatti","name":"Palanichettipatti-3","area_type":"Urban","shop_code":"23AP046PN","search_string":"  theni (tk) theni "},