{"type":"FeatureCollection","features":[{"type":"Feature","geometry":{"type":"Point","coordinates":[78.9356,12.7804]},"properties":{"district":"Vellore","taluk":"Anaicut","village":"Pinnathurai","name":"Pinnathurai","area_type":"Rural","shop_code":"04JE070PY","search_string":"  anaicut vellore "},"bbox":[78.9356,12.7804,78.9356,12.7804]},{"type":"Feature","geometry":{"type":"Point","coordinates":[79.1017,12.9757]},"properties":{"district":"Vellore","taluk":"Katpadi","village":"L G  Puthur","name":"L.G. Puthur","area_type":"Rural","shop_code":"04HP166PN","search_string":"  katpadi vellore "},"bbox":[79.1017,12.9757,79.1017,12.9757]},{"type":"Feature","geometry":{"type":"Point","coordinates":[78.898,12.6864]},"properties":{"district":"Vellore","taluk":"Anaicut","village":"Thongumalai","name":"Mulluvadikudigam","area_type":"Rural","shop_code":"04JE064PN","search_string":"  anaicut vellore "},"bbox":[78.898,12.6864,78.898,12.6864]},{"type":"Feature","geometry":{"type":"Point","coordinates":[78.8771,12.6871]},"properties":{"district":"Vellore","taluk":"Anaicut","village":"Melarasampattu","name":"Melarasampattu","area_type":"Rural","shop_code":"04JE063PY","search_string":"  anaicut vellore "},"bbox":[78.8771,12.6871,78.8771,12.6871]},{"type":"Feature","geometry":{"type":"Point","coordinates":[78.8067,12.698]},"properties":{"district":"Vellore","taluk":"Anaicut","village":"Kallaparai","name":"Kallaparai","area_type":"Rural","shop_code":"04IE050PN","search_string":"  anaicut vellore "},"bbox":[78.8067,12.698,78.8067,12.698]},{"type":"Feature","geometry":{"type":"Point","coordinates":[78.8123,12.7039]},"properties":{"district":"Vellore","taluk":"Anaicut","village":"Asanampattu","name":"Asanampattu","area_type":"Rural","shop_code":"04IE049PY","search_string":"  anaicut vellore "},"bbox":[78.8123,12.7039,78.8123,12.7039]},{"type":"Feature","geometry":{"type":"Point","coordinates":[78.8122,12.704]},"properties":{"district":"Vellore","taluk":"Anaicut","village":"Asanampattu","name":"Asanampattu 2","area_type":"Rural","shop_code":"04IE049P1","search_string":"  anaicut vellore "},"bbox":[78.8122,12.704,78.8122,12.704]},{"type":"Feature","geometry":{"type":"Point","coordinates":[78.9984,12.7126]},"properties":{"district":"Vellore","taluk":"Anaicut","village":"Peenjamanthai","name":"Nekkini","area_type":"Rural","shop_code":"04JE068P1","search_string":"  anaicut vellore "},"bbox":[78.9984,12.7126,78.9984,12.7126]},{"type":"Feature","geometry":{"type":"Point","coordinates":[78.9984,12.7128]},"properties":{"district":"Vellore","taluk":"Anaicut","village":"Palampettu","name":"Palampet","area_type":"Rural","shop_code":"04JE069P1","search_string":"  anaicut vellore "},"bbox":[78.9984,12.7128,78.9984,12.7128]},{"type":"Feature","geometry":{"type":"Point","coordinates":[78.8727,12.7138]},"properties":{"district":"Vellore","taluk":"Anaicut","village":"Vannanthangal","name":"Vannanthangal","area_type":"Rural","shop_code":"04JE062PN","search_string":"  anaicut vellore "},"bbox":[78.8727,12.7138,78.8727,12.7138]},{"type":"Feature","geometry":{"type":"Point","coordinates":[78.9457,12.7146]},"properties":{"district":"Vellore","taluk":"Anaicut","village":"Serpadi","name":"Thenthoor","area_type":"Rural","shop_code":"04JE066P1","search_string":"  anaicut vellore "},"bbox":[78.9457,12.7146,78.9457,12.7146]},{"type":"Feature","geometry":{"type":"Point","coordinates":[78.9748,12.7206]},"properties":{"district":"Vellore","taluk":"Anaicut","village":"Peenjamanthai","name":"Thongumalai","area_type":"Rural","shop_code":"04JE068PY","search_string":"  anaicut vellore "},"bbox":[78.9748,12.7206,78.9748,12.7206]},{"type":"Feature","geometry":{"type":"Point","coordinates":[78.8838,12.7219]},"properties":{"district":"Vellore","taluk":"Anaicut","village":"Umayampattu","name":"Umayampattu","area_type":"Rural","shop_code":"04JE059PN","search_string":"  anaicut vellore "},"bbox":[78.8838,12.7219,78.8838,12.7219]},{"type":"Feature","geometry":{"type":"Point","coordinates":[78.8239,12.7262]},"properties":{"district":"Vellore","taluk":"Anaicut","village":"Thenpudupatttu","name":"Thenpudupatttu","area_type":"Rural","shop_code":"04IE047PN","search_string":"  anaicut vellore "},"bbox":[78.8239,12.7262,78.8239,12.7262]},{"type":"Feature","geometry":{"type":"Point","coordinates":[78.891,12.7281]},"properties":{"district":"Vellore","taluk":"Anaicut","village":"Katharikuppam","name":"Katharikuppam","area_type":"Rural","shop_code":"04JE061PN","search_string":"  anaicut vellore "},"bbox":[78.891,12.7281,78.891,12.7281]},{"type":"Feature","geometry":{"type":"Point","coordinates":[78.9751,12.7314]},"properties":{"district":"Vellore","taluk":"Anaicut","village":"Peenjamanthai","name":"Konoour","area_type":"Rural","shop_code":"04JE068P2","search_string":"  anaicut vellore "},"bbox":[78.9751,12.7314,78.9751,12.7314]},{"type":"Feature","geometry":{"type":"Point","coordinates":[78.97,12.7404]},"properties":{"district":"Vellore","taluk":"Anaicut","village":"Peenjamanthai","name":"Peenjamanthai","area_type":"Rural","shop_code":"04JE069PY","search_string":"  anaicut vellore "},"bbox":[78.97,12.7404,78.97,12.7404]},{"type":"Feature","geometry":{"type":"Point","coordinates":[78.8302,12.7409]},"properties":{"district":"Vellore","taluk":"Anaicut","village":"Melpallipattu","name":"Melpallipattu","area_type":"Rural","shop_code":"04IE048PN","search_string":"  anaicut vellore "},"bbox":[78.8302,12.7409,78.8302,12.7409]},{"type":"Feature","geometry":{"type":"Point","coordinates":[78.8923,12.7447]},"properties":{"district":"Vellore","taluk":"Anaicut","village":"Gengasanikuppam","name":"Gengasanikuppam","area_type":"Rural","shop_code":"04JE060PN","search_string":"  anaicut vellore "},"bbox":[78.8923,12.7447,78.8923,12.7447]},{"type":"Feature","geometry":{"type":"Point","coordinates":[78.8304,12.7465]},"properties":{"district":"Vellore","taluk":"Anaicut","village":"Pakkampalayam","name":"Pakkampalayam","area_type":"Rural","shop_code":"04IE046PN","search_string":"  anaicut vellore "},"bbox":[78.8304,12.7465,78.8304,12.7465]},{"type":"Feature","geometry":{"type":"Point","coordinates":[78.8826,12.7468]},"properties":{"district":"Vellore","taluk":"Anaicut","village":"Melarasampattu","name":"Theertahm","area_type":"Rural","shop_code":"04JE063P1","search_string":"  anaicut vellore "},"bbox":[78.8826,12.7468,78.8826,12.7468]},{"type":"Feature","geometry":{"type":"Point","coordinates":[78.8321,12.7519]},"properties":{"district":"Vellore","taluk":"Anaicut","village":"Pakkam","name":"Pakkam","area_type":"Rural","shop_code":"04IE045PN","search_string":"  anaicut vellore "},"bbox":[78.8321,12.7519,78.8321,12.7519]},{"type":"Feature","geometry":{"type":"Point","coordinates":[78.8925,12.7526]},"properties":{"district":"Vellore","taluk":"Anaicut","village":"Serpadi","name":"Serpadi","area_type":"Rural","shop_code":"04JE065PN","search_string":"  anaicut vellore "},"bbox":[78.8925,12.7526,78.8925,12.7526]},{"type":"Feature","geometry":{"type":"Point","coordinates":[78.8841,12.7531]},"properties":{"district":"Vellore","taluk":"Anaicut","village":"Madayapattu","name":"Madayapattu","area_type":"Rural","shop_code":"04JE058PN","search_string":"  anaicut vellore "},"bbox":[78.8841,12.7531,78.8841,12.7531]},{"type":"Feature","geometry":{"type":"Point","coordinates":[78.8669,12.7536]},"properties":{"district":"Vellore","taluk":"Anaicut","village":"Atthikuppam","name":"Atthikuppam","area_type":"Rural","shop_code":"04JE057PN","search_string":"  anaicut vellore "},"bbox":[78.8669,12.7536,78.8669,12.7536]},{"type":"Feature","geometry":{"type":"Point","coordinates":[78.9099,12.7552]},"properties":{"district":"Vellore","taluk":"Anaicut","village":"Serpadi","name":"Periya Eriyoor","area_type":"Rural","shop_code":"04JE066PY","search_string":"  anaicut vellore "},"bbox":[78.9099,12.7552,78.9099,12.7552]},{"type":"Feature","geometry":{"type":"Point","coordinates":[78.9934,12.7569]},"properties":{"district":"Vellore","taluk":"Anaicut","village":"Kizhkothur","name":"Elanthapudur","area_type":"Rural","shop_code":"04JE071P1","search_string":"  anaicut vellore "},"bbox":[78.9934,12.7569,78.9934,12.7569]},{"type":"Feature","geometry":{"type":"Point","coordinates":[78.836,12.7599]},"properties":{"district":"Vellore","taluk":"Anaicut","village":"Chinnapallikuppam","name":"Chinnapallikuppam","area_type":"Rural","shop_code":"04IE044PN","search_string":"  anaicut vellore "},"bbox":[78.836,12.7599,78.836,12.7599]},{"type":"Feature","geometry":{"type":"Point","coordinates":[78.875,12.7607]},"properties":{"district":"Vellore","taluk":"Anaicut","village":"Nemandhapuram","name":"Nemandapuram","area_type":"Rural","shop_code":"04JE055PN","search_string":"  anaicut vellore "},"bbox":[78.875,12.7607,78.875,12.7607]},{"type":"Feature","geometry":{"type":"Point","coordinates":[79.0259,12.7615]},"properties":{"district":"Vellore","taluk":"Anaicut","village":"Jarthankoilai","name":"Jarthankoilai","area_type":"Rural","shop_code":"04JE071P2","search_string":"  anaicut vellore "},"bbox":[79.0259,12.7615,79.0259,12.7615]},{"type":"Feature","geometry":{"type":"Point","coordinates":[78.9206,12.7658]},"properties":{"district":"Vellore","taluk":"Anaicut","village":"Odugathur","name":"K.G.Eriyoor","area_type":"Rural","shop_code":"04JE067PN","search_string":"  anaicut vellore "},"bbox":[78.9206,12.7658,78.9206,12.7658]},{"type":"Feature","geometry":{"type":"Point","coordinates":[78.8701,12.7668]},"properties":{"district":"Vellore","taluk":"Anaicut","village":"Nemandhapuram","name":"Otteripalayam","area_type":"Rural","shop_code":"04JE056PN","search_string":"  anaicut vellore "},"bbox":[78.8701,12.7668,78.8701,12.7668]},{"type":"Feature","geometry":{"type":"Point","coordinates":[78.885,12.7672]},"properties":{"district":"Vellore","taluk":"Anaicut","village":"Odugathur","name":"Odugathur","area_type":"Rural","shop_code":"04JE054PY","search_string":"  anaicut vellore "},"bbox":[78.885,12.7672,78.885,12.7672]},{"type":"Feature","geometry":{"type":"Point","coordinates":[78.8835,12.7673]},"properties":{"district":"Vellore","taluk":"Anaicut","village":"Odugathur","name":"Odugathur","area_type":"Urban","shop_code":"04JB034PN","search_string":"  anaicut vellore "},"bbox":[78.8835,12.7673,78.8835,12.7673]},{"type":"Feature","geometry":{"type":"Point","coordinates":[78.9338,12.7676]},"properties":{"district":"Vellore","taluk":"Anaicut","village":"Pinnathurai","name":"Muthu Kumara Malai","area_type":"Rural","shop_code":"04JE070P1","search_string":"  anaicut vellore "},"bbox":[78.9338,12.7676,78.9338,12.7676]},{"type":"Feature","geometry":{"type":"Point","coordinates":[78.8445,12.7712]},"properties":{"district":"Vellore","taluk":"Anaicut","village":"Kuppampalayam","name":"Kuppampalayam","area_type":"Rural","shop_code":"04IE043PN","search_string":"  anaicut vellore "},"bbox":[78.8445,12.7712,78.8445,12.7712]},{"type":"Feature","geometry":{"type":"Point","coordinates":[78.874,12.7722]},"properties":{"district":"Vellore","taluk":"Anaicut","village":"Odugathur","name":"Venganapalayam","area_type":"Rural","shop_code":"04JE054P1","search_string":"  anaicut vellore "},"bbox":[78.874,12.7722,78.874,12.7722]},{"type":"Feature","geometry":{"type":"Point","coordinates":[78.8405,12.7737]},"properties":{"district":"Vellore","taluk":"Anaicut","village":"Kollakottai","name":"Kollakottai","area_type":"Rural","shop_code":"04IE042PN","search_string":"  anaicut vellore "},"bbox":[78.8405,12.7737,78.8405,12.7737]},{"type":"Feature","geometry":{"type":"Point","coordinates":[78.8483,12.7799]},"properties":{"district":"Vellore","taluk":"Anaicut","village":"Arimalai","name":"Arimalai","area_type":"Rural","shop_code":"04IE041PN","search_string":"  anaicut vellore "},"bbox":[78.8483,12.7799,78.8483,12.7799]},{"type":"Feature","geometry":{"type":"Point","coordinates":[78.8772,12.7815]},"properties":{"district":"Vellore","taluk":"Anaicut","village":"Veppankuppam","name":"Veppankuppam","area_type":"Rural","shop_code":"04IE051PN","search_string":"  anaicut vellore "},"bbox":[78.8772,12.7815,78.8772,12.7815]},{"type":"Feature","geometry":{"type":"Point","coordinates":[78.8549,12.7823]},"properties":{"district":"Vellore","taluk":"Anaicut","village":"Nedumipalayam","name":"Nedumipalayam","area_type":"Rural","shop_code":"04IE040PN","search_string":"  anaicut vellore "},"bbox":[78.8549,12.7823,78.8549,12.7823]},{"type":"Feature","geometry":{"type":"Point","coordinates":[78.8736,12.7825]},"properties":{"district":"Vellore","taluk":"Anaicut","village":"Kuppampattu","name":"Kuppampattu","area_type":"Rural","shop_code":"04IE052PN","search_string":"  anaicut vellore "},"bbox":[78.8736,12.7825,78.8736,12.7825]},{"type":"Feature","geometry":{"type":"Point","coordinates":[78.8747,12.7941]},"properties":{"district":"Vellore","taluk":"Anaicut","village":"Palapadi","name":"Palapadi","area_type":"Rural","shop_code":"04IE039PN","search_string":"  anaicut vellore "},"bbox":[78.8747,12.7941,78.8747,12.7941]},{"type":"Feature","geometry":{"type":"Point","coordinates":[78.8793,12.7947]},"properties":{"district":"Vellore","taluk":"Anaicut","village":"Guruvarajapalayam","name":"Guruvarajapalayam","area_type":"Rural","shop_code":"04IE037PN","search_string":"  anaicut vellore "},"bbox":[78.8793,12.7947,78.8793,12.7947]},{"type":"Feature","geometry":{"type":"Point","coordinates":[78.8756,12.7976]},"properties":{"district":"Vellore","taluk":"Anaicut","village":"Aarjathi","name":"Aarjathi","area_type":"Rural","shop_code":"04IE038PN","search_string":"  anaicut vellore "},"bbox":[78.8756,12.7976,78.8756,12.7976]},{"type":"Feature","geometry":{"type":"Point","coordinates":[78.9445,12.7983]},"properties":{"district":"Vellore","taluk":"Anaicut","village":"Kizhkothur","name":"Kizhkothur","area_type":"Rural","shop_code":"04JE071PY","search_string":"  anaicut vellore "},"bbox":[78.9445,12.7983,78.9445,12.7983]},{"type":"Feature","geometry":{"type":"Point","coordinates":[78.8906,12.8095]},"properties":{"district":"Vellore","taluk":"Anaicut","village":"Maratipalayam","name":"Maratipalayam","area_type":"Rural","shop_code":"04IE036PN","search_string":"  anaicut vellore "},"bbox":[78.8906,12.8095,78.8906,12.8095]},{"type":"Feature","geometry":{"type":"Point","coordinates":[78.9486,12.8136]},"properties":{"district":"Vellore","taluk":"Anaicut","village":"Varadalampattu","name":"Varadalampattu","area_type":"Rural","shop_code":"04JE072PN","search_string":"  anaicut vellore "},"bbox":[78.9486,12.8136,78.9486,12.8136]},{"type":"Feature","geometry":{"type":"Point","coordinates":[78.8954,12.8147]},"properties":{"district":"Vellore","taluk":"Anaicut","village":"Bodipettai","name":"Bodipettai","area_type":"Rural","shop_code":"04IE053PN","search_string":"  anaicut vellore "},"bbox":[78.8954,12.8147,78.8954,12.8147]},{"type":"Feature","geometry":{"type":"Point","coordinates":[78.8898,12.8199]},"properties":{"district":"Vellore","taluk":"Anaicut","village":"Agaram","name":"Agaram 1","area_type":"Rural","shop_code":"04IE033PN","search_string":"  anaicut vellore "},"bbox":[78.8898,12.8199,78.8898,12.8199]},{"type":"Feature","geometry":{"type":"Point","coordinates":[78.9473,12.8229]},"properties":{"district":"Vellore","taluk":"Anaicut","village":"Ongappadi","name":"Ongappadi","area_type":"Rural","shop_code":"04JE081PN","search_string":"  anaicut vellore "},"bbox":[78.9473,12.8229,78.9473,12.8229]},{"type":"Feature","geometry":{"type":"Point","coordinates":[78.889,12.8256]},"properties":{"district":"Vellore","taluk":"Anaicut","village":"Agaram","name":"Agaram 2","area_type":"Rural","shop_code":"04IE034PN","search_string":"  anaicut vellore "},"bbox":[78.889,12.8256,78.889,12.8256]},{"type":"Feature","geometry":{"type":"Point","coordinates":[78.937,12.8285]},"properties":{"district":"Vellore","taluk":"Anaicut","village":"Ongappadi","name":"Chenrayankottai","area_type":"Rural","shop_code":"04JE080PN","search_string":"  anaicut vellore "},"bbox":[78.937,12.8285,78.937,12.8285]},{"type":"Feature","geometry":{"type":"Point","coordinates":[78.8877,12.831]},"properties":{"district":"Vellore","taluk":"Anaicut","village":"Tholapalli","name":"Tholapalli","area_type":"Rural","shop_code":"04IE035PY","search_string":"  anaicut vellore "},"bbox":[78.8877,12.831,78.8877,12.831]},{"type":"Feature","geometry":{"type":"Point","coordinates":[78.9007,12.8328]},"properties":{"district":"Vellore","taluk":"Anaicut","village":"Mugamathupuram","name":"Muhammedpuram","area_type":"Rural","shop_code":"04JE077PN","search_string":"  anaicut vellore "},"bbox":[78.9007,12.8328,78.9007,12.8328]},{"type":"Feature","geometry":{"type":"Point","coordinates":[78.9433,12.8334]},"properties":{"district":"Vellore","taluk":"Anaicut","village":"Mugamathupuram","name":"Picthanatham","area_type":"Rural","shop_code":"04JE078PN","search_string":"  anaicut vellore "},"bbox":[78.9433,12.8334,78.9433,12.8334]},{"type":"Feature","geometry":{"type":"Point","coordinates":[78.8827,12.8352]},"properties":{"district":"Vellore","taluk":"Anaicut","village":"Kadalaikulam","name":"Kadalaikulam","area_type":"Rural","shop_code":"04IE035P1","search_string":"  anaicut vellore "},"bbox":[78.8827,12.8352,78.8827,12.8352]},{"type":"Feature","geometry":{"type":"Point","coordinates":[79.0549,12.837]},"properties":{"district":"Vellore","taluk":"Anaicut","village":"Athiyoor","name":"Sivanathapuram","area_type":"Rural","shop_code":"04JE103PN","search_string":"  anaicut vellore "},"bbox":[79.0549,12.837,79.0549,12.837]},{"type":"Feature","geometry":{"type":"Point","coordinates":[78.9237,12.8423]},"properties":{"district":"Vellore","taluk":"Anaicut","village":"Kizhkrishnapuram","name":"Kizhkrishnapuram","area_type":"Rural","shop_code":"04JE076PN","search_string":"  anaicut vellore "},"bbox":[78.9237,12.8423,78.9237,12.8423]},{"type":"Feature","geometry":{"type":"Point","coordinates":[78.9228,12.8426]},"properties":{"district":"Vellore","taluk":"Anaicut","village":"Karadikudi","name":"Karadikudi","area_type":"Rural","shop_code":"04JE079PN","search_string":"  anaicut vellore "},"bbox":[78.9228,12.8426,78.9228,12.8426]},{"type":"Feature","geometry":{"type":"Point","coordinates":[78.8907,12.8441]},"properties":{"district":"Vellore","taluk":"Anaicut","village":"Agraharam","name":"Agraharam","area_type":"Rural","shop_code":"04IE032PY","search_string":"  anaicut vellore "},"bbox":[78.8907,12.8441,78.8907,12.8441]},{"type":"Feature","geometry":{"type":"Point","coordinates":[78.8813,12.8442]},"properties":{"district":"Vellore","taluk":"Anaicut","village":"Valayalkarapatti","name":"Valayalkarapatti","area_type":"Rural","shop_code":"04IE032P1","search_string":"  anaicut vellore "},"bbox":[78.8813,12.8442,78.8813,12.8442]},{"type":"Feature","geometry":{"type":"Point","coordinates":[78.9179,12.8447]},"properties":{"district":"Vellore","taluk":"Anaicut","village":"Devichettikuppam","name":"Aandikottai","area_type":"Rural","shop_code":"04JE083PN","search_string":"  anaicut vellore "},"bbox":[78.9179,12.8447,78.9179,12.8447]},{"type":"Feature","geometry":{"type":"Point","coordinates":[78.9245,12.8484]},"properties":{"district":"Vellore","taluk":"Anaicut","village":"Devichettikuppam","name":"Devichettikuppam","area_type":"Rural","shop_code":"04JE084PN","search_string":"  anaicut vellore "},"bbox":[78.9245,12.8484,78.9245,12.8484]},{"type":"Feature","geometry":{"type":"Point","coordinates":[78.8981,12.8499]},"properties":{"district":"Vellore","taluk":"Anaicut","village":"Karunkali","name":"Karunkali","area_type":"Rural","shop_code":"04JE074PN","search_string":"  anaicut vellore "},"bbox":[78.8981,12.8499,78.8981,12.8499]},{"type":"Feature","geometry":{"type":"Point","coordinates":[78.889,12.8503]},"properties":{"district":"Vellore","taluk":"Anaicut","village":"Karunkali","name":"Kuttapalli","area_type":"Rural","shop_code":"04JE073PN","search_string":"  anaicut vellore "},"bbox":[78.889,12.8503,78.889,12.8503]},{"type":"Feature","geometry":{"type":"Point","coordinates":[78.9367,12.8512]},"properties":{"district":"Vellore","taluk":"Anaicut","village":"Ongappadi","name":"Rajaapuram","area_type":"Rural","shop_code":"04JE082PN","search_string":"  anaicut vellore "},"bbox":[78.9367,12.8512,78.9367,12.8512]},{"type":"Feature","geometry":{"type":"Point","coordinates":[78.9102,12.8534]},"properties":{"district":"Vellore","taluk":"Anaicut","village":"Thippasamudram","name":"Kuchipalayam","area_type":"Rural","shop_code":"04JE159PN","search_string":"  anaicut vellore "},"bbox":[78.9102,12.8534,78.9102,12.8534]},{"type":"Feature","geometry":{"type":"Point","coordinates":[78.9635,12.8538]},"properties":{"district":"Vellore","taluk":"Anaicut","village":"Unai Vaniyambadi","name":"Eriputhur","area_type":"Rural","shop_code":"04JE085PN","search_string":"  anaicut vellore "},"bbox":[78.9635,12.8538,78.9635,12.8538]},{"type":"Feature","geometry":{"type":"Point","coordinates":[79.0496,12.8579]},"properties":{"district":"Vellore","taluk":"Anaicut","village":"Athiyoor","name":"Athiyoor","area_type":"Rural","shop_code":"04JE104PN","search_string":"  anaicut vellore "},"bbox":[79.0496,12.8579,79.0496,12.8579]},{"type":"Feature","geometry":{"type":"Point","coordinates":[78.988,12.8617]},"properties":{"district":"Vellore","taluk":"Anaicut","village":"Appukkal","name":"Appukkal","area_type":"Rural","shop_code":"04JE087PY","search_string":"  anaicut vellore "},"bbox":[78.988,12.8617,78.988,12.8617]},{"type":"Feature","geometry":{"type":"Point","coordinates":[79.047,12.8627]},"properties":{"district":"Vellore","taluk":"Anaicut","village":"Boodhur","name":"Govindareddipalayam","area_type":"Rural","shop_code":"04JE102PN","search_string":"  anaicut vellore "},"bbox":[79.047,12.8627,79.047,12.8627]},{"type":"Feature","geometry":{"type":"Point","coordinates":[78.9823,12.863]},"properties":{"district":"Vellore","taluk":"Anaicut","village":"Appukkal","name":"Reddiyur","area_type":"Rural","shop_code":"04JE087P1","search_string":"  anaicut vellore "},"bbox":[78.9823,12.863,78.9823,12.863]},{"type":"Feature","geometry":{"type":"Point","coordinates":[79.0599,12.8639]},"properties":{"district":"Vellore","taluk":"Anaicut","village":"Ussoor","name":"Usoor","area_type":"Rural","shop_code":"04JE107PN","search_string":"  anaicut vellore "},"bbox":[79.0599,12.8639,79.0599,12.8639]},{"type":"Feature","geometry":{"type":"Point","coordinates":[78.9649,12.8652]},"properties":{"district":"Vellore","taluk":"Anaicut","village":"Unai Vaniyambadi","name":"Narayanapuram","area_type":"Rural","shop_code":"04JE091P1","search_string":"  anaicut vellore "},"bbox":[78.9649,12.8652,78.9649,12.8652]},{"type":"Feature","geometry":{"type":"Point","coordinates":[79.0597,12.8652]},"properties":{"district":"Vellore","taluk":"Anaicut","village":"Ussoor","name":"Veerareddipalayam","area_type":"Rural","shop_code":"04JE108PN","search_string":"  anaicut vellore "},"bbox":[79.0597,12.8652,79.0597,12.8652]},{"type":"Feature","geometry":{"type":"Point","coordinates":[78.928,12.866]},"properties":{"district":"Vellore","taluk":"Anaicut","village":"Othiyathur","name":"Othiyathur","area_type":"Rural","shop_code":"04JE030PN","search_string":"  anaicut vellore "},"bbox":[78.928,12.866,78.928,12.866]},{"type":"Feature","geometry":{"type":"Point","coordinates":[78.9139,12.8665]},"properties":{"district":"Vellore","taluk":"Anaicut","village":"Thippasamudram","name":"Thippasamudram","area_type":"Rural","shop_code":"04JE075PN","search_string":"  anaicut vellore "},"bbox":[78.9139,12.8665,78.9139,12.8665]},{"type":"Feature","geometry":{"type":"Point","coordinates":[79.0349,12.8678]},"properties":{"district":"Vellore","taluk":"Anaicut","village":"Pulimedu","name":"Pulimedu","area_type":"Rural","shop_code":"04JE099PN","search_string":"  anaicut vellore "},"bbox":[79.0349,12.8678,79.0349,12.8678]},{"type":"Feature","geometry":{"type":"Point","coordinates":[79.0648,12.8678]},"properties":{"district":"Vellore","taluk":"Anaicut","village":"Sekkanoor","name":"Sekkanoor","area_type":"Rural","shop_code":"04JE105PY","search_string":"  anaicut vellore "},"bbox":[79.0648,12.8678,79.0648,12.8678]},{"type":"Feature","geometry":{"type":"Point","coordinates":[78.9275,12.8684]},"properties":{"district":"Vellore","taluk":"Anaicut","village":"Kommalankuttai","name":"Kommalankuttai","area_type":"Rural","shop_code":"04JE031PN","search_string":"  anaicut vellore "},"bbox":[78.9275,12.8684,78.9275,12.8684]},{"type":"Feature","geometry":{"type":"Point","coordinates":[78.9772,12.8726]},"properties":{"district":"Vellore","taluk":"Anaicut","village":"Unai Vaniyambadi","name":"Unai Vaniyambadi","area_type":"Rural","shop_code":"04JE086PN","search_string":"  anaicut vellore "},"bbox":[78.9772,12.8726,78.9772,12.8726]},{"type":"Feature","geometry":{"type":"Point","coordinates":[79.0314,12.8733]},"properties":{"district":"Vellore","taluk":"Anaicut","village":"Elavampadi","name":"Kudisai","area_type":"Rural","shop_code":"04JE098PN","search_string":"  anaicut vellore "},"bbox":[79.0314,12.8733,79.0314,12.8733]},{"type":"Feature","geometry":{"type":"Point","coordinates":[78.9943,12.874]},"properties":{"district":"Vellore","taluk":"Anaicut","village":"Genganallur","name":"Chinna  Genganallur","area_type":"Rural","shop_code":"04JE090PN","search_string":"  anaicut vellore "},"bbox":[78.9943,12.874,78.9943,12.874]},{"type":"Feature","geometry":{"type":"Point","coordinates":[79.0733,12.8756]},"properties":{"district":"Vellore","taluk":"Anaicut","village":"Sekkanoor","name":"Periyashekkanur","area_type":"Rural","shop_code":"04JE105P1","search_string":"  anaicut vellore "},"bbox":[79.0733,12.8756,79.0733,12.8756]},{"type":"Feature","geometry":{"type":"Point","coordinates":[79.1011,12.8763]},"properties":{"district":"Vellore","taluk":"Anaicut","village":"Murukeri","name":"Murukeri","area_type":"Rural","shop_code":"04JC023PN","search_string":"  anaicut vellore "},"bbox":[79.1011,12.8763,79.1011,12.8763]},{"type":"Feature","geometry":{"type":"Point","coordinates":[79.0519,12.8767]},"properties":{"district":"Vellore","taluk":"Anaicut","village":"Budur","name":"Budur","area_type":"Rural","shop_code":"04JE101PN","search_string":"  anaicut vellore "},"bbox":[79.0519,12.8767,79.0519,12.8767]},{"type":"Feature","geometry":{"type":"Point","coordinates":[78.9876,12.8782]},"properties":{"district":"Vellore","taluk":"Anaicut","village":"Anaicut","name":"ANAICUT","area_type":"Rural","shop_code":"04JE088PN","search_string":"  anaicut vellore "},"bbox":[78.9876,12.8782,78.9876,12.8782]},{"type":"Feature","geometry":{"type":"Point","coordinates":[79.1005,12.8791]},"properties":{"district":"Vellore","taluk":"Anaicut","village":"Kuppam","name":"Kuppam","area_type":"Rural","shop_code":"04JC021PY","search_string":"  anaicut vellore "},"bbox":[79.1005,12.8791,79.1005,12.8791]},{"type":"Feature","geometry":{"type":"Point","coordinates":[79.0179,12.88]},"properties":{"district":"Vellore","taluk":"Anaicut","village":"Elavampadi","name":"Thaarvazhi","area_type":"Rural","shop_code":"04JE096PN","search_string":"  anaicut vellore "},"bbox":[79.0179,12.88,79.0179,12.88]},{"type":"Feature","geometry":{"type":"Point","coordinates":[78.9736,12.8809]},"properties":{"district":"Vellore","taluk":"Anaicut","village":"Unai Vaniyambadi","name":"Unai","area_type":"Rural","shop_code":"04JE092PN","search_string":"  anaicut vellore "},"bbox":[78.9736,12.8809,78.9736,12.8809]},{"type":"Feature","geometry":{"type":"Point","coordinates":[78.9949,12.8829]},"properties":{"district":"Vellore","taluk":"Anaicut","village":"Genganallur","name":"Genganallur","area_type":"Rural","shop_code":"04JE089PN","search_string":"  anaicut vellore "},"bbox":[78.9949,12.8829,78.9949,12.8829]},{"type":"Feature","geometry":{"type":"Point","coordinates":[79.0137,12.8844]},"properties":{"district":"Vellore","taluk":"Anaicut","village":"Vallandaaramam","name":"Mooligate","area_type":"Rural","shop_code":"04JE094P1","search_string":"  anaicut vellore "},"bbox":[79.0137,12.8844,79.0137,12.8844]},{"type":"Feature","geometry":{"type":"Point","coordinates":[79.0559,12.8855]},"properties":{"district":"Vellore","taluk":"Anaicut","village":"Budur","name":"Budur","area_type":"Rural","shop_code":"04JE100PN","search_string":"  anaicut vellore "},"bbox":[79.0559,12.8855,79.0559,12.8855]},{"type":"Feature","geometry":{"type":"Point","coordinates":[79.0357,12.8863]},"properties":{"district":"Vellore","taluk":"Anaicut","village":"Elavampadi","name":"Elavampadi","area_type":"Rural","shop_code":"04JE097PN","search_string":"  anaicut vellore "},"bbox":[79.0357,12.8863,79.0357,12.8863]},{"type":"Feature","geometry":{"type":"Point","coordinates":[79.0836,12.8879]},"properties":{"district":"Vellore","taluk":"Anaicut","village":"Sembedu","name":"Papathiyappan Sathiram","area_type":"Rural","shop_code":"04JC024P1","search_string":"  anaicut vellore "},"bbox":[79.0836,12.8879,79.0836,12.8879]},{"type":"Feature","geometry":{"type":"Point","coordinates":[78.9092,12.8889]},"properties":{"district":"Vellore","taluk":"Anaicut","village":"Kandhaneri","name":"Chinna Govindambadi","area_type":"Rural","shop_code":"04JE028PN","search_string":"  anaicut vellore "},"bbox":[78.9092,12.8889,78.9092,12.8889]},{"type":"Feature","geometry":{"type":"Point","coordinates":[78.9769,12.8897]},"properties":{"district":"Vellore","taluk":"Anaicut","village":"Unai Vaniyambadi","name":"Unai Mottoor","area_type":"Rural","shop_code":"04JE091PY","search_string":"  anaicut vellore "},"bbox":[78.9769,12.8897,78.9769,12.8897]},{"type":"Feature","geometry":{"type":"Point","coordinates":[79.0679,12.8904]},"properties":{"district":"Vellore","taluk":"Anaicut","village":"Sekkanoor","name":"Jamalpuram","area_type":"Rural","shop_code":"04JE106PN","search_string":"  anaicut vellore "},"bbox":[79.0679,12.8904,79.0679,12.8904]},{"type":"Feature","geometry":{"type":"Point","coordinates":[78.9998,12.8906]},"properties":{"district":"Vellore","taluk":"Anaicut","village":"Vallandaaramam","name":"Velankadu","area_type":"Rural","shop_code":"04JE095PN","search_string":"  anaicut vellore "},"bbox":[78.9998,12.8906,78.9998,12.8906]},{"type":"Feature","geometry":{"type":"Point","coordinates":[79.0412,12.8911]},"properties":{"district":"Vellore","taluk":"Anaicut","village":"Sathiyamangalam","name":"Kammarapalayam","area_type":"Rural","shop_code":"04JE012P1","search_string":"  anaicut vellore "},"bbox":[79.0412,12.8911,79.0412,12.8911]},{"type":"Feature","geometry":{"type":"Point","coordinates":[79.0893,12.8915]},"properties":{"district":"Vellore","taluk":"Anaicut","village":"Kuppam","name":"Pazhaveri","area_type":"Rural","shop_code":"04JC021P1","search_string":"  anaicut vellore "},"bbox":[79.0893,12.8915,79.0893,12.8915]},{"type":"Feature","geometry":{"type":"Point","coordinates":[78.9215,12.8928]},"properties":{"district":"Vellore","taluk":"Anaicut","village":"Brammanamangalam","name":"Brammanamangalam","area_type":"Rural","shop_code":"04JE029PN","search_string":"  anaicut vellore "},"bbox":[78.9215,12.8928,78.9215,12.8928]},{"type":"Feature","geometry":{"type":"Point","coordinates":[79.0224,12.8931]},"properties":{"district":"Vellore","taluk":"Anaicut","village":"Seduvalai","name":"Maruthavallipalayam","area_type":"Rural","shop_code":"04JE093PN","search_string":"  anaicut vellore "},"bbox":[79.0224,12.8931,79.0224,12.8931]},{"type":"Feature","geometry":{"type":"Point","coordinates":[79.091,12.8943]},"properties":{"district":"Vellore","taluk":"Anaicut","village":"Sembedu","name":"Sembedu","area_type":"Rural","shop_code":"04JC024PY","search_string":"  anaicut vellore "},"bbox":[79.091,12.8943,79.091,12.8943]},{"type":"Feature","geometry":{"type":"Point","coordinates":[79.0507,12.8949]},"properties":{"district":"Vellore","taluk":"Anaicut","village":"Poigai","name":"Poigai Mottur","area_type":"Rural","shop_code":"04JE013PN","search_string":"  anaicut vellore "},"bbox":[79.0507,12.8949,79.0507,12.8949]},{"type":"Feature","geometry":{"type":"Point","coordinates":[79.0704,12.8967]},"properties":{"district":"Vellore","taluk":"Anaicut","village":"Ussoor","name":"Thelloor","area_type":"Rural","shop_code":"04JE109PN","search_string":"  anaicut vellore "},"bbox":[79.0704,12.8967,79.0704,12.8967]},{"type":"Feature","geometry":{"type":"Point","coordinates":[78.9979,12.8985]},"properties":{"district":"Vellore","taluk":"Anaicut","village":"Vasanthanadai","name":"Vasanthanadai","area_type":"Rural","shop_code":"04JE022PN","search_string":"  anaicut vellore "},"bbox":[78.9979,12.8985,78.9979,12.8985]},{"type":"Feature","geometry":{"type":"Point","coordinates":[79.0112,12.9004]},"properties":{"district":"Vellore","taluk":"Anaicut","village":"Vallandaaramam","name":"Vallandramam","area_type":"Rural","shop_code":"04JE094PY","search_string":"  anaicut vellore "},"bbox":[79.0112,12.9004,79.0112,12.9004]},{"type":"Feature","geometry":{"type":"Point","coordinates":[78.9201,12.9017]},"properties":{"district":"Vellore","taluk":"Anaicut","village":"Kandhaneri","name":"Govindambadi","area_type":"Rural","shop_code":"04JE027PN","search_string":"  anaicut vellore "},"bbox":[78.9201,12.9017,78.9201,12.9017]},{"type":"Feature","geometry":{"type":"Point","coordinates":[79.038,12.9018]},"properties":{"district":"Vellore","taluk":"Anaicut","village":"Sathiyamangalam","name":"Ramapuram","area_type":"Rural","shop_code":"04JE014PN","search_string":"  anaicut vellore "},"bbox":[79.038,12.9018,79.038,12.9018]},{"type":"Feature","geometry":{"type":"Point","coordinates":[79.006,12.902]},"properties":{"district":"Vellore","taluk":"Anaicut","village":"Vasanthanadai","name":"Okkanavaram","area_type":"Rural","shop_code":"04JE021PN","search_string":"  anaicut vellore "},"bbox":[79.006,12.902,79.006,12.902]},{"type":"Feature","geometry":{"type":"Point","coordinates":[78.9436,12.9035]},"properties":{"district":"Vellore","taluk":"Anaicut","village":"Pallikonda","name":"Pallikonda 4","area_type":"Urban","shop_code":"04JB033PN","search_string":"  anaicut vellore "},"bbox":[78.9436,12.9035,78.9436,12.9035]},{"type":"Feature","geometry":{"type":"Point","coordinates":[78.9411,12.9037]},"properties":{"district":"Vellore","taluk":"Anaicut","village":"Pallikonda","name":"Pallikonda 1","area_type":"Urban","shop_code":"04JB031PN","search_string":"  anaicut vellore "},"bbox":[78.9411,12.9037,78.9411,12.9037]},{"type":"Feature","geometry":{"type":"Point","coordinates":[78.923,12.9039]},"properties":{"district":"Vellore","taluk":"Anaicut","village":"Kandhaneri","name":"Vettuvanam","area_type":"Rural","shop_code":"04JE026PN","search_string":"  anaicut vellore "},"bbox":[78.923,12.9039,78.923,12.9039]},{"type":"Feature","geometry":{"type":"Point","coordinates":[78.9586,12.9077]},"properties":{"district":"Vellore","taluk":"Anaicut","village":"Kandhaneri","name":"Kilachur","area_type":"Rural","shop_code":"04JE025PY","search_string":"  anaicut vellore "},"bbox":[78.9586,12.9077,78.9586,12.9077]},{"type":"Feature","geometry":{"type":"Point","coordinates":[78.9931,12.9097]},"properties":{"district":"Vellore","taluk":"Anaicut","village":"Iraivankadu","name":"Kaatukollai","area_type":"Rural","shop_code":"04JE020PN","search_string":"  anaicut vellore "},"bbox":[78.9931,12.9097,78.9931,12.9097]},{"type":"Feature","geometry":{"type":"Point","coordinates":[78.9426,12.9121]},"properties":{"district":"Vellore","taluk":"Anaicut","village":"Pallikonda","name":"Pallikonda 3","area_type":"Urban","shop_code":"04JB032PN","search_string":"  anaicut vellore "},"bbox":[78.9426,12.9121,78.9426,12.9121]},{"type":"Feature","geometry":{"type":"Point","coordinates":[78.9427,12.9124]},"properties":{"district":"Vellore","taluk":"Anaicut","village":"Pallikonda","name":"Pallikonda 1","area_type":"Urban","shop_code":"04JB030PN","search_string":"  anaicut vellore "},"bbox":[78.9427,12.9124,78.9427,12.9124]},{"type":"Feature","geometry":{"type":"Point","coordinates":[78.9745,12.9131]},"properties":{"district":"Vellore","taluk":"Anaicut","village":"Kandhaneri","name":"Kandaneri","area_type":"Rural","shop_code":"04JE024PN","search_string":"  anaicut vellore "},"bbox":[78.9745,12.9131,78.9745,12.9131]},{"type":"Feature","geometry":{"type":"Point","coordinates":[79.026,12.9132]},"properties":{"district":"Vellore","taluk":"Anaicut","village":"Seduvalai","name":"Seduvalai - 2","area_type":"Rural","shop_code":"04JE015P1","search_string":"  anaicut vellore "},"bbox":[79.026,12.9132,79.026,12.9132]},{"type":"Feature","geometry":{"type":"Point","coordinates":[79.0554,12.9144]},"properties":{"district":"Vellore","taluk":"Anaicut","village":"Poigai","name":"Samathuvapuram","area_type":"Rural","shop_code":"04JE010PN","search_string":"  anaicut vellore "},"bbox":[79.0554,12.9144,79.0554,12.9144]},{"type":"Feature","geometry":{"type":"Point","coordinates":[79.0478,12.9144]},"properties":{"district":"Vellore","taluk":"Anaicut","village":"Sathiyamangalam","name":"Sathiyamangalam","area_type":"Rural","shop_code":"04JE012PY","search_string":"  anaicut vellore "},"bbox":[79.0478,12.9144,79.0478,12.9144]},{"type":"Feature","geometry":{"type":"Point","coordinates":[78.9773,12.9152]},"properties":{"district":"Vellore","taluk":"Anaicut","village":"Kazhani Pakkam","name":"Kazhani Pakkam","area_type":"Rural","shop_code":"04JE023PN","search_string":"  anaicut vellore "},"bbox":[78.9773,12.9152,78.9773,12.9152]},{"type":"Feature","geometry":{"type":"Point","coordinates":[78.9528,12.9163]},"properties":{"district":"Vellore","taluk":"Anaicut","village":"Kandhaneri","name":"Sri Ramapuram","area_type":"Rural","shop_code":"04JE025P1","search_string":"  anaicut vellore "},"bbox":[78.9528,12.9163,78.9528,12.9163]},{"type":"Feature","geometry":{"type":"Point","coordinates":[79.029,12.9179]},"properties":{"district":"Vellore","taluk":"Anaicut","village":"Virinchipuram","name":"Virinchipuram 3","area_type":"Rural","shop_code":"04JE018PN","search_string":"  anaicut vellore "},"bbox":[79.029,12.9179,79.029,12.9179]},{"type":"Feature","geometry":{"type":"Point","coordinates":[79.0493,12.9186]},"properties":{"district":"Vellore","taluk":"Anaicut","village":"Poigai","name":"Poigai","area_type":"Rural","shop_code":"04JE011PN","search_string":"  anaicut vellore "},"bbox":[79.0493,12.9186,79.0493,12.9186]},{"type":"Feature","geometry":{"type":"Point","coordinates":[79.0266,12.9207]},"properties":{"district":"Vellore","taluk":"Anaicut","village":"Seduvalai","name":"Seduvalai","area_type":"Rural","shop_code":"04JE015PY","search_string":"  anaicut vellore "},"bbox":[79.0266,12.9207,79.0266,12.9207]},{"type":"Feature","geometry":{"type":"Point","coordinates":[79.0238,12.9224]},"properties":{"district":"Vellore","taluk":"Anaicut","village":"Virinchipuram","name":"Virinchipuram","area_type":"Rural","shop_code":"04JE016PN","search_string":"  anaicut vellore "},"bbox":[79.0238,12.9224,79.0238,12.9224]},{"type":"Feature","geometry":{"type":"Point","coordinates":[79,12.9236]},"properties":{"district":"Vellore","taluk":"Anaicut","village":"Iraivankadu","name":"Iraivankadu","area_type":"Rural","shop_code":"04JE019PN","search_string":"  anaicut vellore "},"bbox":[79,12.9236,79,12.9236]},{"type":"Feature","geometry":{"type":"Point","coordinates":[79.02,12.9246]},"properties":{"district":"Vellore","taluk":"Anaicut","village":"Virinchipuram","name":"Virinchipuram 2","area_type":"Rural","shop_code":"04JE017PN","search_string":"  anaicut vellore "},"bbox":[79.02,12.9246,79.02,12.9246]},{"type":"Feature","geometry":{"type":"Point","coordinates":[78.9034,12.853]},"properties":{"district":"Vellore","taluk":"Gudiyatham (Tk)","village":"Pallikuppam","name":"Pudhur Nagar","area_type":"Rural","shop_code":"04IP101P1","search_string":"  gudiyatham (tk) vellore "},"bbox":[78.9034,12.853,78.9034,12.853]},{"type":"Feature","geometry":{"type":"Point","coordinates":[78.8947,12.8596]},"properties":{"district":"Vellore","taluk":"Gudiyatham (Tk)","village":"Pallikuppam","name":"Pallikuppam","area_type":"Rural","shop_code":"04IP101PY","search_string":"  gudiyatham (tk) vellore "},"bbox":[78.8947,12.8596,78.8947,12.8596]},{"type":"Feature","geometry":{"type":"Point","coordinates":[78.8161,12.8643]},"properties":{"district":"Vellore","taluk":"Gudiyatham (Tk)","village":"Idhathpure","name":"Idhathpure","area_type":"Rural","shop_code":"04MP047P1","search_string":"  gudiyatham (tk) vellore "},"bbox":[78.8161,12.8643,78.8161,12.8643]},{"type":"Feature","geometry":{"type":"Point","coordinates":[78.8217,12.8653]},"properties":{"district":"Vellore","taluk":"Gudiyatham (Tk)","village":"Kullithigai","name":"Kullithigai","area_type":"Rural","shop_code":"04MP046PY","search_string":"  gudiyatham (tk) vellore "},"bbox":[78.8217,12.8653,78.8217,12.8653]},{"type":"Feature","geometry":{"type":"Point","coordinates":[78.8259,12.8684]},"properties":{"district":"Vellore","taluk":"Gudiyatham (Tk)","village":"Santhinagar","name":"Santhinagar","area_type":"Rural","shop_code":"04MP046P1","search_string":"  gudiyatham (tk) vellore "},"bbox":[78.8259,12.8684,78.8259,12.8684]},{"type":"Feature","geometry":{"type":"Point","coordinates":[78.824,12.8708]},"properties":{"district":"Vellore","taluk":"Gudiyatham (Tk)","village":"Varathapalayam","name":"Varathapalayam","area_type":"Rural","shop_code":"04MP044P3","search_string":"  gudiyatham (tk) vellore "},"bbox":[78.824,12.8708,78.824,12.8708]},{"type":"Feature","geometry":{"type":"Point","coordinates":[78.8181,12.8732]},"properties":{"district":"Vellore","taluk":"Gudiyatham (Tk)","village":"kizhepatti","name":"Kizhepatti","area_type":"Rural","shop_code":"04MP047PY","search_string":"  gudiyatham (tk) vellore "},"bbox":[78.8181,12.8732,78.8181,12.8732]},{"type":"Feature","geometry":{"type":"Point","coordinates":[78.8305,12.874]},"properties":{"district":"Vellore","taluk":"Gudiyatham (Tk)","village":"Rasampatti","name":"Rasampatti","area_type":"Rural","shop_code":"04MP044P2","search_string":"  gudiyatham (tk) vellore "},"bbox":[78.8305,12.874,78.8305,12.874]},{"type":"Feature","geometry":{"type":"Point","coordinates":[78.836,12.8747]},"properties":{"district":"Vellore","taluk":"Gudiyatham (Tk)","village":"Chinna Dhottalam","name":"Chinna Dhottalam","area_type":"Rural","shop_code":"04MP049PN","search_string":"  gudiyatham (tk) vellore "},"bbox":[78.836,12.8747,78.836,12.8747]},{"type":"Feature","geometry":{"type":"Point","coordinates":[78.898,12.8753]},"properties":{"district":"Vellore","taluk":"Gudiyatham (Tk)","village":"Gollamangalam","name":"Gollamangalam","area_type":"Rural","shop_code":"04IP100PN","search_string":"  gudiyatham (tk) vellore "},"bbox":[78.898,12.8753,78.898,12.8753]},{"type":"Feature","geometry":{"type":"Point","coordinates":[78.8648,12.8819]},"properties":{"district":"Vellore","taluk":"Gudiyatham (Tk)","village":"Vadagathipatti","name":"Vadagathipatti","area_type":"Rural","shop_code":"04IP110P1","search_string":"  gudiyatham (tk) vellore "},"bbox":[78.8648,12.8819,78.8648,12.8819]},{"type":"Feature","geometry":{"type":"Point","coordinates":[78.8293,12.8838]},"properties":{"district":"Vellore","taluk":"Gudiyatham (Tk)","village":"Valathur","name":"Valathur","area_type":"Rural","shop_code":"04MP044PY","search_string":"  gudiyatham (tk) vellore "},"bbox":[78.8293,12.8838,78.8293,12.8838]},{"type":"Feature","geometry":{"type":"Point","coordinates":[78.8709,12.8855]},"properties":{"district":"Vellore","taluk":"Gudiyatham (Tk)","village":"Koothampakkam","name":"Koothampakkam","area_type":"Rural","shop_code":"04IP110PY","search_string":"  gudiyatham (tk) vellore "},"bbox":[78.8709,12.8855,78.8709,12.8855]},{"type":"Feature","geometry":{"type":"Point","coordinates":[78.8227,12.8864]},"properties":{"district":"Vellore","taluk":"Gudiyatham (Tk)","village":"Pariyar Nagar","name":"Pariyar Nagar","area_type":"Rural","shop_code":"04MP044P1","search_string":"  gudiyatham (tk) vellore "},"bbox":[78.8227,12.8864,78.8227,12.8864]},{"type":"Feature","geometry":{"type":"Point","coordinates":[78.8511,12.8867]},"properties":{"district":"Vellore","taluk":"Gudiyatham (Tk)","village":"Pattuvampatti","name":"Pattuvampatti","area_type":"Rural","shop_code":"04MP045P1","search_string":"  gudiyatham (tk) vellore "},"bbox":[78.8511,12.8867,78.8511,12.8867]},{"type":"Feature","geometry":{"type":"Point","coordinates":[78.8268,12.8894]},"properties":{"district":"Vellore","taluk":"Gudiyatham (Tk)","village":"Karunigasamuthiram","name":"Karunigasamuthiram","area_type":"Rural","shop_code":"04MP048PN","search_string":"  gudiyatham (tk) vellore "},"bbox":[78.8268,12.8894,78.8268,12.8894]},{"type":"Feature","geometry":{"type":"Point","coordinates":[78.8418,12.8903]},"properties":{"district":"Vellore","taluk":"Gudiyatham (Tk)","village":"Ulli","name":"Ulli","area_type":"Rural","shop_code":"04MP045PY","search_string":"  gudiyatham (tk) vellore "},"bbox":[78.8418,12.8903,78.8418,12.8903]},{"type":"Feature","geometry":{"type":"Point","coordinates":[78.8688,12.8909]},"properties":{"district":"Vellore","taluk":"Gudiyatham (Tk)","village":"Ananganllor","name":"Ananganallor","area_type":"Rural","shop_code":"04MP026PY","search_string":"  gudiyatham (tk) vellore "},"bbox":[78.8688,12.8909,78.8688,12.8909]},{"type":"Feature","geometry":{"type":"Point","coordinates":[78.8899,12.8926]},"properties":{"district":"Vellore","taluk":"Gudiyatham (Tk)","village":"S N Palayam","name":"S.N.Palayam","area_type":"Rural","shop_code":"04IP099P1","search_string":"  gudiyatham (tk) vellore "},"bbox":[78.8899,12.8926,78.8899,12.8926]},{"type":"Feature","geometry":{"type":"Point","coordinates":[78.895,12.8961]},"properties":{"district":"Vellore","taluk":"Gudiyatham (Tk)","village":"Agaramcherri","name":"Akaramcherri","area_type":"Rural","shop_code":"04IP099PY","search_string":"  gudiyatham (tk) vellore "},"bbox":[78.895,12.8961,78.895,12.8961]},{"type":"Feature","geometry":{"type":"Point","coordinates":[78.8653,12.8968]},"properties":{"district":"Vellore","taluk":"Gudiyatham (Tk)","village":"A Mottur","name":"A.Mottur","area_type":"Rural","shop_code":"04MP026P1","search_string":"  gudiyatham (tk) vellore "},"bbox":[78.8653,12.8968,78.8653,12.8968]},{"type":"Feature","geometry":{"type":"Point","coordinates":[78.8804,12.8995]},"properties":{"district":"Vellore","taluk":"Gudiyatham (Tk)","village":"Kothakuppam","name":"Kothakuppam","area_type":"Rural","shop_code":"04MP032PN","search_string":"  gudiyatham (tk) vellore "},"bbox":[78.8804,12.8995,78.8804,12.8995]},{"type":"Feature","geometry":{"type":"Point","coordinates":[78.8576,12.9001]},"properties":{"district":"Vellore","taluk":"Gudiyatham (Tk)","village":"Singalpadi","name":"Singalpadi","area_type":"Rural","shop_code":"04MP028PN","search_string":"  gudiyatham (tk) vellore "},"bbox":[78.8576,12.9001,78.8576,12.9001]},{"type":"Feature","geometry":{"type":"Point","coordinates":[78.9081,12.9018]},"properties":{"district":"Vellore","taluk":"Gudiyatham (Tk)","village":"Chinnacheri","name":"Chinnacheri","area_type":"Rural","shop_code":"04IP099P2","search_string":"  gudiyatham (tk) vellore "},"bbox":[78.9081,12.9018,78.9081,12.9018]},{"type":"Feature","geometry":{"type":"Point","coordinates":[78.8181,12.9057]},"properties":{"district":"Vellore","taluk":"Gudiyatham (Tk)","village":"Sembedu","name":"Sembedu","area_type":"Rural","shop_code":"04MP060PN","search_string":"  gudiyatham (tk) vellore "},"bbox":[78.8181,12.9057,78.8181,12.9057]},{"type":"Feature","geometry":{"type":"Point","coordinates":[78.8313,12.9058]},"properties":{"district":"Vellore","taluk":"Gudiyatham (Tk)","village":"Sembedu","name":"Pakkiripalli","area_type":"Rural","shop_code":"04MP062P1","search_string":"  gudiyatham (tk) vellore "},"bbox":[78.8313,12.9058,78.8313,12.9058]},{"type":"Feature","geometry":{"type":"Point","coordinates":[78.8097,12.9058]},"properties":{"district":"Vellore","taluk":"Gudiyatham (Tk)","village":"Bangrishekuppam","name":"Bangrishekuppam","area_type":"Rural","shop_code":"04MP061PN","search_string":"  gudiyatham (tk) vellore "},"bbox":[78.8097,12.9058,78.8097,12.9058]},{"type":"Feature","geometry":{"type":"Point","coordinates":[78.859,12.9094]},"properties":{"district":"Vellore","taluk":"Gudiyatham (Tk)","village":"Parvathiyapurram","name":"Parvathiyapurram","area_type":"Rural","shop_code":"04MP027P1","search_string":"  gudiyatham (tk) vellore "},"bbox":[78.859,12.9094,78.859,12.9094]},{"type":"Feature","geometry":{"type":"Point","coordinates":[78.8922,12.9101]},"properties":{"district":"Vellore","taluk":"Gudiyatham (Tk)","village":"Pattu","name":"Pattu","area_type":"Rural","shop_code":"04MP029PY","search_string":"  gudiyatham (tk) vellore "},"bbox":[78.8922,12.9101,78.8922,12.9101]},{"type":"Feature","geometry":{"type":"Point","coordinates":[78.8699,12.9108]},"properties":{"district":"Vellore","taluk":"Gudiyatham (Tk)","village":"Kudanagaram","name":"Kutanagaram","area_type":"Rural","shop_code":"04MP027PY","search_string":"  gudiyatham (tk) vellore "},"bbox":[78.8699,12.9108,78.8699,12.9108]},{"type":"Feature","geometry":{"type":"Point","coordinates":[78.8804,12.9123]},"properties":{"district":"Vellore","taluk":"Gudiyatham (Tk)","village":"Kudanagaram Colony","name":"Kotanagarm Colony","area_type":"Rural","shop_code":"04MP027P2","search_string":"  gudiyatham (tk) vellore "},"bbox":[78.8804,12.9123,78.8804,12.9123]},{"type":"Feature","geometry":{"type":"Point","coordinates":[78.8795,12.9135]},"properties":{"district":"Vellore","taluk":"Gudiyatham (Tk)","village":"Mel lalathur","name":"Mel Halathur","area_type":"Rural","shop_code":"04MP025PY","search_string":"  gudiyatham (tk) vellore "},"bbox":[78.8795,12.9135,78.8795,12.9135]},{"type":"Feature","geometry":{"type":"Point","coordinates":[78.8358,12.9136]},"properties":{"district":"Vellore","taluk":"Gudiyatham (Tk)","village":"Pojanapuram","name":"Pojanapuram","area_type":"Rural","shop_code":"04MP062PY","search_string":"  gudiyatham (tk) vellore "},"bbox":[78.8358,12.9136,78.8358,12.9136]},{"type":"Feature","geometry":{"type":"Point","coordinates":[78.9132,12.9171]},"properties":{"district":"Vellore","taluk":"Gudiyatham (Tk)","village":"olacaci","name":"Olacaci","area_type":"Rural","shop_code":"04MP030PN","search_string":"  gudiyatham (tk) vellore "},"bbox":[78.9132,12.9171,78.9132,12.9171]},{"type":"Feature","geometry":{"type":"Point","coordinates":[78.9203,12.9171]},"properties":{"district":"Vellore","taluk":"Gudiyatham (Tk)","village":"Chiththadhur","name":"Chiththadhur","area_type":"Rural","shop_code":"04MP031PN","search_string":"  gudiyatham (tk) vellore "},"bbox":[78.9203,12.9171,78.9203,12.9171]},{"type":"Feature","geometry":{"type":"Point","coordinates":[78.8915,12.9196]},"properties":{"district":"Vellore","taluk":"Gudiyatham (Tk)","village":"Nadhamedu","name":"Nadhamedu","area_type":"Rural","shop_code":"04MP025P2","search_string":"  gudiyatham (tk) vellore "},"bbox":[78.8915,12.9196,78.8915,12.9196]},{"type":"Feature","geometry":{"type":"Point","coordinates":[78.8237,12.9204]},"properties":{"district":"Vellore","taluk":"Gudiyatham (Tk)","village":"Rajakuppam","name":"Rajakuppam","area_type":"Rural","shop_code":"04MP001PN","search_string":"  gudiyatham (tk) vellore "},"bbox":[78.8237,12.9204,78.8237,12.9204]},{"type":"Feature","geometry":{"type":"Point","coordinates":[78.8533,12.9208]},"properties":{"district":"Vellore","taluk":"Gudiyatham (Tk)","village":"Melmuttukur","name":"Kakkathoppu","area_type":"Rural","shop_code":"04EP034P1","search_string":"  gudiyatham (tk) vellore "},"bbox":[78.8533,12.9208,78.8533,12.9208]},{"type":"Feature","geometry":{"type":"Point","coordinates":[78.8951,12.9209]},"properties":{"district":"Vellore","taluk":"Gudiyatham (Tk)","village":"Alaampattrai","name":"Alaampattrai","area_type":"Rural","shop_code":"04MP029P1","search_string":"  gudiyatham (tk) vellore "},"bbox":[78.8951,12.9209,78.8951,12.9209]},{"type":"Feature","geometry":{"type":"Point","coordinates":[78.8681,12.921]},"properties":{"district":"Vellore","taluk":"Gudiyatham (Tk)","village":"Sevoor","name":"Thettangkuttai","area_type":"Rural","shop_code":"04EP046PN","search_string":"  gudiyatham (tk) vellore "},"bbox":[78.8681,12.921,78.8681,12.921]},{"type":"Feature","geometry":{"type":"Point","coordinates":[78.8364,12.9212]},"properties":{"district":"Vellore","taluk":"Gudiyatham (Tk)","village":"Chettikuppam","name":"Chettikuppam","area_type":"Rural","shop_code":"04MP002PN","search_string":"  gudiyatham (tk) vellore "},"bbox":[78.8364,12.9212,78.8364,12.9212]},{"type":"Feature","geometry":{"type":"Point","coordinates":[78.8615,12.923]},"properties":{"district":"Vellore","taluk":"Gudiyatham (Tk)","village":"Melmuttukur","name":"Melmuttukur","area_type":"Rural","shop_code":"04EP034PY","search_string":"  gudiyatham (tk) vellore "},"bbox":[78.8615,12.923,78.8615,12.923]},{"type":"Feature","geometry":{"type":"Point","coordinates":[78.8467,12.9251]},"properties":{"district":"Vellore","taluk":"Gudiyatham (Tk)","village":"Chettikuppam Colony","name":"Chettikuppam Colony","area_type":"Rural","shop_code":"04MP003PN","search_string":"  gudiyatham (tk) vellore "},"bbox":[78.8467,12.9251,78.8467,12.9251]},{"type":"Feature","geometry":{"type":"Point","coordinates":[78.8823,12.9257]},"properties":{"district":"Vellore","taluk":"Gudiyatham (Tk)","village":"Vadakkupattarai","name":"Vadakkupattarai","area_type":"Urban","shop_code":"04MP025P1","search_string":"  gudiyatham (tk) vellore "},"bbox":[78.8823,12.9257,78.8823,12.9257]},{"type":"Feature","geometry":{"type":"Point","coordinates":[78.8428,12.9273]},"properties":{"district":"Vellore","taluk":"Gudiyatham (Tk)","village":"Chinna Chettikuppam","name":"Chinna Chettikuppam","area_type":"Rural","shop_code":"04MP005PN","search_string":"  gudiyatham (tk) vellore "},"bbox":[78.8428,12.9273,78.8428,12.9273]},{"type":"Feature","geometry":{"type":"Point","coordinates":[78.8531,12.9274]},"properties":{"district":"Vellore","taluk":"Gudiyatham (Tk)","village":"Seruvangi","name":"Seruvangi","area_type":"Rural","shop_code":"04EP036PN","search_string":"  gudiyatham (tk) vellore "},"bbox":[78.8531,12.9274,78.8531,12.9274]},{"type":"Feature","geometry":{"type":"Point","coordinates":[78.9203,12.9292]},"properties":{"district":"Vellore","taluk":"Gudiyatham (Tk)","village":"Vepur","name":"Vepur","area_type":"Rural","shop_code":"04EP016PN","search_string":"  gudiyatham (tk) vellore "},"bbox":[78.9203,12.9292,78.9203,12.9292]},{"type":"Feature","geometry":{"type":"Point","coordinates":[78.8775,12.9341]},"properties":{"district":"Vellore","taluk":"Gudiyatham (Tk)","village":"Indhranagar","name":"Indhranagar","area_type":"Rural","shop_code":"04EP024P1","search_string":"  gudiyatham (tk) vellore "},"bbox":[78.8775,12.9341,78.8775,12.9341]},{"type":"Feature","geometry":{"type":"Point","coordinates":[78.8665,12.9357]},"properties":{"district":"Vellore","taluk":"Gudiyatham (Tk)","village":"Thzhiyatham","name":"Thzhiyatham","area_type":"Rural","shop_code":"04EP035PN","search_string":"  gudiyatham (tk) vellore "},"bbox":[78.8665,12.9357,78.8665,12.9357]},{"type":"Feature","geometry":{"type":"Point","coordinates":[78.8635,12.9372]},"properties":{"district":"Vellore","taluk":"Gudiyatham (Tk)","village":"Gudiyatham","name":"Karpagam 8","area_type":"Urban","shop_code":"04EB002PN","search_string":"  gudiyatham (tk) vellore "},"bbox":[78.8635,12.9372,78.8635,12.9372]},{"type":"Feature","geometry":{"type":"Point","coordinates":[78.8983,12.9381]},"properties":{"district":"Vellore","taluk":"Gudiyatham (Tk)","village":"Ammanangkuppam","name":"Ammanangkuppam","area_type":"Rural","shop_code":"04EP027PN","search_string":"  gudiyatham (tk) vellore "},"bbox":[78.8983,12.9381,78.8983,12.9381]},{"type":"Feature","geometry":{"type":"Point","coordinates":[78.8408,12.9383]},"properties":{"district":"Vellore","taluk":"Gudiyatham (Tk)","village":"Nellurpettai","name":"Nellurpettai","area_type":"Rural","shop_code":"04EP039PN","search_string":"  gudiyatham (tk) vellore "},"bbox":[78.8408,12.9383,78.8408,12.9383]},{"type":"Feature","geometry":{"type":"Point","coordinates":[78.9138,12.9384]},"properties":{"district":"Vellore","taluk":"Gudiyatham (Tk)","village":"Gudiyatham R.S","name":"Gudiyatham R.S","area_type":"Rural","shop_code":"04EP018PN","search_string":"  gudiyatham (tk) vellore "},"bbox":[78.9138,12.9384,78.9138,12.9384]},{"type":"Feature","geometry":{"type":"Point","coordinates":[78.8613,12.9387]},"properties":{"district":"Vellore","taluk":"Gudiyatham (Tk)","village":"Gudiyatham","name":"Kamatchi  Pettai 24","area_type":"Urban","shop_code":"04EC010PN","search_string":"  gudiyatham (tk) vellore "},"bbox":[78.8613,12.9387,78.8613,12.9387]},{"type":"Feature","geometry":{"type":"Point","coordinates":[78.8598,12.9391]},"properties":{"district":"Vellore","taluk":"Gudiyatham (Tk)","village":"Gudiyatham","name":"K.M.Pettai 10","area_type":"Urban","shop_code":"04EC006PN","search_string":"  gudiyatham (tk) vellore "},"bbox":[78.8598,12.9391,78.8598,12.9391]},{"type":"Feature","geometry":{"type":"Point","coordinates":[78.8567,12.9396]},"properties":{"district":"Vellore","taluk":"Gudiyatham (Tk)","village":"Samundipuram","name":"Buddar Nagar","area_type":"Rural","shop_code":"04EP048P1","search_string":"  gudiyatham (tk) vellore "},"bbox":[78.8567,12.9396,78.8567,12.9396]},{"type":"Feature","geometry":{"type":"Point","coordinates":[78.8894,12.9402]},"properties":{"district":"Vellore","taluk":"Gudiyatham (Tk)","village":"Sedhugarai","name":"Sedhugarai","area_type":"Rural","shop_code":"04EP024PY","search_string":"  gudiyatham (tk) vellore "},"bbox":[78.8894,12.9402,78.8894,12.9402]},{"type":"Feature","geometry":{"type":"Point","coordinates":[78.8675,12.9404]},"properties":{"district":"Vellore","taluk":"Gudiyatham (Tk)","village":"Gudiyatham","name":"Thazhaiyatham 3","area_type":"Urban","shop_code":"04EC001PY","search_string":"  gudiyatham (tk) vellore "},"bbox":[78.8675,12.9404,78.8675,12.9404]},{"type":"Feature","geometry":{"type":"Point","coordinates":[78.856,12.9411]},"properties":{"district":"Vellore","taluk":"Gudiyatham (Tk)","village":"Samundipuram","name":"Samundipuram","area_type":"Rural","shop_code":"04EP048PY","search_string":"  gudiyatham (tk) vellore "},"bbox":[78.856,12.9411,78.856,12.9411]},{"type":"Feature","geometry":{"type":"Point","coordinates":[78.8725,12.9422]},"properties":{"district":"Vellore","taluk":"Gudiyatham (Tk)","village":"Gudiyatham","name":"Karpagam  2","area_type":"Urban","shop_code":"04EB001PN","search_string":"  gudiyatham (tk) vellore "},"bbox":[78.8725,12.9422,78.8725,12.9422]},{"type":"Feature","geometry":{"type":"Point","coordinates":[78.8619,12.9422]},"properties":{"district":"Vellore","taluk":"Gudiyatham (Tk)","village":"Gudiyatham","name":"Sekkumedu","area_type":"Urban","shop_code":"04EC001P1","search_string":"  gudiyatham (tk) vellore "},"bbox":[78.8619,12.9422,78.8619,12.9422]},{"type":"Feature","geometry":{"type":"Point","coordinates":[78.8569,12.9427]},"properties":{"district":"Vellore","taluk":"Gudiyatham (Tk)","village":"Gudiyatham","name":"Nellurpettai 6","area_type":"Urban","shop_code":"04EC003PN","search_string":"  gudiyatham (tk) vellore "},"bbox":[78.8569,12.9427,78.8569,12.9427]},{"type":"Feature","geometry":{"type":"Point","coordinates":[78.8566,12.9433]},"properties":{"district":"Vellore","taluk":"Gudiyatham (Tk)","village":"Gudiyatham","name":"Nellur Pettai 17","area_type":"Urban","shop_code":"04EC008PN","search_string":"  gudiyatham (tk) vellore "},"bbox":[78.8566,12.9433,78.8566,12.9433]},{"type":"Feature","geometry":{"type":"Point","coordinates":[78.8664,12.9433]},"properties":{"district":"Vellore","taluk":"Gudiyatham (Tk)","village":"Gudiyatham","name":"Karpagam 15","area_type":"Urban","shop_code":"04EB006PN","search_string":"  gudiyatham (tk) vellore "},"bbox":[78.8664,12.9433,78.8664,12.9433]},{"type":"Feature","geometry":{"type":"Point","coordinates":[78.8793,12.9436]},"properties":{"district":"Vellore","taluk":"Gudiyatham (Tk)","village":"Gudiyatham","name":"Textills Shop No 22","area_type":"Urban","shop_code":"04ED004PN","search_string":"  gudiyatham (tk) vellore "},"bbox":[78.8793,12.9436,78.8793,12.9436]},{"type":"Feature","geometry":{"type":"Point","coordinates":[78.8698,12.9446]},"properties":{"district":"Vellore","taluk":"Gudiyatham (Tk)","village":"Gudiyatham","name":"Karpagam 14","area_type":"Urban","shop_code":"04EB005PN","search_string":"  gudiyatham (tk) vellore "},"bbox":[78.8698,12.9446,78.8698,12.9446]},{"type":"Feature","geometry":{"type":"Point","coordinates":[78.8709,12.9447]},"properties":{"district":"Vellore","taluk":"Gudiyatham (Tk)","village":"Gudiyatham","name":"Karpagam 12","area_type":"Urban","shop_code":"04EB004PN","search_string":"  gudiyatham (tk) vellore "},"bbox":[78.8709,12.9447,78.8709,12.9447]},{"type":"Feature","geometry":{"type":"Point","coordinates":[78.8609,12.9453]},"properties":{"district":"Vellore","taluk":"Gudiyatham (Tk)","village":"Gudiyatham","name":"Karpagam  19","area_type":"Urban","shop_code":"04EB007PN","search_string":"  gudiyatham (tk) vellore "},"bbox":[78.8609,12.9453,78.8609,12.9453]},{"type":"Feature","geometry":{"type":"Point","coordinates":[78.8739,12.9455]},"properties":{"district":"Vellore","taluk":"Gudiyatham (Tk)","village":"Gudiyatham","name":"Textills Shop No 13","area_type":"Urban","shop_code":"04ED002PN","search_string":"  gudiyatham (tk) vellore "},"bbox":[78.8739,12.9455,78.8739,12.9455]},{"type":"Feature","geometry":{"type":"Point","coordinates":[78.8741,12.9456]},"properties":{"district":"Vellore","taluk":"Gudiyatham (Tk)","village":"Seampalli","name":"Seampalli","area_type":"Rural","shop_code":"04EP029PY","search_string":"  gudiyatham (tk) vellore "},"bbox":[78.8741,12.9456,78.8741,12.9456]},{"type":"Feature","geometry":{"type":"Point","coordinates":[78.8589,12.9464]},"properties":{"district":"Vellore","taluk":"Gudiyatham (Tk)","village":"Gudiyatham","name":"Karpagam 11","area_type":"Urban","shop_code":"04EB003PN","search_string":"  gudiyatham (tk) vellore "},"bbox":[78.8589,12.9464,78.8589,12.9464]},{"type":"Feature","geometry":{"type":"Point","coordinates":[78.8653,12.9468]},"properties":{"district":"Vellore","taluk":"Gudiyatham (Tk)","village":"Gudiyatham","name":"Amutham 4","area_type":"Urban","shop_code":"04EA001PN","search_string":"  gudiyatham (tk) vellore "},"bbox":[78.8653,12.9468,78.8653,12.9468]},{"type":"Feature","geometry":{"type":"Point","coordinates":[78.8753,12.9468]},"properties":{"district":"Vellore","taluk":"Gudiyatham (Tk)","village":"Gudiyatham","name":"Textills Shop No 1","area_type":"Urban","shop_code":"04ED001PN","search_string":"  gudiyatham (tk) vellore "},"bbox":[78.8753,12.9468,78.8753,12.9468]},{"type":"Feature","geometry":{"type":"Point","coordinates":[78.8754,12.9474]},"properties":{"district":"Vellore","taluk":"Gudiyatham (Tk)","village":"V C Palli","name":"Arigavaripalli","area_type":"Rural","shop_code":"04EP001P1","search_string":"  gudiyatham (tk) vellore "},"bbox":[78.8754,12.9474,78.8754,12.9474]},{"type":"Feature","geometry":{"type":"Point","coordinates":[78.8755,12.9474]},"properties":{"district":"Vellore","taluk":"Gudiyatham (Tk)","village":"V Mottur","name":"V.Mottur","area_type":"Rural","shop_code":"04EP003P1","search_string":"  gudiyatham (tk) vellore "},"bbox":[78.8755,12.9474,78.8755,12.9474]},{"type":"Feature","geometry":{"type":"Point","coordinates":[78.9055,12.9477]},"properties":{"district":"Vellore","taluk":"Gudiyatham (Tk)","village":"Chethuvandai","name":"Chethuvandai","area_type":"Rural","shop_code":"04EP025PN","search_string":"  gudiyatham (tk) vellore "},"bbox":[78.9055,12.9477,78.9055,12.9477]},{"type":"Feature","geometry":{"type":"Point","coordinates":[78.8323,12.9477]},"properties":{"district":"Vellore","taluk":"Gudiyatham (Tk)","village":"Kalarpalayam","name":"Kalarpalayam","area_type":"Rural","shop_code":"04EP052P1","search_string":"  gudiyatham (tk) vellore "},"bbox":[78.8323,12.9477,78.8323,12.9477]},{"type":"Feature","geometry":{"type":"Point","coordinates":[78.8124,12.9478]},"properties":{"district":"Vellore","taluk":"Gudiyatham (Tk)","village":"Kuttaimadu","name":"Kuttaimadu","area_type":"Rural","shop_code":"04EP053PN","search_string":"  gudiyatham (tk) vellore "},"bbox":[78.8124,12.9478,78.8124,12.9478]},{"type":"Feature","geometry":{"type":"Point","coordinates":[78.8699,12.9488]},"properties":{"district":"Vellore","taluk":"Gudiyatham (Tk)","village":"Gudiyatham","name":"Karpagam 20","area_type":"Urban","shop_code":"04EB008PN","search_string":"  gudiyatham (tk) vellore "},"bbox":[78.8699,12.9488,78.8699,12.9488]},{"type":"Feature","geometry":{"type":"Point","coordinates":[78.8769,12.9493]},"properties":{"district":"Vellore","taluk":"Gudiyatham (Tk)","village":"Gudiyatham","name":"Textills Shop No 21","area_type":"Urban","shop_code":"04ED003PN","search_string":"  gudiyatham (tk) vellore "},"bbox":[78.8769,12.9493,78.8769,12.9493]},{"type":"Feature","geometry":{"type":"Point","coordinates":[78.894,12.9493]},"properties":{"district":"Vellore","taluk":"Gudiyatham (Tk)","village":"Rajakovil","name":"Rajakovil","area_type":"Rural","shop_code":"04EP022P1","search_string":"  gudiyatham (tk) vellore "},"bbox":[78.894,12.9493,78.894,12.9493]},{"type":"Feature","geometry":{"type":"Point","coordinates":[78.87,12.9502]},"properties":{"district":"Vellore","taluk":"Gudiyatham (Tk)","village":"Gudiyatham","name":"Pitchiyanour 7","area_type":"Urban","shop_code":"04EC004PN","search_string":"  gudiyatham (tk) vellore "},"bbox":[78.87,12.9502,78.87,12.9502]},{"type":"Feature","geometry":{"type":"Point","coordinates":[78.8235,12.9503]},"properties":{"district":"Vellore","taluk":"Gudiyatham (Tk)","village":"Yardhangal","name":"Yardhangal","area_type":"Rural","shop_code":"04EP052PY","search_string":"  gudiyatham (tk) vellore "},"bbox":[78.8235,12.9503,78.8235,12.9503]},{"type":"Feature","geometry":{"type":"Point","coordinates":[78.8656,12.9507]},"properties":{"district":"Vellore","taluk":"Gudiyatham (Tk)","village":"Gudiyatham","name":"Amutham 23","area_type":"Urban","shop_code":"04EA002PN","search_string":"  gudiyatham (tk) vellore "},"bbox":[78.8656,12.9507,78.8656,12.9507]},{"type":"Feature","geometry":{"type":"Point","coordinates":[78.8702,12.9508]},"properties":{"district":"Vellore","taluk":"Gudiyatham (Tk)","village":"Gudiyatham","name":"Pitchiyanour 9","area_type":"Urban","shop_code":"04EC005PN","search_string":"  gudiyatham (tk) vellore "},"bbox":[78.8702,12.9508,78.8702,12.9508]},{"type":"Feature","geometry":{"type":"Point","coordinates":[78.8685,12.9514]},"properties":{"district":"Vellore","taluk":"Gudiyatham (Tk)","village":"Gudiyatham","name":"Dharanam Pettei 16","area_type":"Urban","shop_code":"04EC007PN","search_string":"  gudiyatham (tk) vellore "},"bbox":[78.8685,12.9514,78.8685,12.9514]},{"type":"Feature","geometry":{"type":"Point","coordinates":[78.886,12.9518]},"properties":{"district":"Vellore","taluk":"Gudiyatham (Tk)","village":"Kondasamuthiram","name":"Kondasamuthiram","area_type":"Rural","shop_code":"04EP022PY","search_string":"  gudiyatham (tk) vellore "},"bbox":[78.886,12.9518,78.886,12.9518]},{"type":"Feature","geometry":{"type":"Point","coordinates":[78.897,12.9534]},"properties":{"district":"Vellore","taluk":"Gudiyatham (Tk)","village":"Govindapuram","name":"Govindapuram","area_type":"Rural","shop_code":"04EP026PN","search_string":"  gudiyatham (tk) vellore "},"bbox":[78.897,12.9534,78.897,12.9534]},{"type":"Feature","geometry":{"type":"Point","coordinates":[78.8684,12.9536]},"properties":{"district":"Vellore","taluk":"Gudiyatham (Tk)","village":"Gudiyatham","name":"Dharanampettai 5","area_type":"Urban","shop_code":"04EC002PN","search_string":"  gudiyatham (tk) vellore "},"bbox":[78.8684,12.9536,78.8684,12.9536]},{"type":"Feature","geometry":{"type":"Point","coordinates":[78.8412,12.9555]},"properties":{"district":"Vellore","taluk":"Gudiyatham (Tk)","village":"Perumbadi","name":"Perumbadi","area_type":"Rural","shop_code":"04EP032PN","search_string":"  gudiyatham (tk) vellore "},"bbox":[78.8412,12.9555,78.8412,12.9555]},{"type":"Feature","geometry":{"type":"Point","coordinates":[78.8716,12.9558]},"properties":{"district":"Vellore","taluk":"Gudiyatham (Tk)","village":"Gudiyatham","name":"Pitchianour 18","area_type":"Urban","shop_code":"04EC009PN","search_string":"  gudiyatham (tk) vellore "},"bbox":[78.8716,12.9558,78.8716,12.9558]},{"type":"Feature","geometry":{"type":"Point","coordinates":[78.8753,12.9565]},"properties":{"district":"Vellore","taluk":"Gudiyatham (Tk)","village":"Pitchanour","name":"Pitchanour","area_type":"Rural","shop_code":"04EP023PN","search_string":"  gudiyatham (tk) vellore "},"bbox":[78.8753,12.9565,78.8753,12.9565]},{"type":"Feature","geometry":{"type":"Point","coordinates":[78.9117,12.9567]},"properties":{"district":"Vellore","taluk":"Gudiyatham (Tk)","village":"Chenrayanpalli","name":"Chenrayanpalli","area_type":"Rural","shop_code":"04EP028PN","search_string":"  gudiyatham (tk) vellore "},"bbox":[78.9117,12.9567,78.9117,12.9567]},{"type":"Feature","geometry":{"type":"Point","coordinates":[78.8645,12.957]},"properties":{"district":"Vellore","taluk":"Gudiyatham (Tk)","village":"Kallur","name":"Kallur","area_type":"Rural","shop_code":"04EP047PN","search_string":"  gudiyatham (tk) vellore "},"bbox":[78.8645,12.957,78.8645,12.957]},{"type":"Feature","geometry":{"type":"Point","coordinates":[78.8555,12.9572]},"properties":{"district":"Vellore","taluk":"Gudiyatham (Tk)","village":"Sevoor","name":"Sevoor","area_type":"Rural","shop_code":"04EP038PN","search_string":"  gudiyatham (tk) vellore "},"bbox":[78.8555,12.9572,78.8555,12.9572]},{"type":"Feature","geometry":{"type":"Point","coordinates":[78.8356,12.9609]},"properties":{"district":"Vellore","taluk":"Gudiyatham (Tk)","village":"Akravaram","name":"Akravaram","area_type":"Rural","shop_code":"04EP030PY","search_string":"  gudiyatham (tk) vellore "},"bbox":[78.8356,12.9609,78.8356,12.9609]},{"type":"Feature","geometry":{"type":"Point","coordinates":[78.84,12.961]},"properties":{"district":"Vellore","taluk":"Gudiyatham (Tk)","village":"Muingapattu","name":"Muingapattu","area_type":"Rural","shop_code":"04EP037PN","search_string":"  gudiyatham (tk) vellore "},"bbox":[78.84,12.961,78.84,12.961]},{"type":"Feature","geometry":{"type":"Point","coordinates":[78.8215,12.9639]},"properties":{"district":"Vellore","taluk":"Gudiyatham (Tk)","village":"Aripattarai","name":"Eripattarai","area_type":"Rural","shop_code":"04EP030P1","search_string":"  gudiyatham (tk) vellore "},"bbox":[78.8215,12.9639,78.8215,12.9639]},{"type":"Feature","geometry":{"type":"Point","coordinates":[78.8339,12.9646]},"properties":{"district":"Vellore","taluk":"Gudiyatham (Tk)","village":"Pakkam","name":"Minnur","area_type":"Rural","shop_code":"04EP045PN","search_string":"  gudiyatham (tk) vellore "},"bbox":[78.8339,12.9646,78.8339,12.9646]},{"type":"Feature","geometry":{"type":"Point","coordinates":[78.8542,12.9693]},"properties":{"district":"Vellore","taluk":"Gudiyatham (Tk)","village":"Katharikuppam","name":"Katharikuppam","area_type":"Rural","shop_code":"04EP042PN","search_string":"  gudiyatham (tk) vellore "},"bbox":[78.8542,12.9693,78.8542,12.9693]},{"type":"Feature","geometry":{"type":"Point","coordinates":[78.8242,12.9704]},"properties":{"district":"Vellore","taluk":"Gudiyatham (Tk)","village":"Rangasamuthiram","name":"Rangasamuthiram","area_type":"Rural","shop_code":"04EP033PN","search_string":"  gudiyatham (tk) vellore "},"bbox":[78.8242,12.9704,78.8242,12.9704]},{"type":"Feature","geometry":{"type":"Point","coordinates":[78.848,12.9732]},"properties":{"district":"Vellore","taluk":"Gudiyatham (Tk)","village":"Thattaparai","name":"Thattaparai","area_type":"Rural","shop_code":"04EP040PY","search_string":"  gudiyatham (tk) vellore "},"bbox":[78.848,12.9732,78.848,12.9732]},{"type":"Feature","geometry":{"type":"Point","coordinates":[78.8677,12.9737]},"properties":{"district":"Vellore","taluk":"Gudiyatham (Tk)","village":"Pakkam","name":"Pakkam","area_type":"Rural","shop_code":"04EP044PY","search_string":"  gudiyatham (tk) vellore "},"bbox":[78.8677,12.9737,78.8677,12.9737]},{"type":"Feature","geometry":{"type":"Point","coordinates":[78.8554,12.9747]},"properties":{"district":"Vellore","taluk":"Gudiyatham (Tk)","village":"Mukkuntram","name":"Mukkuntram Colany","area_type":"Rural","shop_code":"04EP041P1","search_string":"  gudiyatham (tk) vellore "},"bbox":[78.8554,12.9747,78.8554,12.9747]},{"type":"Feature","geometry":{"type":"Point","coordinates":[78.889,12.9794]},"properties":{"district":"Vellore","taluk":"Gudiyatham (Tk)","village":"Ramalai","name":"Gandhi Kanavai","area_type":"Rural","shop_code":"04EP057P1","search_string":"  gudiyatham (tk) vellore "},"bbox":[78.889,12.9794,78.889,12.9794]},{"type":"Feature","geometry":{"type":"Point","coordinates":[78.8706,12.981]},"properties":{"district":"Vellore","taluk":"Gudiyatham (Tk)","village":"Pakkam","name":"Vengatapuram","area_type":"Rural","shop_code":"04EP044P1","search_string":"  gudiyatham (tk) vellore "},"bbox":[78.8706,12.981,78.8706,12.981]},{"type":"Feature","geometry":{"type":"Point","coordinates":[78.8527,12.9838]},"properties":{"district":"Vellore","taluk":"Gudiyatham (Tk)","village":"Chinnalapalli","name":"Chinnalapalli","area_type":"Rural","shop_code":"04EP043PN","search_string":"  gudiyatham (tk) vellore "},"bbox":[78.8527,12.9838,78.8527,12.9838]},{"type":"Feature","geometry":{"type":"Point","coordinates":[78.816,12.9848]},"properties":{"district":"Vellore","taluk":"Gudiyatham (Tk)","village":"Gudipalli","name":"Gudipalli","area_type":"Rural","shop_code":"04EP029P1","search_string":"  gudiyatham (tk) vellore "},"bbox":[78.816,12.9848,78.816,12.9848]},{"type":"Feature","geometry":{"type":"Point","coordinates":[78.8554,12.9871]},"properties":{"district":"Vellore","taluk":"Gudiyatham (Tk)","village":"Mukkuntram","name":"Mukkuntram","area_type":"Rural","shop_code":"04EP041PY","search_string":"  gudiyatham (tk) vellore "},"bbox":[78.8554,12.9871,78.8554,12.9871]},{"type":"Feature","geometry":{"type":"Point","coordinates":[78.82,12.9881]},"properties":{"district":"Vellore","taluk":"Gudiyatham (Tk)","village":"Mordhana","name":"Upperapalli","area_type":"Rural","shop_code":"04EP031P1","search_string":"  gudiyatham (tk) vellore "},"bbox":[78.82,12.9881,78.82,12.9881]},{"type":"Feature","geometry":{"type":"Point","coordinates":[78.8855,12.9907]},"properties":{"district":"Vellore","taluk":"Gudiyatham (Tk)","village":"Ramalai","name":"Ramalai","area_type":"Rural","shop_code":"04EP057PY","search_string":"  gudiyatham (tk) vellore "},"bbox":[78.8855,12.9907,78.8855,12.9907]},{"type":"Feature","geometry":{"type":"Point","coordinates":[78.8724,12.9915]},"properties":{"district":"Vellore","taluk":"Gudiyatham (Tk)","village":"Kallapadi","name":"Kotchalur","area_type":"Rural","shop_code":"04EP058P1","search_string":"  gudiyatham (tk) vellore "},"bbox":[78.8724,12.9915,78.8724,12.9915]},{"type":"Feature","geometry":{"type":"Point","coordinates":[78.8061,12.995]},"properties":{"district":"Vellore","taluk":"Gudiyatham (Tk)","village":"Jittapalli","name":"Jittapalli","area_type":"Rural","shop_code":"04EP031PY","search_string":"  gudiyatham (tk) vellore "},"bbox":[78.8061,12.995,78.8061,12.995]},{"type":"Feature","geometry":{"type":"Point","coordinates":[78.8527,12.9958]},"properties":{"district":"Vellore","taluk":"Gudiyatham (Tk)","village":"Surallur","name":"Surallur","area_type":"Rural","shop_code":"04EP009P1","search_string":"  gudiyatham (tk) vellore "},"bbox":[78.8527,12.9958,78.8527,12.9958]},{"type":"Feature","geometry":{"type":"Point","coordinates":[78.8435,12.9973]},"properties":{"district":"Vellore","taluk":"Gudiyatham (Tk)","village":"Sevoor","name":"Vellari","area_type":"Rural","shop_code":"04EP040P1","search_string":"  gudiyatham (tk) vellore "},"bbox":[78.8435,12.9973,78.8435,12.9973]},{"type":"Feature","geometry":{"type":"Point","coordinates":[78.8965,12.9993]},"properties":{"district":"Vellore","taluk":"Gudiyatham (Tk)","village":"Thatimanapalli","name":"Thatimanapalli","area_type":"Rural","shop_code":"04EP056PN","search_string":"  gudiyatham (tk) vellore "},"bbox":[78.8965,12.9993,78.8965,12.9993]},{"type":"Feature","geometry":{"type":"Point","coordinates":[78.9063,13.0013]},"properties":{"district":"Vellore","taluk":"Gudiyatham (Tk)","village":"Kallapadi","name":"Kallapadi","area_type":"Rural","shop_code":"04EP054PY","search_string":"  gudiyatham (tk) vellore "},"bbox":[78.9063,13.0013,78.9063,13.0013]},{"type":"Feature","geometry":{"type":"Point","coordinates":[78.8781,13.0023]},"properties":{"district":"Vellore","taluk":"Gudiyatham (Tk)","village":"Ramalai","name":"R.Krishnapuram","area_type":"Rural","shop_code":"04EP058PY","search_string":"  gudiyatham (tk) vellore "},"bbox":[78.8781,13.0023,78.8781,13.0023]},{"type":"Feature","geometry":{"type":"Point","coordinates":[78.8635,13.0023]},"properties":{"district":"Vellore","taluk":"Gudiyatham (Tk)","village":"Sanguntram","name":"Sanguntram Colony","area_type":"Rural","shop_code":"04EP010P1","search_string":"  gudiyatham (tk) vellore "},"bbox":[78.8635,13.0023,78.8635,13.0023]},{"type":"Feature","geometry":{"type":"Point","coordinates":[78.8625,13.004]},"properties":{"district":"Vellore","taluk":"Gudiyatham (Tk)","village":"Sanguntram","name":"Sanguntram","area_type":"Rural","shop_code":"04EP010PY","search_string":"  gudiyatham (tk) vellore "},"bbox":[78.8625,13.004,78.8625,13.004]},{"type":"Feature","geometry":{"type":"Point","coordinates":[78.8061,13.0051]},"properties":{"district":"Vellore","taluk":"Gudiyatham (Tk)","village":"Kottaramadugu","name":"Kottaramadugu","area_type":"Rural","shop_code":"04EP031P2","search_string":"  gudiyatham (tk) vellore "},"bbox":[78.8061,13.0051,78.8061,13.0051]},{"type":"Feature","geometry":{"type":"Point","coordinates":[78.9158,13.009]},"properties":{"district":"Vellore","taluk":"Gudiyatham (Tk)","village":"Kallapadi","name":"K.Mottur","area_type":"Rural","shop_code":"04EP055PY","search_string":"  gudiyatham (tk) vellore "},"bbox":[78.9158,13.009,78.9158,13.009]},{"type":"Feature","geometry":{"type":"Point","coordinates":[78.904,13.011]},"properties":{"district":"Vellore","taluk":"Gudiyatham (Tk)","village":"Kallapadi","name":"K.Valasai","area_type":"Rural","shop_code":"04EP054P1","search_string":"  gudiyatham (tk) vellore "},"bbox":[78.904,13.011,78.904,13.011]},{"type":"Feature","geometry":{"type":"Point","coordinates":[78.8664,13.0133]},"properties":{"district":"Vellore","taluk":"Gudiyatham (Tk)","village":"S Mottur","name":"S.Mottur","area_type":"Rural","shop_code":"04EP009PY","search_string":"  gudiyatham (tk) vellore "},"bbox":[78.8664,13.0133,78.8664,13.0133]},{"type":"Feature","geometry":{"type":"Point","coordinates":[78.8664,13.021]},"properties":{"district":"Vellore","taluk":"Gudiyatham (Tk)","village":"R Gollapalli","name":"R.Gollapalli","area_type":"Rural","shop_code":"04EP049P1","search_string":"  gudiyatham (tk) vellore "},"bbox":[78.8664,13.021,78.8664,13.021]},{"type":"Feature","geometry":{"type":"Point","coordinates":[78.9347,13.0276]},"properties":{"district":"Vellore","taluk":"Gudiyatham (Tk)","village":"Kallapadi","name":"Annuppu","area_type":"Rural","shop_code":"04EP055P1","search_string":"  gudiyatham (tk) vellore "},"bbox":[78.9347,13.0276,78.9347,13.0276]},{"type":"Feature","geometry":{"type":"Point","coordinates":[78.8642,13.0288]},"properties":{"district":"Vellore","taluk":"Gudiyatham (Tk)","village":"Modikuppam","name":"Modikuppam","area_type":"Rural","shop_code":"04EP049PY","search_string":"  gudiyatham (tk) vellore "},"bbox":[78.8642,13.0288,78.8642,13.0288]},{"type":"Feature","geometry":{"type":"Point","coordinates":[78.864,13.029]},"properties":{"district":"Vellore","taluk":"Gudiyatham (Tk)","village":"Sainakundaa","name":"Sainakundaa","area_type":"Rural","shop_code":"04EP051PN","search_string":"  gudiyatham (tk) vellore "},"bbox":[78.864,13.029,78.864,13.029]},{"type":"Feature","geometry":{"type":"Point","coordinates":[78.8638,13.0402]},"properties":{"district":"Vellore","taluk":"Gudiyatham (Tk)","village":"Killgollapalli","name":"Killgollapalli","area_type":"Rural","shop_code":"04EP049P2","search_string":"  gudiyatham (tk) vellore "},"bbox":[78.8638,13.0402,78.8638,13.0402]},{"type":"Feature","geometry":{"type":"Point","coordinates":[78.8578,13.0408]},"properties":{"district":"Vellore","taluk":"Gudiyatham (Tk)","village":"Killgollapalli","name":"Kottamitta","area_type":"Rural","shop_code":"04EP049P3","search_string":"  gudiyatham (tk) vellore "},"bbox":[78.8578,13.0408,78.8578,13.0408]},{"type":"Feature","geometry":{"type":"Point","coordinates":[78.7843,13.0449]},"properties":{"district":"Vellore","taluk":"Gudiyatham (Tk)","village":"Mordhana","name":"Mordhana","area_type":"Rural","shop_code":"04MP043PN","search_string":"  gudiyatham (tk) vellore "},"bbox":[78.7843,13.0449,78.7843,13.0449]},{"type":"Feature","geometry":{"type":"Point","coordinates":[78.9438,13.0467]},"properties":{"district":"Vellore","taluk":"Gudiyatham (Tk)","village":"V R Palli","name":"V.R.Palli","area_type":"Rural","shop_code":"04EP002PY","search_string":"  gudiyatham (tk) vellore "},"bbox":[78.9438,13.0467,78.9438,13.0467]},{"type":"Feature","geometry":{"type":"Point","coordinates":[78.8594,13.049]},"properties":{"district":"Vellore","taluk":"Gudiyatham (Tk)","village":"Dhanakondapalli","name":"Dhanakondapalli","area_type":"Rural","shop_code":"04EP050PN","search_string":"  gudiyatham (tk) vellore "},"bbox":[78.8594,13.049,78.8594,13.049]},{"type":"Feature","geometry":{"type":"Point","coordinates":[78.9674,13.05]},"properties":{"district":"Vellore","taluk":"Gudiyatham (Tk)","village":"V C Palli","name":"Mathur","area_type":"Rural","shop_code":"04EP003PY","search_string":"  gudiyatham (tk) vellore "},"bbox":[78.9674,13.05,78.9674,13.05]},{"type":"Feature","geometry":{"type":"Point","coordinates":[78.9517,13.0517]},"properties":{"district":"Vellore","taluk":"Gudiyatham (Tk)","village":"V C Palli","name":"Pandapalli","area_type":"Rural","shop_code":"04EP002P1","search_string":"  gudiyatham (tk) vellore "},"bbox":[78.9517,13.0517,78.9517,13.0517]},{"type":"Feature","geometry":{"type":"Point","coordinates":[78.9578,13.0534]},"properties":{"district":"Vellore","taluk":"Gudiyatham (Tk)","village":"V C Palli","name":"V.C.Palli","area_type":"Rural","shop_code":"04EP001PY","search_string":"  gudiyatham (tk) vellore "},"bbox":[78.9578,13.0534,78.9578,13.0534]},{"type":"Feature","geometry":{"type":"Point","coordinates":[78.9787,13.0561]},"properties":{"district":"Vellore","taluk":"Gudiyatham (Tk)","village":"Puttavaripalli","name":"Angnaampalli","area_type":"Rural","shop_code":"04EP004P2","search_string":"  gudiyatham (tk) vellore "},"bbox":[78.9787,13.0561,78.9787,13.0561]},{"type":"Feature","geometry":{"type":"Point","coordinates":[78.9732,13.0669]},"properties":{"district":"Vellore","taluk":"Gudiyatham (Tk)","village":"Paradharami","name":"Poosarivalasai","area_type":"Rural","shop_code":"04EP004P1","search_string":"  gudiyatham (tk) vellore "},"bbox":[78.9732,13.0669,78.9732,13.0669]},{"type":"Feature","geometry":{"type":"Point","coordinates":[78.9732,13.0669]},"properties":{"district":"Vellore","taluk":"Gudiyatham (Tk)","village":"Paradharami","name":"Paradharami","area_type":"Rural","shop_code":"04EP004PY","search_string":"  gudiyatham (tk) vellore "},"bbox":[78.9732,13.0669,78.9732,13.0669]},{"type":"Feature","geometry":{"type":"Point","coordinates":[78.967,13.0689]},"properties":{"district":"Vellore","taluk":"Gudiyatham (Tk)","village":"Rangasamuthiram","name":"Rangasamuthiram","area_type":"Rural","shop_code":"04EP008PN","search_string":"  gudiyatham (tk) vellore "},"bbox":[78.967,13.0689,78.967,13.0689]},{"type":"Feature","geometry":{"type":"Point","coordinates":[78.9881,13.0735]},"properties":{"district":"Vellore","taluk":"Gudiyatham (Tk)","village":"Puttavaripalli","name":"Nallakavaniyure","area_type":"Rural","shop_code":"04EP005P1","search_string":"  gudiyatham (tk) vellore "},"bbox":[78.9881,13.0735,78.9881,13.0735]},{"type":"Feature","geometry":{"type":"Point","coordinates":[78.9898,13.0774]},"properties":{"district":"Vellore","taluk":"Gudiyatham (Tk)","village":"Puttavaripalli","name":"Puttavaripalli","area_type":"Rural","shop_code":"04EP005PY","search_string":"  gudiyatham (tk) vellore "},"bbox":[78.9898,13.0774,78.9898,13.0774]},{"type":"Feature","geometry":{"type":"Point","coordinates":[78.9335,12.9192]},"properties":{"district":"Vellore","taluk":"K.V.Kuppam(TK)","village":"Itharpuram","name":"Itharpuram","area_type":"Rural","shop_code":"04EP020PN","search_string":"  k.v.kuppam(tk) vellore "},"bbox":[78.9335,12.9192,78.9335,12.9192]},{"type":"Feature","geometry":{"type":"Point","coordinates":[79.0183,12.9283]},"properties":{"district":"Vellore","taluk":"K.V.Kuppam(TK)","village":"Kamarajapuram","name":"Kamarajapuram","area_type":"Rural","shop_code":"04HP048PN","search_string":"  k.v.kuppam(tk) vellore "},"bbox":[79.0183,12.9283,79.0183,12.9283]},{"type":"Feature","geometry":{"type":"Point","coordinates":[79.0568,12.9319]},"properties":{"district":"Vellore","taluk":"K.V.Kuppam(TK)","village":"Panancholai","name":"Panancholai","area_type":"Rural","shop_code":"04HP017P1","search_string":"  k.v.kuppam(tk) vellore "},"bbox":[79.0568,12.9319,79.0568,12.9319]},{"type":"Feature","geometry":{"type":"Point","coordinates":[78.9438,12.9323]},"properties":{"district":"Vellore","taluk":"K.V.Kuppam(TK)","village":"Pasumathur","name":"Pasumathur","area_type":"Rural","shop_code":"04EP019PN","search_string":"  k.v.kuppam(tk) vellore "},"bbox":[78.9438,12.9323,78.9438,12.9323]},{"type":"Feature","geometry":{"type":"Point","coordinates":[79.0332,12.9333]},"properties":{"district":"Vellore","taluk":"K.V.Kuppam(TK)","village":"Vada Virinjipuram","name":"Vada Virinjipuram","area_type":"Rural","shop_code":"04HP022PN","search_string":"  k.v.kuppam(tk) vellore "},"bbox":[79.0332,12.9333,79.0332,12.9333]},{"type":"Feature","geometry":{"type":"Point","coordinates":[78.9977,12.9346]},"properties":{"district":"Vellore","taluk":"K.V.Kuppam(TK)","village":"Kavasampattu","name":"Kavasampattu","area_type":"Rural","shop_code":"04HP002PN","search_string":"  k.v.kuppam(tk) vellore "},"bbox":[78.9977,12.9346,78.9977,12.9346]},{"type":"Feature","geometry":{"type":"Point","coordinates":[79.001,12.9352]},"properties":{"district":"Vellore","taluk":"K.V.Kuppam(TK)","village":"Kizhur","name":"Kizhur","area_type":"Rural","shop_code":"04HP003PN","search_string":"  k.v.kuppam(tk) vellore "},"bbox":[79.001,12.9352,79.001,12.9352]},{"type":"Feature","geometry":{"type":"Point","coordinates":[78.9281,12.9357]},"properties":{"district":"Vellore","taluk":"K.V.Kuppam(TK)","village":"Neteri","name":"Neteri","area_type":"Rural","shop_code":"04EP021PN","search_string":"  k.v.kuppam(tk) vellore "},"bbox":[78.9281,12.9357,78.9281,12.9357]},{"type":"Feature","geometry":{"type":"Point","coordinates":[79.045,12.9375]},"properties":{"district":"Vellore","taluk":"K.V.Kuppam(TK)","village":"Kothamangalam","name":"Kothamangalam","area_type":"Rural","shop_code":"04HP017PY","search_string":"  k.v.kuppam(tk) vellore "},"bbox":[79.045,12.9375,79.045,12.9375]},{"type":"Feature","geometry":{"type":"Point","coordinates":[79.0388,12.941]},"properties":{"district":"Vellore","taluk":"K.V.Kuppam(TK)","village":"Vazhvankundaram","name":"Vazhvankundaram","area_type":"Rural","shop_code":"04HP018PN","search_string":"  k.v.kuppam(tk) vellore "},"bbox":[79.0388,12.941,79.0388,12.941]},{"type":"Feature","geometry":{"type":"Point","coordinates":[79.0139,12.9416]},"properties":{"district":"Vellore","taluk":"K.V.Kuppam(TK)","village":"Mudinampattu","name":"Mudinampattu","area_type":"Rural","shop_code":"04HP005PN","search_string":"  k.v.kuppam(tk) vellore "},"bbox":[79.0139,12.9416,79.0139,12.9416]},{"type":"Feature","geometry":{"type":"Point","coordinates":[78.9804,12.9424]},"properties":{"district":"Vellore","taluk":"K.V.Kuppam(TK)","village":"Kavanur","name":"Kavanur","area_type":"Rural","shop_code":"04EP062PN","search_string":"  k.v.kuppam(tk) vellore "},"bbox":[78.9804,12.9424,78.9804,12.9424]},{"type":"Feature","geometry":{"type":"Point","coordinates":[79.0793,12.9437]},"properties":{"district":"Vellore","taluk":"K.V.Kuppam(TK)","village":"Thirumani","name":"Thirumani","area_type":"Rural","shop_code":"04HP163PN","search_string":"  k.v.kuppam(tk) vellore "},"bbox":[79.0793,12.9437,79.0793,12.9437]},{"type":"Feature","geometry":{"type":"Point","coordinates":[79.0847,12.946]},"properties":{"district":"Vellore","taluk":"K.V.Kuppam(TK)","village":"Ozhayathur","name":"Ozhayathur","area_type":"Rural","shop_code":"04HP164PN","search_string":"  k.v.kuppam(tk) vellore "},"bbox":[79.0847,12.946,79.0847,12.946]},{"type":"Feature","geometry":{"type":"Point","coordinates":[79.0474,12.9466]},"properties":{"district":"Vellore","taluk":"K.V.Kuppam(TK)","village":"Sholamur","name":"Sholamur","area_type":"Rural","shop_code":"04HP016P1","search_string":"  k.v.kuppam(tk) vellore "},"bbox":[79.0474,12.9466,79.0474,12.9466]},{"type":"Feature","geometry":{"type":"Point","coordinates":[79.0475,12.9467]},"properties":{"district":"Vellore","taluk":"K.V.Kuppam(TK)","village":"Eda Krishnapuram","name":"Eda Krishnapuram","area_type":"Rural","shop_code":"04HP016PY","search_string":"  k.v.kuppam(tk) vellore "},"bbox":[79.0475,12.9467,79.0475,12.9467]},{"type":"Feature","geometry":{"type":"Point","coordinates":[79.0209,12.9492]},"properties":{"district":"Vellore","taluk":"K.V.Kuppam(TK)","village":"Kizh Vilachur","name":"Kizh Vilachur","area_type":"Rural","shop_code":"04HP080PN","search_string":"  k.v.kuppam(tk) vellore "},"bbox":[79.0209,12.9492,79.0209,12.9492]},{"type":"Feature","geometry":{"type":"Point","coordinates":[79.038,12.9504]},"properties":{"district":"Vellore","taluk":"K.V.Kuppam(TK)","village":"Velampattu","name":"Velampattu","area_type":"Rural","shop_code":"04HP019PN","search_string":"  k.v.kuppam(tk) vellore "},"bbox":[79.038,12.9504,79.038,12.9504]},{"type":"Feature","geometry":{"type":"Point","coordinates":[78.961,12.9508]},"properties":{"district":"Vellore","taluk":"K.V.Kuppam(TK)","village":"Chenangkuppam","name":"Chennankuppam","area_type":"Rural","shop_code":"04EP061PN","search_string":"  k.v.kuppam(tk) vellore "},"bbox":[78.961,12.9508,78.961,12.9508]},{"type":"Feature","geometry":{"type":"Point","coordinates":[78.9857,12.9516]},"properties":{"district":"Vellore","taluk":"K.V.Kuppam(TK)","village":"KV Kuppam","name":"Kv Kuppam Karpagam","area_type":"Rural","shop_code":"04HB012PN","search_string":"  k.v.kuppam(tk) vellore "},"bbox":[78.9857,12.9516,78.9857,12.9516]},{"type":"Feature","geometry":{"type":"Point","coordinates":[79.0086,12.9519]},"properties":{"district":"Vellore","taluk":"K.V.Kuppam(TK)","village":"Pillanthipattu","name":"Pillanthipattu","area_type":"Rural","shop_code":"04HP006PN","search_string":"  k.v.kuppam(tk) vellore "},"bbox":[79.0086,12.9519,79.0086,12.9519]},{"type":"Feature","geometry":{"type":"Point","coordinates":[79.0129,12.9521]},"properties":{"district":"Vellore","taluk":"K.V.Kuppam(TK)","village":"Mel Vilasur","name":"Mel Vilasur","area_type":"Rural","shop_code":"04HP004PN","search_string":"  k.v.kuppam(tk) vellore "},"bbox":[79.0129,12.9521,79.0129,12.9521]},{"type":"Feature","geometry":{"type":"Point","coordinates":[78.9275,12.9535]},"properties":{"district":"Vellore","taluk":"K.V.Kuppam(TK)","village":"K.A. Motur","name":"K.A. Motur","area_type":"Rural","shop_code":"04EP012PN","search_string":"  k.v.kuppam(tk) vellore "},"bbox":[78.9275,12.9535,78.9275,12.9535]},{"type":"Feature","geometry":{"type":"Point","coordinates":[78.9363,12.9538]},"properties":{"district":"Vellore","taluk":"K.V.Kuppam(TK)","village":"Kosavanputhur","name":"Kosavanputhur","area_type":"Rural","shop_code":"04EP013PN","search_string":"  k.v.kuppam(tk) vellore "},"bbox":[78.9363,12.9538,78.9363,12.9538]},{"type":"Feature","geometry":{"type":"Point","coordinates":[78.9705,12.9545]},"properties":{"district":"Vellore","taluk":"K.V.Kuppam(TK)","village":"P.K. Puram","name":"P.K. Puram","area_type":"Rural","shop_code":"04EP060PN","search_string":"  k.v.kuppam(tk) vellore "},"bbox":[78.9705,12.9545,78.9705,12.9545]},{"type":"Feature","geometry":{"type":"Point","coordinates":[78.9872,12.9548]},"properties":{"district":"Vellore","taluk":"K.V.Kuppam(TK)","village":"KV Kuppam","name":"Kv Kuppam Coopretive Sosity","area_type":"Rural","shop_code":"04HE001PN","search_string":"  k.v.kuppam(tk) vellore "},"bbox":[78.9872,12.9548,78.9872,12.9548]},{"type":"Feature","geometry":{"type":"Point","coordinates":[78.9845,12.9555]},"properties":{"district":"Vellore","taluk":"K.V.Kuppam(TK)","village":"KV Kuppam","name":"K.V Kuppam","area_type":"Urban","shop_code":"04HP089PN","search_string":"  k.v.kuppam(tk) vellore "},"bbox":[78.9845,12.9555,78.9845,12.9555]},{"type":"Feature","geometry":{"type":"Point","coordinates":[78.9234,12.9569]},"properties":{"district":"Vellore","taluk":"K.V.Kuppam(TK)","village":"Kill Alathoor","name":"Kill Alathoor","area_type":"Rural","shop_code":"04EP014PN","search_string":"  k.v.kuppam(tk) vellore "},"bbox":[78.9234,12.9569,78.9234,12.9569]},{"type":"Feature","geometry":{"type":"Point","coordinates":[78.991,12.9569]},"properties":{"district":"Vellore","taluk":"K.V.Kuppam(TK)","village":"Veppanganeri","name":"Veppanganeri","area_type":"Rural","shop_code":"04HP093PN","search_string":"  k.v.kuppam(tk) vellore "},"bbox":[78.991,12.9569,78.991,12.9569]},{"type":"Feature","geometry":{"type":"Point","coordinates":[79.0261,12.9572]},"properties":{"district":"Vellore","taluk":"K.V.Kuppam(TK)","village":"Vaduganthangal","name":"Vaduganthangal-E.B.Colony","area_type":"Rural","shop_code":"04HP082P1","search_string":"  k.v.kuppam(tk) vellore "},"bbox":[79.0261,12.9572,79.0261,12.9572]},{"type":"Feature","geometry":{"type":"Point","coordinates":[78.954,12.959]},"properties":{"district":"Vellore","taluk":"K.V.Kuppam(TK)","village":"Kizh Puthur","name":"Kizh Puthur","area_type":"Rural","shop_code":"04EP059PN","search_string":"  k.v.kuppam(tk) vellore "},"bbox":[78.954,12.959,78.954,12.959]},{"type":"Feature","geometry":{"type":"Point","coordinates":[79.0813,12.9611]},"properties":{"district":"Vellore","taluk":"K.V.Kuppam(TK)","village":"Vizhanthakal","name":"Vizhanthakal","area_type":"Rural","shop_code":"04HP161PN","search_string":"  k.v.kuppam(tk) vellore "},"bbox":[79.0813,12.9611,79.0813,12.9611]},{"type":"Feature","geometry":{"type":"Point","coordinates":[79.0669,12.9626]},"properties":{"district":"Vellore","taluk":"K.V.Kuppam(TK)","village":"Annangudi","name":"Annangudi","area_type":"Rural","shop_code":"04HP020PN","search_string":"  k.v.kuppam(tk) vellore "},"bbox":[79.0669,12.9626,79.0669,12.9626]},{"type":"Feature","geometry":{"type":"Point","coordinates":[79.017,12.9639]},"properties":{"district":"Vellore","taluk":"K.V.Kuppam(TK)","village":"Vaduganthangal","name":"Vaduganthangal","area_type":"Rural","shop_code":"04HP082PY","search_string":"  k.v.kuppam(tk) vellore "},"bbox":[79.017,12.9639,79.017,12.9639]},{"type":"Feature","geometry":{"type":"Point","coordinates":[79.0464,12.9655]},"properties":{"district":"Vellore","taluk":"K.V.Kuppam(TK)","village":"Edapalayam","name":"Edapalayam","area_type":"Rural","shop_code":"04HP071PN","search_string":"  k.v.kuppam(tk) vellore "},"bbox":[79.0464,12.9655,79.0464,12.9655]},{"type":"Feature","geometry":{"type":"Point","coordinates":[78.9251,12.9658]},"properties":{"district":"Vellore","taluk":"K.V.Kuppam(TK)","village":"Nagal","name":"Nagal","area_type":"Rural","shop_code":"04EP015PN","search_string":"  k.v.kuppam(tk) vellore "},"bbox":[78.9251,12.9658,78.9251,12.9658]},{"type":"Feature","geometry":{"type":"Point","coordinates":[79.0798,12.9674]},"properties":{"district":"Vellore","taluk":"K.V.Kuppam(TK)","village":"Kampatham","name":"Kampatham","area_type":"Rural","shop_code":"04HP043PN","search_string":"  k.v.kuppam(tk) vellore "},"bbox":[79.0798,12.9674,79.0798,12.9674]},{"type":"Feature","geometry":{"type":"Point","coordinates":[79.0685,12.9677]},"properties":{"district":"Vellore","taluk":"K.V.Kuppam(TK)","village":"Latheri","name":"Shop 2 Latheri","area_type":"Rural","shop_code":"04HC014PN","search_string":"  k.v.kuppam(tk) vellore "},"bbox":[79.0685,12.9677,79.0685,12.9677]},{"type":"Feature","geometry":{"type":"Point","coordinates":[79.0021,12.9687]},"properties":{"district":"Vellore","taluk":"K.V.Kuppam(TK)","village":"Thuthithangal","name":"Thuthithangal","area_type":"Rural","shop_code":"04HP094PN","search_string":"  k.v.kuppam(tk) vellore "},"bbox":[79.0021,12.9687,79.0021,12.9687]},{"type":"Feature","geometry":{"type":"Point","coordinates":[79.0177,12.9696]},"properties":{"district":"Vellore","taluk":"K.V.Kuppam(TK)","village":"Chinna Vaduganthangal","name":"Chinna Vaduganthangal","area_type":"Rural","shop_code":"04HP051PN","search_string":"  k.v.kuppam(tk) vellore "},"bbox":[79.0177,12.9696,79.0177,12.9696]},{"type":"Feature","geometry":{"type":"Point","coordinates":[78.9778,12.9708]},"properties":{"district":"Vellore","taluk":"K.V.Kuppam(TK)","village":"Perumangkuppam","name":"Peumangkuppam","area_type":"Rural","shop_code":"04HP011PN","search_string":"  k.v.kuppam(tk) vellore "},"bbox":[78.9778,12.9708,78.9778,12.9708]},{"type":"Feature","geometry":{"type":"Point","coordinates":[78.9628,12.9714]},"properties":{"district":"Vellore","taluk":"K.V.Kuppam(TK)","village":"Machanur","name":"Machanur","area_type":"Rural","shop_code":"04HP052PN","search_string":"  k.v.kuppam(tk) vellore "},"bbox":[78.9628,12.9714,78.9628,12.9714]},{"type":"Feature","geometry":{"type":"Point","coordinates":[79.0674,12.9735]},"properties":{"district":"Vellore","taluk":"K.V.Kuppam(TK)","village":"Latheri","name":"Shop 1 Latheri","area_type":"Rural","shop_code":"04HC013PN","search_string":"  k.v.kuppam(tk) vellore "},"bbox":[79.0674,12.9735,79.0674,12.9735]},{"type":"Feature","geometry":{"type":"Point","coordinates":[79.0553,12.9744]},"properties":{"district":"Vellore","taluk":"K.V.Kuppam(TK)","village":"B N Palayam","name":"B.N. Palayam","area_type":"Rural","shop_code":"04HP010PN","search_string":"  k.v.kuppam(tk) vellore "},"bbox":[79.0553,12.9744,79.0553,12.9744]},{"type":"Feature","geometry":{"type":"Point","coordinates":[78.9312,12.975]},"properties":{"district":"Vellore","taluk":"K.V.Kuppam(TK)","village":"Chinna Nagal","name":"Chinna Nagal","area_type":"Rural","shop_code":"04EP011PN","search_string":"  k.v.kuppam(tk) vellore "},"bbox":[78.9312,12.975,78.9312,12.975]},{"type":"Feature","geometry":{"type":"Point","coordinates":[79.0451,12.9761]},"properties":{"district":"Vellore","taluk":"K.V.Kuppam(TK)","village":"Puthoor","name":"Puthoor","area_type":"Rural","shop_code":"04HB017PN","search_string":"  k.v.kuppam(tk) vellore "},"bbox":[79.0451,12.9761,79.0451,12.9761]},{"type":"Feature","geometry":{"type":"Point","coordinates":[79.0781,12.9761]},"properties":{"district":"Vellore","taluk":"K.V.Kuppam(TK)","village":"Kanagasumuthiram","name":"Kanagasumuthiram","area_type":"Rural","shop_code":"04HP026PN","search_string":"  k.v.kuppam(tk) vellore "},"bbox":[79.0781,12.9761,79.0781,12.9761]},{"type":"Feature","geometry":{"type":"Point","coordinates":[78.9519,12.9771]},"properties":{"district":"Vellore","taluk":"K.V.Kuppam(TK)","village":"D.R. Kuppam","name":"D.R. Kuppam","area_type":"Rural","shop_code":"04EP017PN","search_string":"  k.v.kuppam(tk) vellore "},"bbox":[78.9519,12.9771,78.9519,12.9771]},{"type":"Feature","geometry":{"type":"Point","coordinates":[78.9657,12.979]},"properties":{"district":"Vellore","taluk":"K.V.Kuppam(TK)","village":"Murukambattu","name":"Murukambattu","area_type":"Rural","shop_code":"04HP033PN","search_string":"  k.v.kuppam(tk) vellore "},"bbox":[78.9657,12.979,78.9657,12.979]},{"type":"Feature","geometry":{"type":"Point","coordinates":[78.9658,12.9831]},"properties":{"district":"Vellore","taluk":"K.V.Kuppam(TK)","village":"Kangkuppam","name":"Kangkuppam","area_type":"Rural","shop_code":"04HP053PN","search_string":"  k.v.kuppam(tk) vellore "},"bbox":[78.9658,12.9831,78.9658,12.9831]},{"type":"Feature","geometry":{"type":"Point","coordinates":[78.9931,12.9842]},